{
    "system": "船14",
    "busstops": [
        {
            "index": "1",
            "id": "00126544",
            "name": "湘南ハイツ",
            "lat": "35.353898",
            "lng": "139.555015"
        },
        {
            "index": "2",
            "id": "00126543",
            "name": "椎郷",
            "lat": "35.356762",
            "lng": "139.551064"
        },
        {
            "index": "3",
            "id": "00126542",
            "name": "朝日平和台入口",
            "lat": "35.359109",
            "lng": "139.550093"
        },
        {
            "index": "4",
            "id": "00126505",
            "name": "鎌倉女子大前",
            "lat": "35.360113",
            "lng": "139.546834"
        },
        {
            "index": "5",
            "id": "00126504",
            "name": "平島(鎌倉市)",
            "lat": "35.360823",
            "lng": "139.544062"
        },
        {
            "index": "6",
            "id": "00126503",
            "name": "笠間十字路",
            "lat": "35.361021",
            "lng": "139.539279"
        },
        {
            "index": "7",
            "id": "00126502",
            "name": "笠間町",
            "lat": "35.360496",
            "lng": "139.537543"
        },
        {
            "index": "8",
            "id": "00126501",
            "name": "岩井口",
            "lat": "35.359325",
            "lng": "139.535652"
        },
        {
            "index": "9",
            "id": "00126594",
            "name": "大船駅(横浜市栄区)",
            "lat": "35.355998",
            "lng": "139.533269"
        }
    ],
    "route_url": "https://www.kanachu.co.jp/dia/route/index/cid:0000802936/"
}
