{
    "system": "01",
    "busstops": [
        {
            "index": "1",
            "id": "00102821",
            "name": "中山駅",
            "lat": "35.514318",
            "lng": "139.539587"
        },
        {
            "index": "2",
            "id": "00130396",
            "name": "緑消防署前",
            "lat": "35.511691",
            "lng": "139.540228"
        },
        {
            "index": "3",
            "id": "00102822",
            "name": "中山町",
            "lat": "35.510955",
            "lng": "139.543206"
        },
        {
            "index": "4",
            "id": "00102856",
            "name": "中山小学校南",
            "lat": "35.510283",
            "lng": "139.546066"
        },
        {
            "index": "5",
            "id": "00102371",
            "name": "上山町(横浜市緑区)",
            "lat": "35.50926",
            "lng": "139.549696"
        },
        {
            "index": "6",
            "id": "00102236",
            "name": "石神(横浜市緑区)",
            "lat": "35.508003",
            "lng": "139.552926"
        },
        {
            "index": "7",
            "id": "00102939",
            "name": "白山ハイテクパーク",
            "lat": "35.507579",
            "lng": "139.555508"
        },
        {
            "index": "8",
            "id": "00103124",
            "name": "緑車庫前",
            "lat": "35.506687",
            "lng": "139.558485"
        },
        {
            "index": "9",
            "id": "00102938",
            "name": "白山一丁目(横浜市緑区)",
            "lat": "35.508753",
            "lng": "139.560256"
        },
        {
            "index": "10",
            "id": "00102375",
            "name": "鴨居橋",
            "lat": "35.509494",
            "lng": "139.563137"
        },
        {
            "index": "11",
            "id": "00102852",
            "name": "中村通",
            "lat": "35.507671",
            "lng": "139.564171"
        },
        {
            "index": "12",
            "id": "00102377",
            "name": "鴨居町",
            "lat": "35.505852",
            "lng": "139.564274"
        },
        {
            "index": "13",
            "id": "00102700",
            "name": "竹山団地入口",
            "lat": "35.501678",
            "lng": "139.563129"
        },
        {
            "index": "14",
            "id": "00103224",
            "name": "幼稚園前(横浜市緑区)",
            "lat": "35.500538",
            "lng": "139.561797"
        },
        {
            "index": "15",
            "id": "00102699",
            "name": "竹山団地中央",
            "lat": "35.498121",
            "lng": "139.562099"
        },
        {
            "index": "16",
            "id": "00129733",
            "name": "竹山団地",
            "lat": "35.496849",
            "lng": "139.562268"
        }
    ],
    "route_url": "https://www.kanachu.co.jp/dia/route/index/cid:0000802251/"
}
