{
    "system": "相14",
    "busstops": [
        {
            "index": "1",
            "id": "00129347",
            "name": "上溝",
            "lat": "35.557313",
            "lng": "139.363331"
        },
        {
            "index": "2",
            "id": "00129294",
            "name": "横山六丁目",
            "lat": "35.560036",
            "lng": "139.365891"
        },
        {
            "index": "3",
            "id": "00129254",
            "name": "星が丘住宅前",
            "lat": "35.563248",
            "lng": "139.368275"
        },
        {
            "index": "4",
            "id": "00129140",
            "name": "高校入口(相模原市中央区)",
            "lat": "35.565181",
            "lng": "139.369171"
        },
        {
            "index": "5",
            "id": "00129293",
            "name": "横山団地",
            "lat": "35.567016",
            "lng": "139.365435"
        },
        {
            "index": "6",
            "id": "00129228",
            "name": "日金沢上",
            "lat": "35.570056",
            "lng": "139.362459"
        },
        {
            "index": "7",
            "id": "00129176",
            "name": "清新中学校入口",
            "lat": "35.572222",
            "lng": "139.364168"
        },
        {
            "index": "8",
            "id": "00129230",
            "name": "グッディプレイス前",
            "lat": "35.574814",
            "lng": "139.366182"
        },
        {
            "index": "9",
            "id": "00129080",
            "name": "さがみ夢大通り",
            "lat": "35.577995",
            "lng": "139.368831"
        },
        {
            "index": "10",
            "id": "00129335",
            "name": "相模原駅南口",
            "lat": "35.580691",
            "lng": "139.371167"
        }
    ],
    "route_url": "https://www.kanachu.co.jp/dia/route/index/cid:0000802360/"
}
