{
    "system": "長36",
    "busstops": [
        {
            "index": "1",
            "id": "00129897",
            "name": "吉岡工業団地",
            "lat": "35.424674",
            "lng": "139.421491"
        },
        {
            "index": "2",
            "id": "00129898",
            "name": "団地中央(綾瀬市)",
            "lat": "35.423436",
            "lng": "139.425899"
        },
        {
            "index": "3",
            "id": "00129899",
            "name": "新道向",
            "lat": "35.422406",
            "lng": "139.428671"
        },
        {
            "index": "4",
            "id": "00129900",
            "name": "芝原入口",
            "lat": "35.41998",
            "lng": "139.429788"
        },
        {
            "index": "5",
            "id": "00129901",
            "name": "天沼(藤沢市)",
            "lat": "35.415494",
            "lng": "139.428755"
        },
        {
            "index": "6",
            "id": "00129902",
            "name": "天沼入口",
            "lat": "35.41346",
            "lng": "139.428372"
        },
        {
            "index": "7",
            "id": "00129903",
            "name": "上宮下",
            "lat": "35.410918",
            "lng": "139.429428"
        },
        {
            "index": "8",
            "id": "00129904",
            "name": "宮下(藤沢市)",
            "lat": "35.408689",
            "lng": "139.43154"
        },
        {
            "index": "9",
            "id": "00129905",
            "name": "谷戸入口(藤沢市)",
            "lat": "35.406744",
            "lng": "139.433406"
        },
        {
            "index": "10",
            "id": "00129906",
            "name": "出荷場前",
            "lat": "35.406515",
            "lng": "139.435579"
        },
        {
            "index": "11",
            "id": "00129820",
            "name": "葛原(藤沢市)",
            "lat": "35.406611",
            "lng": "139.437838"
        },
        {
            "index": "12",
            "id": "00129819",
            "name": "東山田(藤沢市)",
            "lat": "35.407007",
            "lng": "139.441592"
        },
        {
            "index": "13",
            "id": "00129818",
            "name": "山谷(藤沢市)",
            "lat": "35.407127",
            "lng": "139.444749"
        },
        {
            "index": "14",
            "id": "00129817",
            "name": "大持",
            "lat": "35.407231",
            "lng": "139.446632"
        },
        {
            "index": "15",
            "id": "00129816",
            "name": "いすゞ前",
            "lat": "35.407345",
            "lng": "139.449743"
        },
        {
            "index": "16",
            "id": "00129815",
            "name": "下土棚",
            "lat": "35.407362",
            "lng": "139.451082"
        },
        {
            "index": "17",
            "id": "00129814",
            "name": "坂下(藤沢市)",
            "lat": "35.408856",
            "lng": "139.454858"
        },
        {
            "index": "18",
            "id": "00130196",
            "name": "住宅前(藤沢市下土棚)",
            "lat": "35.410128",
            "lng": "139.4573"
        },
        {
            "index": "19",
            "id": "00129813",
            "name": "長後市民センター前",
            "lat": "35.4121",
            "lng": "139.461769"
        },
        {
            "index": "20",
            "id": "00129812",
            "name": "長後駅西口",
            "lat": "35.412472",
            "lng": "139.465116"
        }
    ],
    "route_url": "https://www.kanachu.co.jp/dia/route/index/cid:0000804115/"
}
