{
    "system": "橋78",
    "busstops": [
        {
            "index": "1",
            "id": "00020770",
            "name": "多摩美術大学(八王子市)",
            "lat": "35.612697",
            "lng": "139.351432"
        },
        {
            "index": "2",
            "id": "00020772",
            "name": "多摩美大東",
            "lat": "35.611753",
            "lng": "139.351754"
        },
        {
            "index": "3",
            "id": "00130223",
            "name": "リーフィア町田小山ヶ丘",
            "lat": "35.608334",
            "lng": "139.347014"
        },
        {
            "index": "4",
            "id": "00130211",
            "name": "坂下(16号側/町田市)",
            "lat": "35.60642",
            "lng": "139.343955"
        },
        {
            "index": "5",
            "id": "00128992",
            "name": "久保ヶ谷戸",
            "lat": "35.603112",
            "lng": "139.348056"
        },
        {
            "index": "6",
            "id": "00130222",
            "name": "寿橋",
            "lat": "35.601818",
            "lng": "139.348517"
        },
        {
            "index": "7",
            "id": "00128991",
            "name": "寿町(相模原市緑区)",
            "lat": "35.599324",
            "lng": "139.347667"
        },
        {
            "index": "8",
            "id": "00020098",
            "name": "旭農協前",
            "lat": "35.59733",
            "lng": "139.346453"
        },
        {
            "index": "9",
            "id": "00128969",
            "name": "橋本駅北口",
            "lat": "35.595413",
            "lng": "139.344909"
        }
    ],
    "route_url": "https://www.kanachu.co.jp/dia/route/index/cid:0000804289/"
}
