{
    "system": "古01",
    "busstops": [
        {
            "index": "1",
            "id": "00129313",
            "name": "古淵駅",
            "lat": "35.555848",
            "lng": "139.419419"
        },
        {
            "index": "2",
            "id": "00129314",
            "name": "古淵駅入口",
            "lat": "35.552911",
            "lng": "139.4162"
        },
        {
            "index": "3",
            "id": "00129298",
            "name": "老人ホーム入口(相模原市南区)",
            "lat": "35.554249",
            "lng": "139.413727"
        },
        {
            "index": "4",
            "id": "00129315",
            "name": "大野台二丁目",
            "lat": "35.555547",
            "lng": "139.40767"
        },
        {
            "index": "5",
            "id": "00129316",
            "name": "大野台中央小入口",
            "lat": "35.553239",
            "lng": "139.404111"
        },
        {
            "index": "6",
            "id": "00129142",
            "name": "ゴルフ場前(相模原市南区)",
            "lat": "35.549248",
            "lng": "139.401065"
        },
        {
            "index": "7",
            "id": "00129096",
            "name": "大野台四丁目",
            "lat": "35.546152",
            "lng": "139.403273"
        },
        {
            "index": "8",
            "id": "00129097",
            "name": "大野台八丁目",
            "lat": "35.54285",
            "lng": "139.405572"
        },
        {
            "index": "9",
            "id": "00129093",
            "name": "大野台入口",
            "lat": "35.538061",
            "lng": "139.40798"
        },
        {
            "index": "10",
            "id": "00129121",
            "name": "麻溝台入口",
            "lat": "35.537581",
            "lng": "139.403131"
        },
        {
            "index": "11",
            "id": "00129064",
            "name": "麻溝台高校",
            "lat": "35.537079",
            "lng": "139.397622"
        },
        {
            "index": "12",
            "id": "00129119",
            "name": "北里大学病院・北里大学",
            "lat": "35.537508",
            "lng": "139.393391"
        }
    ],
    "route_url": "https://www.kanachu.co.jp/dia/route/index/cid:0000801900/"
}
