{
    "system": "湘13",
    "busstops": [
        {
            "index": "1",
            "id": "00126881",
            "name": "湘南台駅東口",
            "lat": "35.396714",
            "lng": "139.467701"
        },
        {
            "index": "2",
            "id": "00129895",
            "name": "北警察署前(藤沢市)",
            "lat": "35.395787",
            "lng": "139.457893"
        },
        {
            "index": "3",
            "id": "00129909",
            "name": "工業団地入口(藤沢市)",
            "lat": "35.394185",
            "lng": "139.451615"
        },
        {
            "index": "4",
            "id": "00129925",
            "name": "桐原四辻",
            "lat": "35.392512",
            "lng": "139.452265"
        },
        {
            "index": "5",
            "id": "00129926",
            "name": "団地中央(藤沢市)",
            "lat": "35.390567",
            "lng": "139.453098"
        },
        {
            "index": "6",
            "id": "00129927",
            "name": "桐原公園前",
            "lat": "35.388832",
            "lng": "139.454444"
        },
        {
            "index": "7",
            "id": "00129930",
            "name": "桐原緑道",
            "lat": "35.386586",
            "lng": "139.454768"
        },
        {
            "index": "8",
            "id": "00130004",
            "name": "丸石(藤沢市)",
            "lat": "35.386764",
            "lng": "139.452171"
        },
        {
            "index": "9",
            "id": "00130005",
            "name": "公園北(藤沢市)",
            "lat": "35.388897",
            "lng": "139.451271"
        },
        {
            "index": "10",
            "id": "00130006",
            "name": "石川六丁目",
            "lat": "35.391963",
            "lng": "139.450021"
        },
        {
            "index": "11",
            "id": "00129909",
            "name": "工業団地入口(藤沢市)",
            "lat": "35.394452",
            "lng": "139.451869"
        },
        {
            "index": "12",
            "id": "00129895",
            "name": "北警察署前(藤沢市)",
            "lat": "35.395948",
            "lng": "139.457964"
        },
        {
            "index": "13",
            "id": "00126881",
            "name": "湘南台駅東口",
            "lat": "35.396047",
            "lng": "139.467169"
        }
    ],
    "route_url": "https://www.kanachu.co.jp/dia/route/index/cid:0000802711/"
}
