{
    "system": "町08",
    "busstops": [
        {
            "index": "1",
            "id": "00129333",
            "name": "グリーンハイツC2前",
            "lat": "35.5465",
            "lng": "139.430198"
        },
        {
            "index": "2",
            "id": "00129336",
            "name": "グリーンハイツC3前",
            "lat": "35.547611",
            "lng": "139.428959"
        },
        {
            "index": "3",
            "id": "00129337",
            "name": "北ひろば前",
            "lat": "35.548588",
            "lng": "139.428592"
        },
        {
            "index": "4",
            "id": "00129338",
            "name": "グリーンハイツF4前",
            "lat": "35.548176",
            "lng": "139.430062"
        },
        {
            "index": "5",
            "id": "00129339",
            "name": "柏木公園前",
            "lat": "35.546138",
            "lng": "139.431242"
        },
        {
            "index": "6",
            "id": "00129325",
            "name": "鵜野森一丁目",
            "lat": "35.545625",
            "lng": "139.430563"
        },
        {
            "index": "7",
            "id": "00129326",
            "name": "リリエンハイム前",
            "lat": "35.545018",
            "lng": "139.431928"
        },
        {
            "index": "8",
            "id": "00129374",
            "name": "鵜野森団地入口",
            "lat": "35.546578",
            "lng": "139.435244"
        },
        {
            "index": "9",
            "id": "00129356",
            "name": "町田市役所市民ホール前",
            "lat": "35.547368",
            "lng": "139.438983"
        },
        {
            "index": "10",
            "id": "00025625",
            "name": "町田バスセンター",
            "lat": "35.543033",
            "lng": "139.444562"
        }
    ],
    "route_url": "https://www.kanachu.co.jp/dia/route/index/cid:0000800356/"
}
