{
    "system": "",
    "busstops": [
        {
            "index": "1",
            "id": "00127583",
            "name": "市民病院前(平塚市)",
            "lat": "35.336488",
            "lng": "139.325469"
        },
        {
            "index": "2",
            "id": "00128222",
            "name": "共済病院前総合公園西",
            "lat": "35.338633",
            "lng": "139.336899"
        },
        {
            "index": "3",
            "id": "00127713",
            "name": "総合公園前(平塚市)",
            "lat": "35.341501",
            "lng": "139.337241"
        },
        {
            "index": "4",
            "id": "00127603",
            "name": "中原東(平塚市)",
            "lat": "35.345399",
            "lng": "139.337924"
        },
        {
            "index": "5",
            "id": "00127604",
            "name": "中原中宿",
            "lat": "35.348378",
            "lng": "139.336683"
        },
        {
            "index": "6",
            "id": "00127605",
            "name": "伊勢山(平塚市)",
            "lat": "35.351573",
            "lng": "139.335932"
        },
        {
            "index": "7",
            "id": "00127606",
            "name": "住宅前(平塚市)",
            "lat": "35.351958",
            "lng": "139.338936"
        },
        {
            "index": "8",
            "id": "00127607",
            "name": "大野中学校前",
            "lat": "35.352971",
            "lng": "139.343321"
        },
        {
            "index": "9",
            "id": "00127608",
            "name": "西真土",
            "lat": "35.353445",
            "lng": "139.345681"
        },
        {
            "index": "10",
            "id": "00127609",
            "name": "大野農協前",
            "lat": "35.354921",
            "lng": "139.349724"
        },
        {
            "index": "11",
            "id": "00127627",
            "name": "真土",
            "lat": "35.355356",
            "lng": "139.354164"
        },
        {
            "index": "12",
            "id": "00127628",
            "name": "東真土",
            "lat": "35.355332",
            "lng": "139.356614"
        },
        {
            "index": "13",
            "id": "00127657",
            "name": "大念寺前",
            "lat": "35.354804",
            "lng": "139.361253"
        },
        {
            "index": "14",
            "id": "00127658",
            "name": "前鳥神社前",
            "lat": "35.358091",
            "lng": "139.361947"
        },
        {
            "index": "15",
            "id": "00127650",
            "name": "ふじみ園前",
            "lat": "35.361104",
            "lng": "139.360984"
        },
        {
            "index": "16",
            "id": "00127659",
            "name": "大江工業前",
            "lat": "35.364762",
            "lng": "139.362325"
        },
        {
            "index": "17",
            "id": "00127711",
            "name": "平塚市リサイクルプラザ",
            "lat": "35.365508",
            "lng": "139.362585"
        },
        {
            "index": "18",
            "id": "00127660",
            "name": "鹿見堂橋",
            "lat": "35.367744",
            "lng": "139.362994"
        },
        {
            "index": "19",
            "id": "00127661",
            "name": "駒返橋",
            "lat": "35.37093",
            "lng": "139.364243"
        },
        {
            "index": "20",
            "id": "00127662",
            "name": "田村十字路",
            "lat": "35.373463",
            "lng": "139.364973"
        },
        {
            "index": "21",
            "id": "00127663",
            "name": "相模神田",
            "lat": "35.376806",
            "lng": "139.364859"
        },
        {
            "index": "22",
            "id": "00127664",
            "name": "農協神田支所前",
            "lat": "35.380086",
            "lng": "139.364843"
        },
        {
            "index": "23",
            "id": "00127665",
            "name": "柳の内",
            "lat": "35.382919",
            "lng": "139.365041"
        },
        {
            "index": "24",
            "id": "00127666",
            "name": "寄木神社前",
            "lat": "35.386676",
            "lng": "139.366594"
        },
        {
            "index": "25",
            "id": "00127667",
            "name": "真芳寺",
            "lat": "35.388748",
            "lng": "139.369331"
        },
        {
            "index": "26",
            "id": "00128631",
            "name": "大神(平塚市)",
            "lat": "35.392571",
            "lng": "139.370036"
        }
    ],
    "route_url": "https://www.kanachu.co.jp/dia/route/index/cid:0000802846/"
}
