{
    "system": "辻03",
    "busstops": [
        {
            "index": "1",
            "id": "00127107",
            "name": "辻堂団地",
            "lat": "35.325389",
            "lng": "139.443213"
        },
        {
            "index": "2",
            "id": "00130410",
            "name": "辻堂団地西",
            "lat": "35.324306",
            "lng": "139.442019"
        },
        {
            "index": "3",
            "id": "00127041",
            "name": "辻堂西海岸",
            "lat": "35.323334",
            "lng": "139.441555"
        },
        {
            "index": "4",
            "id": "00127040",
            "name": "西海岸3丁目",
            "lat": "35.322892",
            "lng": "139.444586"
        },
        {
            "index": "5",
            "id": "00127039",
            "name": "交通公園前(藤沢市)",
            "lat": "35.322857",
            "lng": "139.446375"
        },
        {
            "index": "6",
            "id": "00127038",
            "name": "辻堂海浜公園入口",
            "lat": "35.323171",
            "lng": "139.447741"
        },
        {
            "index": "7",
            "id": "00127106",
            "name": "高砂小学校前(藤沢市)",
            "lat": "35.32533",
            "lng": "139.44766"
        },
        {
            "index": "8",
            "id": "00127037",
            "name": "高砂(藤沢市)",
            "lat": "35.327954",
            "lng": "139.447524"
        },
        {
            "index": "9",
            "id": "00127036",
            "name": "久根下公園前",
            "lat": "35.330837",
            "lng": "139.44734"
        },
        {
            "index": "10",
            "id": "00127111",
            "name": "辻堂駅南口",
            "lat": "35.336374",
            "lng": "139.447333"
        }
    ],
    "route_url": "https://www.kanachu.co.jp/dia/route/index/cid:0000802427/"
}
