{
    "system": "東50",
    "busstops": [
        {
            "index": "1",
            "id": "00102365",
            "name": "上永谷駅",
            "lat": "35.400921",
            "lng": "139.571281"
        },
        {
            "index": "2",
            "id": "00102835",
            "name": "永野小学校前",
            "lat": "35.404139",
            "lng": "139.57042"
        },
        {
            "index": "3",
            "id": "00126745",
            "name": "美晴台",
            "lat": "35.408848",
            "lng": "139.570435"
        },
        {
            "index": "4",
            "id": "00126744",
            "name": "渡戸(横浜市港南区)",
            "lat": "35.410199",
            "lng": "139.571924"
        },
        {
            "index": "5",
            "id": "00126743",
            "name": "東永谷",
            "lat": "35.411148",
            "lng": "139.573769"
        },
        {
            "index": "6",
            "id": "00126742",
            "name": "浩南台",
            "lat": "35.412388",
            "lng": "139.57302"
        },
        {
            "index": "7",
            "id": "00126741",
            "name": "澁谷台",
            "lat": "35.414018",
            "lng": "139.572015"
        },
        {
            "index": "8",
            "id": "00126568",
            "name": "せりぎんタウン",
            "lat": "35.416648",
            "lng": "139.571309"
        },
        {
            "index": "9",
            "id": "00126569",
            "name": "芹が谷団地前",
            "lat": "35.416928",
            "lng": "139.566508"
        },
        {
            "index": "10",
            "id": "00130495",
            "name": "永谷地区センター前",
            "lat": "35.417039",
            "lng": "139.564408"
        },
        {
            "index": "11",
            "id": "00102977",
            "name": "平戸(横浜市港南区)",
            "lat": "35.419024",
            "lng": "139.561876"
        },
        {
            "index": "12",
            "id": "00126730",
            "name": "環2平戸",
            "lat": "35.422172",
            "lng": "139.560335"
        },
        {
            "index": "13",
            "id": "00126728",
            "name": "品濃坂",
            "lat": "35.426702",
            "lng": "139.561373"
        },
        {
            "index": "14",
            "id": "00126647",
            "name": "東戸塚駅東口",
            "lat": "35.429909",
            "lng": "139.557342"
        }
    ],
    "route_url": "https://www.kanachu.co.jp/dia/route/index/cid:0000802728/"
}
