{
    "system": "高01",
    "busstops": [
        {
            "index": "1",
            "id": "00129643",
            "name": "上和田団地",
            "lat": "35.438673",
            "lng": "139.474562"
        },
        {
            "index": "2",
            "id": "00129642",
            "name": "団地入口(大和市)",
            "lat": "35.436664",
            "lng": "139.471767"
        },
        {
            "index": "3",
            "id": "00129641",
            "name": "上和田(上和田団地側/大和市)",
            "lat": "35.437442",
            "lng": "139.467374"
        },
        {
            "index": "4",
            "id": "00130224",
            "name": "上和田南",
            "lat": "35.436816",
            "lng": "139.467087"
        },
        {
            "index": "5",
            "id": "00130230",
            "name": "高座渋谷駅東口",
            "lat": "35.432496",
            "lng": "139.465054"
        },
        {
            "index": "6",
            "id": "00130198",
            "name": "学校前(大和市下和田)",
            "lat": "35.430965",
            "lng": "139.468198"
        },
        {
            "index": "7",
            "id": "00129644",
            "name": "下和田(大和市)",
            "lat": "35.426066",
            "lng": "139.468897"
        },
        {
            "index": "8",
            "id": "00126808",
            "name": "いちょう団地",
            "lat": "35.427496",
            "lng": "139.472824"
        }
    ],
    "route_url": "https://www.kanachu.co.jp/dia/route/index/cid:0000800197/"
}
