{
    "system": "船37",
    "busstops": [
        {
            "index": "1",
            "id": "00126855",
            "name": "大船駅西口",
            "lat": "35.352065",
            "lng": "139.529051"
        },
        {
            "index": "2",
            "id": "00126854",
            "name": "坂本(鎌倉市)",
            "lat": "35.355961",
            "lng": "139.530029"
        },
        {
            "index": "3",
            "id": "00126853",
            "name": "長尾台(横浜市栄区)",
            "lat": "35.359935",
            "lng": "139.528635"
        },
        {
            "index": "4",
            "id": "00126852",
            "name": "宮ノ前(横浜市栄区)",
            "lat": "35.362366",
            "lng": "139.528592"
        },
        {
            "index": "5",
            "id": "00126851",
            "name": "小蓋山",
            "lat": "35.363893",
            "lng": "139.525028"
        },
        {
            "index": "6",
            "id": "00126850",
            "name": "田谷(横浜市栄区)",
            "lat": "35.364457",
            "lng": "139.521133"
        },
        {
            "index": "7",
            "id": "00127006",
            "name": "面谷戸",
            "lat": "35.364283",
            "lng": "139.517864"
        },
        {
            "index": "8",
            "id": "00127007",
            "name": "関谷(鎌倉市)",
            "lat": "35.360593",
            "lng": "139.511955"
        },
        {
            "index": "9",
            "id": "00126999",
            "name": "中村(鎌倉市)",
            "lat": "35.358176",
            "lng": "139.511641"
        },
        {
            "index": "10",
            "id": "00127000",
            "name": "打越(鎌倉市)",
            "lat": "35.356777",
            "lng": "139.516169"
        },
        {
            "index": "11",
            "id": "00127005",
            "name": "清泉女学院",
            "lat": "35.354253",
            "lng": "139.515934"
        }
    ],
    "route_url": "https://www.kanachu.co.jp/dia/route/index/cid:0000802733/"
}
