{
    "system": "町78",
    "busstops": [
        {
            "index": "1",
            "id": "00129373",
            "name": "野津田車庫",
            "lat": "35.587098",
            "lng": "139.44133"
        },
        {
            "index": "2",
            "id": "00129372",
            "name": "神学校(町田市)",
            "lat": "35.585397",
            "lng": "139.435935"
        },
        {
            "index": "3",
            "id": "00129371",
            "name": "並木(町田市)",
            "lat": "35.584377",
            "lng": "139.431034"
        },
        {
            "index": "4",
            "id": "00129370",
            "name": "図師",
            "lat": "35.582987",
            "lng": "139.425704"
        },
        {
            "index": "5",
            "id": "00129369",
            "name": "図師大橋",
            "lat": "35.582831",
            "lng": "139.42482"
        },
        {
            "index": "6",
            "id": "00129368",
            "name": "馬駈",
            "lat": "35.581483",
            "lng": "139.418118"
        },
        {
            "index": "7",
            "id": "00129396",
            "name": "忠生三丁目",
            "lat": "35.578325",
            "lng": "139.42008"
        },
        {
            "index": "8",
            "id": "00129498",
            "name": "JA忠生支店前",
            "lat": "35.576825",
            "lng": "139.419866"
        },
        {
            "index": "9",
            "id": "00129497",
            "name": "忠生",
            "lat": "35.574592",
            "lng": "139.417266"
        },
        {
            "index": "10",
            "id": "00129496",
            "name": "上の原(町田市)",
            "lat": "35.572376",
            "lng": "139.4148"
        },
        {
            "index": "11",
            "id": "00129495",
            "name": "町田総合高校前",
            "lat": "35.570317",
            "lng": "139.416098"
        },
        {
            "index": "12",
            "id": "00129384",
            "name": "木曽南団地",
            "lat": "35.566824",
            "lng": "139.418659"
        },
        {
            "index": "13",
            "id": "00129383",
            "name": "横町(町田市)",
            "lat": "35.564343",
            "lng": "139.420338"
        },
        {
            "index": "14",
            "id": "00129382",
            "name": "境川団地",
            "lat": "35.561394",
            "lng": "139.4224"
        },
        {
            "index": "15",
            "id": "00129381",
            "name": "境川団地中央",
            "lat": "35.559427",
            "lng": "139.424017"
        },
        {
            "index": "16",
            "id": "00129380",
            "name": "境川団地入口",
            "lat": "35.556927",
            "lng": "139.426087"
        },
        {
            "index": "17",
            "id": "00129379",
            "name": "木曽都営入口",
            "lat": "35.555314",
            "lng": "139.42743"
        },
        {
            "index": "18",
            "id": "00129378",
            "name": "桧台入口",
            "lat": "35.552981",
            "lng": "139.428702"
        },
        {
            "index": "19",
            "id": "00129377",
            "name": "森野六丁目",
            "lat": "35.551615",
            "lng": "139.430831"
        },
        {
            "index": "20",
            "id": "00129376",
            "name": "森野五丁目",
            "lat": "35.549723",
            "lng": "139.434477"
        },
        {
            "index": "21",
            "id": "00129375",
            "name": "妙延寺(町田市)",
            "lat": "35.548654",
            "lng": "139.436536"
        },
        {
            "index": "22",
            "id": "00129356",
            "name": "町田市役所市民ホール前",
            "lat": "35.547368",
            "lng": "139.438983"
        },
        {
            "index": "23",
            "id": "00025625",
            "name": "町田バスセンター",
            "lat": "35.543525",
            "lng": "139.444385"
        }
    ],
    "route_url": "https://www.kanachu.co.jp/dia/route/index/cid:0000803163/"
}
