{
    "system": "厚18",
    "busstops": [
        {
            "index": "1",
            "id": "00025684",
            "name": "本厚木駅",
            "lat": "35.440288",
            "lng": "139.364921"
        },
        {
            "index": "2",
            "id": "00128340",
            "name": "小田急通り",
            "lat": "35.442431",
            "lng": "139.366093"
        },
        {
            "index": "3",
            "id": "00128439",
            "name": "合同庁舎前(厚木市)",
            "lat": "35.443964",
            "lng": "139.355566"
        },
        {
            "index": "4",
            "id": "00128509",
            "name": "戸室住宅前",
            "lat": "35.447217",
            "lng": "139.353473"
        },
        {
            "index": "5",
            "id": "00128510",
            "name": "戸室神社下",
            "lat": "35.44994",
            "lng": "139.352012"
        },
        {
            "index": "6",
            "id": "00128398",
            "name": "戸室",
            "lat": "35.453857",
            "lng": "139.350633"
        },
        {
            "index": "7",
            "id": "00128399",
            "name": "林(厚木市)",
            "lat": "35.455529",
            "lng": "139.348474"
        },
        {
            "index": "8",
            "id": "00128400",
            "name": "穴口橋",
            "lat": "35.460018",
            "lng": "139.347409"
        },
        {
            "index": "9",
            "id": "00128401",
            "name": "及川",
            "lat": "35.46504",
            "lng": "139.342412"
        },
        {
            "index": "10",
            "id": "00128402",
            "name": "千頭",
            "lat": "35.466308",
            "lng": "139.337405"
        },
        {
            "index": "11",
            "id": "00128403",
            "name": "上千頭",
            "lat": "35.467687",
            "lng": "139.333844"
        },
        {
            "index": "12",
            "id": "00128404",
            "name": "ゴルフ場入口(厚木市)",
            "lat": "35.469506",
            "lng": "139.326944"
        },
        {
            "index": "13",
            "id": "00128405",
            "name": "小鮎久保",
            "lat": "35.470778",
            "lng": "139.322538"
        },
        {
            "index": "14",
            "id": "00128406",
            "name": "光福寺(厚木市)",
            "lat": "35.470724",
            "lng": "139.317307"
        },
        {
            "index": "15",
            "id": "00128407",
            "name": "橋場(厚木市)",
            "lat": "35.471313",
            "lng": "139.313265"
        },
        {
            "index": "16",
            "id": "00128408",
            "name": "飯山観音前",
            "lat": "35.472482",
            "lng": "139.31121"
        },
        {
            "index": "17",
            "id": "00128409",
            "name": "尼寺(厚木市)",
            "lat": "35.475284",
            "lng": "139.309215"
        },
        {
            "index": "18",
            "id": "00128410",
            "name": "志田原",
            "lat": "35.4779",
            "lng": "139.307277"
        },
        {
            "index": "19",
            "id": "00128411",
            "name": "飯山温泉入口",
            "lat": "35.480511",
            "lng": "139.304987"
        },
        {
            "index": "20",
            "id": "00128412",
            "name": "上飯山(厚木市)",
            "lat": "35.483301",
            "lng": "139.302662"
        }
    ],
    "route_url": "https://www.kanachu.co.jp/dia/route/index/cid:0000803344/"
}
