{
    "system": "南03",
    "busstops": [
        {
            "index": "1",
            "id": "00129730",
            "name": "南町田グランベリーパーク駅",
            "lat": "35.511868",
            "lng": "139.47062"
        },
        {
            "index": "2",
            "id": "00129532",
            "name": "町田辻",
            "lat": "35.510075",
            "lng": "139.476626"
        },
        {
            "index": "3",
            "id": "00129531",
            "name": "大ヶ谷戸(町田市)",
            "lat": "35.505466",
            "lng": "139.47471"
        },
        {
            "index": "4",
            "id": "00129530",
            "name": "円成寺前",
            "lat": "35.503648",
            "lng": "139.472371"
        },
        {
            "index": "5",
            "id": "00130194",
            "name": "坂下(鶴間/町田市)",
            "lat": "35.50281",
            "lng": "139.471276"
        },
        {
            "index": "6",
            "id": "00129758",
            "name": "マークスプリングス",
            "lat": "35.49881",
            "lng": "139.47207"
        }
    ],
    "route_url": "https://www.kanachu.co.jp/dia/route/index/cid:0000802503/"
}
