{
    "system": "長45",
    "busstops": [
        {
            "index": "1",
            "id": "00130010",
            "name": "上土棚団地前",
            "lat": "35.41468",
            "lng": "139.449261"
        },
        {
            "index": "2",
            "id": "00130011",
            "name": "綾南地区センター",
            "lat": "35.415316",
            "lng": "139.448179"
        },
        {
            "index": "3",
            "id": "00130012",
            "name": "上土棚中7",
            "lat": "35.414535",
            "lng": "139.448361"
        },
        {
            "index": "4",
            "id": "00130013",
            "name": "綾南会館",
            "lat": "35.413266",
            "lng": "139.449557"
        },
        {
            "index": "5",
            "id": "00130009",
            "name": "さがみ農協前",
            "lat": "35.413545",
            "lng": "139.450535"
        },
        {
            "index": "6",
            "id": "00130008",
            "name": "蓮光寺(綾瀬市)",
            "lat": "35.41355",
            "lng": "139.452334"
        },
        {
            "index": "7",
            "id": "00130007",
            "name": "熊野神社(綾瀬市)",
            "lat": "35.412406",
            "lng": "139.454589"
        },
        {
            "index": "8",
            "id": "00130017",
            "name": "奥田",
            "lat": "35.411564",
            "lng": "139.457892"
        },
        {
            "index": "9",
            "id": "00129813",
            "name": "長後市民センター前",
            "lat": "35.4121",
            "lng": "139.461769"
        },
        {
            "index": "10",
            "id": "00129812",
            "name": "長後駅西口",
            "lat": "35.412711",
            "lng": "139.464886"
        }
    ],
    "route_url": "https://www.kanachu.co.jp/dia/route/index/cid:0000800075/"
}
