{
    "system": "湘21",
    "busstops": [
        {
            "index": "1",
            "id": "00129948",
            "name": "湘南ライフタウン",
            "lat": "35.375629",
            "lng": "139.433962"
        },
        {
            "index": "2",
            "id": "00129949",
            "name": "南原(藤沢市)",
            "lat": "35.376765",
            "lng": "139.436306"
        },
        {
            "index": "3",
            "id": "00129950",
            "name": "矢尻(藤沢市)",
            "lat": "35.37785",
            "lng": "139.439038"
        },
        {
            "index": "4",
            "id": "00129951",
            "name": "田方(藤沢市)",
            "lat": "35.379541",
            "lng": "139.444476"
        },
        {
            "index": "5",
            "id": "00129952",
            "name": "寿照寺前",
            "lat": "35.380781",
            "lng": "139.448555"
        },
        {
            "index": "6",
            "id": "00129953",
            "name": "和泉橋",
            "lat": "35.382331",
            "lng": "139.453271"
        },
        {
            "index": "7",
            "id": "00129954",
            "name": "石川山田",
            "lat": "35.384731",
            "lng": "139.456654"
        },
        {
            "index": "8",
            "id": "00129955",
            "name": "南桐原",
            "lat": "35.388173",
            "lng": "139.45717"
        },
        {
            "index": "9",
            "id": "00129956",
            "name": "桐ヶ谷(藤沢市)",
            "lat": "35.390464",
            "lng": "139.46007"
        },
        {
            "index": "10",
            "id": "00129894",
            "name": "湘南台住宅前",
            "lat": "35.392527",
            "lng": "139.463889"
        },
        {
            "index": "11",
            "id": "00129893",
            "name": "湘南台駅西口",
            "lat": "35.396197",
            "lng": "139.465719"
        }
    ],
    "route_url": "https://www.kanachu.co.jp/dia/route/index/cid:0000802995/"
}
