{
    "system": "戸01",
    "busstops": [
        {
            "index": "1",
            "id": "00102234",
            "name": "井土ヶ谷下町",
            "lat": "35.431441",
            "lng": "139.607236"
        },
        {
            "index": "2",
            "id": "00102744",
            "name": "鶴巻(横浜市南区)",
            "lat": "35.430881",
            "lng": "139.603653"
        },
        {
            "index": "3",
            "id": "00126630",
            "name": "住宅前(横浜市南区)",
            "lat": "35.431675",
            "lng": "139.59938"
        },
        {
            "index": "4",
            "id": "00126629",
            "name": "南永田",
            "lat": "35.429152",
            "lng": "139.596926"
        },
        {
            "index": "5",
            "id": "00126628",
            "name": "弘明寺口",
            "lat": "35.42592",
            "lng": "139.594946"
        },
        {
            "index": "6",
            "id": "00126627",
            "name": "六ツ川町",
            "lat": "35.424257",
            "lng": "139.590062"
        },
        {
            "index": "7",
            "id": "00126626",
            "name": "上六ツ川",
            "lat": "35.424313",
            "lng": "139.584435"
        },
        {
            "index": "8",
            "id": "00126625",
            "name": "大池(横浜市南区)",
            "lat": "35.426156",
            "lng": "139.582753"
        },
        {
            "index": "9",
            "id": "00126624",
            "name": "引越坂",
            "lat": "35.425733",
            "lng": "139.578115"
        },
        {
            "index": "10",
            "id": "00126622",
            "name": "六ツ川四丁目",
            "lat": "35.424233",
            "lng": "139.573668"
        },
        {
            "index": "11",
            "id": "00126620",
            "name": "山谷(横浜市戸塚区)",
            "lat": "35.425433",
            "lng": "139.568921"
        },
        {
            "index": "12",
            "id": "00126619",
            "name": "坂下口",
            "lat": "35.422381",
            "lng": "139.565142"
        },
        {
            "index": "13",
            "id": "00126618",
            "name": "国道平戸",
            "lat": "35.420252",
            "lng": "139.560743"
        },
        {
            "index": "14",
            "id": "00126617",
            "name": "品濃口",
            "lat": "35.421223",
            "lng": "139.55584"
        },
        {
            "index": "15",
            "id": "00126616",
            "name": "赤関橋",
            "lat": "35.420687",
            "lng": "139.552806"
        },
        {
            "index": "16",
            "id": "00126615",
            "name": "柏尾(横浜市戸塚区)",
            "lat": "35.417918",
            "lng": "139.548279"
        },
        {
            "index": "17",
            "id": "00126614",
            "name": "ポーラ前(横浜市戸塚区)",
            "lat": "35.416766",
            "lng": "139.54639"
        },
        {
            "index": "18",
            "id": "00126613",
            "name": "不動坂(横浜市戸塚区)",
            "lat": "35.413425",
            "lng": "139.541594"
        },
        {
            "index": "19",
            "id": "00126612",
            "name": "ブリヂストン前",
            "lat": "35.409557",
            "lng": "139.5396"
        },
        {
            "index": "20",
            "id": "00126611",
            "name": "元町(横浜市戸塚区)",
            "lat": "35.40689",
            "lng": "139.538133"
        },
        {
            "index": "21",
            "id": "00126610",
            "name": "矢部町",
            "lat": "35.403663",
            "lng": "139.537012"
        },
        {
            "index": "22",
            "id": "00080742",
            "name": "戸塚駅東口",
            "lat": "35.400883",
            "lng": "139.534505"
        }
    ],
    "route_url": "https://www.kanachu.co.jp/dia/route/index/cid:0000801157/"
}
