{
    "system": "小06",
    "busstops": [
        {
            "index": "1",
            "id": "00129690",
            "name": "小田急相模原駅",
            "lat": "35.515648",
            "lng": "139.422476"
        },
        {
            "index": "2",
            "id": "00129689",
            "name": "二宮神社前(相模原市南区)",
            "lat": "35.517057",
            "lng": "139.422321"
        },
        {
            "index": "3",
            "id": "00129688",
            "name": "鶴ヶ丘(相模原市南区)",
            "lat": "35.520758",
            "lng": "139.424062"
        },
        {
            "index": "4",
            "id": "00129687",
            "name": "豊町(相模原市南区)",
            "lat": "35.525819",
            "lng": "139.426636"
        },
        {
            "index": "5",
            "id": "00129686",
            "name": "旭町(相模原市南区)",
            "lat": "35.527734",
            "lng": "139.428109"
        },
        {
            "index": "6",
            "id": "00129685",
            "name": "高相合同庁舎前",
            "lat": "35.53008",
            "lng": "139.43077"
        },
        {
            "index": "7",
            "id": "00114298",
            "name": "相模大野駅北口",
            "lat": "35.531961",
            "lng": "139.436873"
        }
    ],
    "route_url": "https://www.kanachu.co.jp/dia/route/index/cid:0000800493/"
}
