{
    "system": "海03",
    "busstops": [
        {
            "index": "1",
            "id": "00128621",
            "name": "かしわ台駅",
            "lat": "35.465133",
            "lng": "139.413984"
        },
        {
            "index": "2",
            "id": "00128620",
            "name": "東建ハイツ前",
            "lat": "35.463304",
            "lng": "139.412805"
        },
        {
            "index": "3",
            "id": "00128619",
            "name": "天野原",
            "lat": "35.461382",
            "lng": "139.414738"
        },
        {
            "index": "4",
            "id": "00128618",
            "name": "パブコ前",
            "lat": "35.459697",
            "lng": "139.413426"
        },
        {
            "index": "5",
            "id": "00128617",
            "name": "赤坂(海老名市)",
            "lat": "35.457666",
            "lng": "139.411082"
        },
        {
            "index": "6",
            "id": "00128616",
            "name": "県営団地入口(海老名市)",
            "lat": "35.454552",
            "lng": "139.407717"
        },
        {
            "index": "7",
            "id": "00128615",
            "name": "望地(海老名市)",
            "lat": "35.453246",
            "lng": "139.405754"
        },
        {
            "index": "8",
            "id": "00128614",
            "name": "東国分",
            "lat": "35.453007",
            "lng": "139.401391"
        },
        {
            "index": "9",
            "id": "00128558",
            "name": "国分(海老名市)",
            "lat": "35.45344",
            "lng": "139.399609"
        },
        {
            "index": "10",
            "id": "00128613",
            "name": "中央一丁目(海老名市)",
            "lat": "35.451422",
            "lng": "139.396102"
        },
        {
            "index": "11",
            "id": "00128604",
            "name": "海老名駅東口",
            "lat": "35.452192",
            "lng": "139.391645"
        }
    ],
    "route_url": "https://www.kanachu.co.jp/dia/route/index/cid:0000801197/"
}
