{
    "system": "厚48",
    "busstops": [
        {
            "index": "1",
            "id": "00128523",
            "name": "毛利台団地",
            "lat": "35.439696",
            "lng": "139.328465"
        },
        {
            "index": "2",
            "id": "00128522",
            "name": "毛利台一丁目",
            "lat": "35.442863",
            "lng": "139.331726"
        },
        {
            "index": "3",
            "id": "00128521",
            "name": "毛利台入口",
            "lat": "35.445879",
            "lng": "139.330377"
        },
        {
            "index": "4",
            "id": "00128494",
            "name": "権現堂(厚木市)",
            "lat": "35.446167",
            "lng": "139.331124"
        },
        {
            "index": "5",
            "id": "00128493",
            "name": "上高坪",
            "lat": "35.444621",
            "lng": "139.333176"
        },
        {
            "index": "6",
            "id": "00128492",
            "name": "高坪",
            "lat": "35.443067",
            "lng": "139.335161"
        },
        {
            "index": "7",
            "id": "00128491",
            "name": "スポーツセンター入口(厚木市)",
            "lat": "35.440921",
            "lng": "139.337552"
        },
        {
            "index": "8",
            "id": "00128490",
            "name": "温水幼稚園前",
            "lat": "35.440036",
            "lng": "139.339401"
        },
        {
            "index": "9",
            "id": "00128444",
            "name": "高坪入口",
            "lat": "35.438713",
            "lng": "139.342518"
        },
        {
            "index": "10",
            "id": "00128443",
            "name": "温水",
            "lat": "35.440121",
            "lng": "139.343765"
        },
        {
            "index": "11",
            "id": "00128442",
            "name": "片岸(厚木市)",
            "lat": "35.441248",
            "lng": "139.347184"
        },
        {
            "index": "12",
            "id": "00128441",
            "name": "アステモ[Astemo]前〔旧:日立アステモ前〕",
            "lat": "35.4434",
            "lng": "139.348771"
        },
        {
            "index": "13",
            "id": "00128440",
            "name": "厚木高校前",
            "lat": "35.444806",
            "lng": "139.352161"
        },
        {
            "index": "14",
            "id": "00128439",
            "name": "合同庁舎前(厚木市)",
            "lat": "35.443887",
            "lng": "139.356824"
        },
        {
            "index": "15",
            "id": "00128396",
            "name": "市役所入口(厚木市)",
            "lat": "35.442124",
            "lng": "139.361848"
        },
        {
            "index": "16",
            "id": "00025684",
            "name": "本厚木駅",
            "lat": "35.440542",
            "lng": "139.363859"
        },
        {
            "index": "17",
            "id": "00128256",
            "name": "厚木バスセンター",
            "lat": "35.441107",
            "lng": "139.36685"
        }
    ],
    "route_url": "https://www.kanachu.co.jp/dia/route/index/cid:0000800710/"
}
