{
    "system": "伊41",
    "busstops": [
        {
            "index": "1",
            "id": "00128127",
            "name": "伊勢原駅北口",
            "lat": "35.395754",
            "lng": "139.312779"
        },
        {
            "index": "2",
            "id": "00128128",
            "name": "本町(伊勢原市)",
            "lat": "35.397235",
            "lng": "139.308316"
        },
        {
            "index": "3",
            "id": "00128224",
            "name": "中央公民館前(伊勢原市)",
            "lat": "35.395008",
            "lng": "139.305645"
        },
        {
            "index": "4",
            "id": "00128249",
            "name": "大塚戸入口",
            "lat": "35.394909",
            "lng": "139.301733"
        },
        {
            "index": "5",
            "id": "00128250",
            "name": "八雲幼稚園前",
            "lat": "35.397198",
            "lng": "139.299773"
        },
        {
            "index": "6",
            "id": "00128122",
            "name": "殿村",
            "lat": "35.400392",
            "lng": "139.297884"
        },
        {
            "index": "7",
            "id": "00128123",
            "name": "毘沙門池",
            "lat": "35.404395",
            "lng": "139.295187"
        },
        {
            "index": "8",
            "id": "00128148",
            "name": "道灌塚前",
            "lat": "35.408812",
            "lng": "139.291359"
        },
        {
            "index": "9",
            "id": "00128149",
            "name": "山王原(伊勢原市)",
            "lat": "35.409705",
            "lng": "139.290249"
        },
        {
            "index": "10",
            "id": "00128150",
            "name": "石倉橋",
            "lat": "35.411058",
            "lng": "139.288382"
        },
        {
            "index": "11",
            "id": "00128165",
            "name": "原田(伊勢原市)",
            "lat": "35.407154",
            "lng": "139.288299"
        },
        {
            "index": "12",
            "id": "00128171",
            "name": "三の宮(伊勢原市)",
            "lat": "35.402018",
            "lng": "139.288495"
        },
        {
            "index": "13",
            "id": "00128172",
            "name": "向原(伊勢原市)",
            "lat": "35.398264",
            "lng": "139.289406"
        },
        {
            "index": "14",
            "id": "00128142",
            "name": "団地北(伊勢原市)",
            "lat": "35.395324",
            "lng": "139.292027"
        },
        {
            "index": "15",
            "id": "00128141",
            "name": "伊勢原車庫",
            "lat": "35.393474",
            "lng": "139.293792"
        }
    ],
    "route_url": "https://www.kanachu.co.jp/dia/route/index/cid:0000801527/"
}
