{
    "system": "町37",
    "busstops": [
        {
            "index": "1",
            "id": "00129441",
            "name": "やくし台センター",
            "lat": "35.580833",
            "lng": "139.452895"
        },
        {
            "index": "2",
            "id": "00129440",
            "name": "やくし台三丁目",
            "lat": "35.580539",
            "lng": "139.454646"
        },
        {
            "index": "3",
            "id": "00129501",
            "name": "やくし台二丁目",
            "lat": "35.579126",
            "lng": "139.455351"
        },
        {
            "index": "4",
            "id": "00129500",
            "name": "入谷戸(やくし台/町田市)",
            "lat": "35.577065",
            "lng": "139.455221"
        },
        {
            "index": "5",
            "id": "00129499",
            "name": "遊歩公園",
            "lat": "35.572955",
            "lng": "139.454474"
        },
        {
            "index": "6",
            "id": "00129450",
            "name": "藤の台東",
            "lat": "35.571297",
            "lng": "139.45158"
        },
        {
            "index": "7",
            "id": "00129451",
            "name": "藤の台団地",
            "lat": "35.571279",
            "lng": "139.448947"
        },
        {
            "index": "8",
            "id": "00129426",
            "name": "今井谷戸",
            "lat": "35.572259",
            "lng": "139.442131"
        },
        {
            "index": "9",
            "id": "00129389",
            "name": "給水塔前(山崎団地/町田市)",
            "lat": "35.570887",
            "lng": "139.43882"
        },
        {
            "index": "10",
            "id": "00129519",
            "name": "町田木曽会館前",
            "lat": "35.565242",
            "lng": "139.437923"
        },
        {
            "index": "11",
            "id": "00129518",
            "name": "原田向",
            "lat": "35.563617",
            "lng": "139.437365"
        },
        {
            "index": "12",
            "id": "00129517",
            "name": "緑ヶ丘入口(町田市)",
            "lat": "35.563455",
            "lng": "139.43395"
        },
        {
            "index": "13",
            "id": "00129516",
            "name": "木曽中原",
            "lat": "35.562534",
            "lng": "139.430366"
        },
        {
            "index": "14",
            "id": "00129361",
            "name": "滝の沢(町田市)",
            "lat": "35.559343",
            "lng": "139.430489"
        },
        {
            "index": "15",
            "id": "00129360",
            "name": "浄水場前(町田市)",
            "lat": "35.55662",
            "lng": "139.434645"
        },
        {
            "index": "16",
            "id": "00129359",
            "name": "市民病院前(町田市)",
            "lat": "35.554809",
            "lng": "139.436868"
        },
        {
            "index": "17",
            "id": "00129358",
            "name": "森野三丁目",
            "lat": "35.552844",
            "lng": "139.439345"
        },
        {
            "index": "18",
            "id": "00129357",
            "name": "第四小学校前(町田市)",
            "lat": "35.55096",
            "lng": "139.438816"
        },
        {
            "index": "19",
            "id": "00129356",
            "name": "町田市役所市民ホール前",
            "lat": "35.547368",
            "lng": "139.438983"
        },
        {
            "index": "20",
            "id": "00025625",
            "name": "町田バスセンター",
            "lat": "35.543525",
            "lng": "139.444385"
        }
    ],
    "route_url": "https://www.kanachu.co.jp/dia/route/index/cid:0000803191/"
}
