{
    "system": "つ03",
    "busstops": [
        {
            "index": "1",
            "id": "00129557",
            "name": "つくし野駅",
            "lat": "35.527531",
            "lng": "139.484484"
        },
        {
            "index": "2",
            "id": "00129556",
            "name": "つくし野小学校",
            "lat": "35.525182",
            "lng": "139.483847"
        },
        {
            "index": "3",
            "id": "00129564",
            "name": "つくし野二丁目(町田市)",
            "lat": "35.523141",
            "lng": "139.482091"
        },
        {
            "index": "4",
            "id": "00129555",
            "name": "小川中央",
            "lat": "35.523931",
            "lng": "139.48034"
        },
        {
            "index": "5",
            "id": "00129554",
            "name": "柳谷戸",
            "lat": "35.524935",
            "lng": "139.47615"
        },
        {
            "index": "6",
            "id": "00129563",
            "name": "小川小学校前",
            "lat": "35.528233",
            "lng": "139.471799"
        },
        {
            "index": "7",
            "id": "00129549",
            "name": "小川かえで公園前",
            "lat": "35.530026",
            "lng": "139.470989"
        },
        {
            "index": "8",
            "id": "00129550",
            "name": "小川高校入口",
            "lat": "35.531863",
            "lng": "139.471609"
        },
        {
            "index": "9",
            "id": "00129551",
            "name": "成瀬駅ガード南",
            "lat": "35.534478",
            "lng": "139.473763"
        },
        {
            "index": "10",
            "id": "00129552",
            "name": "成瀬駅",
            "lat": "35.535768",
            "lng": "139.472792"
        },
        {
            "index": "11",
            "id": "00129562",
            "name": "南成瀬",
            "lat": "35.539831",
            "lng": "139.473571"
        },
        {
            "index": "12",
            "id": "00129561",
            "name": "成瀬高校入口",
            "lat": "35.542878",
            "lng": "139.473756"
        },
        {
            "index": "13",
            "id": "00129560",
            "name": "中村(町田市成瀬)",
            "lat": "35.545088",
            "lng": "139.473445"
        },
        {
            "index": "14",
            "id": "00129559",
            "name": "観性寺前",
            "lat": "35.547613",
            "lng": "139.472446"
        },
        {
            "index": "15",
            "id": "00129735",
            "name": "昭和薬科大学入口",
            "lat": "35.550979",
            "lng": "139.472013"
        },
        {
            "index": "16",
            "id": "00049419",
            "name": "昭和薬科大学",
            "lat": "35.554126",
            "lng": "139.471593"
        },
        {
            "index": "17",
            "id": "00049454",
            "name": "児童公園前(町田市)",
            "lat": "35.557435",
            "lng": "139.469833"
        },
        {
            "index": "18",
            "id": "00049416",
            "name": "東玉川学園四丁目",
            "lat": "35.559823",
            "lng": "139.468386"
        }
    ],
    "route_url": "https://www.kanachu.co.jp/dia/route/index/cid:0000804046/"
}
