{
    "system": "伊82",
    "busstops": [
        {
            "index": "1",
            "id": "00128056",
            "name": "伊勢原駅南口",
            "lat": "35.395403",
            "lng": "139.313482"
        },
        {
            "index": "2",
            "id": "00128057",
            "name": "下宿(伊勢原市)",
            "lat": "35.393768",
            "lng": "139.31519"
        },
        {
            "index": "3",
            "id": "00128095",
            "name": "三福寺前",
            "lat": "35.394053",
            "lng": "139.317253"
        },
        {
            "index": "4",
            "id": "00128096",
            "name": "藤田電機前(伊勢原市)",
            "lat": "35.394021",
            "lng": "139.320496"
        },
        {
            "index": "5",
            "id": "00128097",
            "name": "西沼目",
            "lat": "35.392188",
            "lng": "139.325707"
        },
        {
            "index": "6",
            "id": "00128098",
            "name": "つきみの団地",
            "lat": "35.392101",
            "lng": "139.328822"
        },
        {
            "index": "7",
            "id": "00128099",
            "name": "沼目",
            "lat": "35.391908",
            "lng": "139.331212"
        },
        {
            "index": "8",
            "id": "00128100",
            "name": "大田小学校前",
            "lat": "35.390575",
            "lng": "139.336396"
        },
        {
            "index": "9",
            "id": "00128118",
            "name": "下谷(伊勢原市)",
            "lat": "35.391331",
            "lng": "139.338537"
        },
        {
            "index": "10",
            "id": "00128119",
            "name": "沖小稲葉",
            "lat": "35.390581",
            "lng": "139.343405"
        },
        {
            "index": "11",
            "id": "00128120",
            "name": "小稲葉",
            "lat": "35.389538",
            "lng": "139.350191"
        },
        {
            "index": "12",
            "id": "00127619",
            "name": "下小稲葉",
            "lat": "35.388344",
            "lng": "139.352579"
        },
        {
            "index": "13",
            "id": "00127618",
            "name": "枝大島入口",
            "lat": "35.38614",
            "lng": "139.352731"
        },
        {
            "index": "14",
            "id": "00127617",
            "name": "横内上",
            "lat": "35.377964",
            "lng": "139.353066"
        },
        {
            "index": "15",
            "id": "00127616",
            "name": "横内四ツ角",
            "lat": "35.375729",
            "lng": "139.35277"
        },
        {
            "index": "16",
            "id": "00127615",
            "name": "横内公民館入口",
            "lat": "35.373137",
            "lng": "139.350886"
        },
        {
            "index": "17",
            "id": "00127614",
            "name": "横内下",
            "lat": "35.370646",
            "lng": "139.350394"
        },
        {
            "index": "18",
            "id": "00127613",
            "name": "横内団地前",
            "lat": "35.365887",
            "lng": "139.349995"
        },
        {
            "index": "19",
            "id": "00127612",
            "name": "今里(平塚市)",
            "lat": "35.362052",
            "lng": "139.35114"
        },
        {
            "index": "20",
            "id": "00127611",
            "name": "坂口(平塚市)",
            "lat": "35.360345",
            "lng": "139.350973"
        }
    ],
    "route_url": "https://www.kanachu.co.jp/dia/route/index/cid:0000800926/"
}
