{
    "system": "町24",
    "busstops": [
        {
            "index": "1",
            "id": "00129544",
            "name": "町田ターミナル",
            "lat": "35.540147",
            "lng": "139.449351"
        },
        {
            "index": "2",
            "id": "00025625",
            "name": "町田バスセンター",
            "lat": "35.543458",
            "lng": "139.444543"
        },
        {
            "index": "3",
            "id": "00129356",
            "name": "町田市役所市民ホール前",
            "lat": "35.547266",
            "lng": "139.438906"
        },
        {
            "index": "4",
            "id": "00129357",
            "name": "第四小学校前(町田市)",
            "lat": "35.550343",
            "lng": "139.438207"
        },
        {
            "index": "5",
            "id": "00129358",
            "name": "森野三丁目",
            "lat": "35.552678",
            "lng": "139.439366"
        },
        {
            "index": "6",
            "id": "00129359",
            "name": "市民病院前(町田市)",
            "lat": "35.555545",
            "lng": "139.435749"
        },
        {
            "index": "7",
            "id": "00129360",
            "name": "浄水場前(町田市)",
            "lat": "35.557661",
            "lng": "139.433249"
        },
        {
            "index": "8",
            "id": "00129361",
            "name": "滝の沢(町田市)",
            "lat": "35.559716",
            "lng": "139.429759"
        },
        {
            "index": "9",
            "id": "00129362",
            "name": "木曽住宅",
            "lat": "35.563788",
            "lng": "139.426096"
        },
        {
            "index": "10",
            "id": "00129363",
            "name": "三家(町田市)",
            "lat": "35.564575",
            "lng": "139.425469"
        },
        {
            "index": "11",
            "id": "00129386",
            "name": "木曽入口",
            "lat": "35.567197",
            "lng": "139.425082"
        },
        {
            "index": "12",
            "id": "00129387",
            "name": "山崎団地入口",
            "lat": "35.568085",
            "lng": "139.429963"
        },
        {
            "index": "13",
            "id": "00129388",
            "name": "山崎団地センター",
            "lat": "35.56767",
            "lng": "139.435195"
        },
        {
            "index": "14",
            "id": "00129389",
            "name": "給水塔前(山崎団地/町田市)",
            "lat": "35.571143",
            "lng": "139.438281"
        },
        {
            "index": "15",
            "id": "00129390",
            "name": "北一号(町田市)",
            "lat": "35.574626",
            "lng": "139.437415"
        },
        {
            "index": "16",
            "id": "00129391",
            "name": "北二号(町田市)",
            "lat": "35.574678",
            "lng": "139.433239"
        },
        {
            "index": "17",
            "id": "00129392",
            "name": "山崎団地",
            "lat": "35.572526",
            "lng": "139.432965"
        }
    ],
    "route_url": "https://www.kanachu.co.jp/dia/route/index/cid:0000801242/"
}
