{
    "system": "立02",
    "busstops": [
        {
            "index": "1",
            "id": "00126783",
            "name": "立場ターミナル",
            "lat": "35.413836",
            "lng": "139.500091"
        },
        {
            "index": "2",
            "id": "00126784",
            "name": "谷戸入口(横浜市泉区)",
            "lat": "35.415202",
            "lng": "139.495129"
        },
        {
            "index": "3",
            "id": "00126785",
            "name": "和泉(横浜市泉区)",
            "lat": "35.415965",
            "lng": "139.491707"
        },
        {
            "index": "4",
            "id": "00126786",
            "name": "泉区総合庁舎前",
            "lat": "35.416701",
            "lng": "139.488802"
        },
        {
            "index": "5",
            "id": "00126861",
            "name": "いずみ中央駅",
            "lat": "35.416245",
            "lng": "139.487136"
        },
        {
            "index": "6",
            "id": "00126787",
            "name": "和泉坂上",
            "lat": "35.417519",
            "lng": "139.485173"
        },
        {
            "index": "7",
            "id": "00126906",
            "name": "池ノ上(横浜市泉区)",
            "lat": "35.422557",
            "lng": "139.484679"
        },
        {
            "index": "8",
            "id": "00126898",
            "name": "向原(横浜市泉区)",
            "lat": "35.42896",
            "lng": "139.484383"
        },
        {
            "index": "9",
            "id": "00126897",
            "name": "上飯田中学校入口",
            "lat": "35.431064",
            "lng": "139.484484"
        },
        {
            "index": "10",
            "id": "00126907",
            "name": "飯田北小学校入口",
            "lat": "35.434859",
            "lng": "139.4846"
        },
        {
            "index": "11",
            "id": "00126800",
            "name": "ひなた山第一",
            "lat": "35.441259",
            "lng": "139.484383"
        },
        {
            "index": "12",
            "id": "00126702",
            "name": "ひなた山",
            "lat": "35.442823",
            "lng": "139.483037"
        },
        {
            "index": "13",
            "id": "00126905",
            "name": "上飯田車庫",
            "lat": "35.442658",
            "lng": "139.478233"
        }
    ],
    "route_url": "https://www.kanachu.co.jp/dia/route/index/cid:0000804201/"
}
