{
    "system": "愛20",
    "busstops": [
        {
            "index": "1",
            "id": "00128523",
            "name": "毛利台団地",
            "lat": "35.439616",
            "lng": "139.32835"
        },
        {
            "index": "2",
            "id": "00128448",
            "name": "愛名入口",
            "lat": "35.434814",
            "lng": "139.324726"
        },
        {
            "index": "3",
            "id": "00128447",
            "name": "上長谷(厚木市)",
            "lat": "35.433053",
            "lng": "139.328035"
        },
        {
            "index": "4",
            "id": "00128659",
            "name": "毛利台南入口",
            "lat": "35.432857",
            "lng": "139.330758"
        },
        {
            "index": "5",
            "id": "00130197",
            "name": "仲町(厚木市長谷)",
            "lat": "35.429415",
            "lng": "139.335634"
        },
        {
            "index": "6",
            "id": "00128508",
            "name": "柳町(厚木市)",
            "lat": "35.428821",
            "lng": "139.337805"
        },
        {
            "index": "7",
            "id": "00128507",
            "name": "依胡田",
            "lat": "35.427969",
            "lng": "139.341881"
        },
        {
            "index": "8",
            "id": "00128506",
            "name": "仲田(厚木市)",
            "lat": "35.426687",
            "lng": "139.347956"
        },
        {
            "index": "9",
            "id": "00128623",
            "name": "坊中(厚木市)",
            "lat": "35.422746",
            "lng": "139.348805"
        },
        {
            "index": "10",
            "id": "00128496",
            "name": "愛甲石田駅",
            "lat": "35.418388",
            "lng": "139.344343"
        }
    ],
    "route_url": "https://www.kanachu.co.jp/dia/route/index/cid:0000800868/"
}
