{
    "system": "淵53",
    "busstops": [
        {
            "index": "1",
            "id": "00129245",
            "name": "淵野辺駅南口",
            "lat": "35.568353",
            "lng": "139.39497"
        },
        {
            "index": "2",
            "id": "00129125",
            "name": "淵野辺駅入口",
            "lat": "35.565981",
            "lng": "139.39538"
        },
        {
            "index": "3",
            "id": "00129248",
            "name": "淵野辺十字路",
            "lat": "35.563778",
            "lng": "139.391505"
        },
        {
            "index": "4",
            "id": "00129280",
            "name": "弥栄(相模原市中央区)",
            "lat": "35.56177",
            "lng": "139.387331"
        },
        {
            "index": "5",
            "id": "00129143",
            "name": "栄公園前",
            "lat": "35.560711",
            "lng": "139.383791"
        },
        {
            "index": "6",
            "id": "00129195",
            "name": "千代田(相模原市中央区)",
            "lat": "35.559292",
            "lng": "139.378629"
        },
        {
            "index": "7",
            "id": "00129253",
            "name": "星が丘(相模原市中央区)",
            "lat": "35.557898",
            "lng": "139.373396"
        },
        {
            "index": "8",
            "id": "00128532",
            "name": "横山坂上",
            "lat": "35.557596",
            "lng": "139.36812"
        },
        {
            "index": "9",
            "id": "00129347",
            "name": "上溝",
            "lat": "35.557837",
            "lng": "139.363552"
        },
        {
            "index": "10",
            "id": "00129348",
            "name": "上溝中央",
            "lat": "35.557043",
            "lng": "139.359828"
        },
        {
            "index": "11",
            "id": "00129179",
            "name": "上溝高校入口",
            "lat": "35.557572",
            "lng": "139.356828"
        },
        {
            "index": "12",
            "id": "00129219",
            "name": "鳩川住宅前",
            "lat": "35.556857",
            "lng": "139.354325"
        },
        {
            "index": "13",
            "id": "00129072",
            "name": "石橋(相模原市中央区)",
            "lat": "35.556034",
            "lng": "139.350482"
        },
        {
            "index": "14",
            "id": "00129184",
            "name": "田名工業団地入口",
            "lat": "35.554437",
            "lng": "139.34354"
        },
        {
            "index": "15",
            "id": "00129289",
            "name": "四ツ谷(相模原市中央区)",
            "lat": "35.552158",
            "lng": "139.339055"
        },
        {
            "index": "16",
            "id": "00129077",
            "name": "田名バスターミナル",
            "lat": "35.550976",
            "lng": "139.334945"
        }
    ],
    "route_url": "https://www.kanachu.co.jp/dia/route/index/cid:0000802372/"
}
