{
    "system": "船08",
    "busstops": [
        {
            "index": "1",
            "id": "00113597",
            "name": "金沢八景駅",
            "lat": "35.331401",
            "lng": "139.620479"
        },
        {
            "index": "2",
            "id": "00130503",
            "name": "金沢八景",
            "lat": "35.330936",
            "lng": "139.621252"
        },
        {
            "index": "3",
            "id": "00113541",
            "name": "六浦橋",
            "lat": "35.327675",
            "lng": "139.619493"
        },
        {
            "index": "4",
            "id": "00113598",
            "name": "上行寺",
            "lat": "35.327988",
            "lng": "139.617606"
        },
        {
            "index": "5",
            "id": "00113599",
            "name": "六浦",
            "lat": "35.327973",
            "lng": "139.615667"
        },
        {
            "index": "6",
            "id": "00113600",
            "name": "大道小学校前",
            "lat": "35.327263",
            "lng": "139.610515"
        },
        {
            "index": "7",
            "id": "00113601",
            "name": "大道(横浜市金沢区)",
            "lat": "35.328306",
            "lng": "139.607841"
        },
        {
            "index": "8",
            "id": "00113602",
            "name": "西大道",
            "lat": "35.328768",
            "lng": "139.604971"
        },
        {
            "index": "9",
            "id": "00113603",
            "name": "住宅前(横浜市金沢区)",
            "lat": "35.328781",
            "lng": "139.604072"
        },
        {
            "index": "10",
            "id": "00113604",
            "name": "大道中学校前",
            "lat": "35.328827",
            "lng": "139.60227"
        },
        {
            "index": "11",
            "id": "00113829",
            "name": "朝比奈",
            "lat": "35.329572",
            "lng": "139.595559"
        },
        {
            "index": "12",
            "id": "00113828",
            "name": "相武隧道",
            "lat": "35.331714",
            "lng": "139.59206"
        },
        {
            "index": "13",
            "id": "00126522",
            "name": "隧道東口",
            "lat": "35.333344",
            "lng": "139.591093"
        },
        {
            "index": "14",
            "id": "00126521",
            "name": "横浜霊園前",
            "lat": "35.339091",
            "lng": "139.584422"
        },
        {
            "index": "15",
            "id": "00126520",
            "name": "森の家前",
            "lat": "35.341199",
            "lng": "139.582194"
        },
        {
            "index": "16",
            "id": "00126519",
            "name": "上郷(横浜市栄区)",
            "lat": "35.344132",
            "lng": "139.582202"
        },
        {
            "index": "17",
            "id": "00126518",
            "name": "長倉町",
            "lat": "35.346501",
            "lng": "139.581904"
        },
        {
            "index": "18",
            "id": "00126517",
            "name": "八軒谷戸",
            "lat": "35.350179",
            "lng": "139.580716"
        },
        {
            "index": "19",
            "id": "00126516",
            "name": "中島(横浜市栄区)",
            "lat": "35.354673",
            "lng": "139.579888"
        },
        {
            "index": "20",
            "id": "00126515",
            "name": "光明寺(横浜市栄区)",
            "lat": "35.357884",
            "lng": "139.57946"
        },
        {
            "index": "21",
            "id": "00126514",
            "name": "紅葉橋(横浜市栄区)",
            "lat": "35.360541",
            "lng": "139.577308"
        },
        {
            "index": "22",
            "id": "00025683",
            "name": "本郷車庫前(横浜市栄区)",
            "lat": "35.362621",
            "lng": "139.574725"
        },
        {
            "index": "23",
            "id": "00126513",
            "name": "山手学院入口",
            "lat": "35.363589",
            "lng": "139.572433"
        },
        {
            "index": "24",
            "id": "00126512",
            "name": "稲荷森",
            "lat": "35.364251",
            "lng": "139.568941"
        },
        {
            "index": "25",
            "id": "00126511",
            "name": "中野町",
            "lat": "35.363833",
            "lng": "139.566972"
        },
        {
            "index": "26",
            "id": "00126510",
            "name": "本郷(横浜市栄区)",
            "lat": "35.363519",
            "lng": "139.564459"
        },
        {
            "index": "27",
            "id": "00126509",
            "name": "本郷小学校前",
            "lat": "35.36335",
            "lng": "139.560819"
        },
        {
            "index": "28",
            "id": "00126508",
            "name": "南河内(横浜市栄区)",
            "lat": "35.363534",
            "lng": "139.558282"
        },
        {
            "index": "29",
            "id": "00126507",
            "name": "天神橋(横浜市栄区)",
            "lat": "35.363256",
            "lng": "139.555255"
        },
        {
            "index": "30",
            "id": "00126609",
            "name": "栄警察署前",
            "lat": "35.362342",
            "lng": "139.553224"
        },
        {
            "index": "31",
            "id": "00126506",
            "name": "公田",
            "lat": "35.361053",
            "lng": "139.550497"
        },
        {
            "index": "32",
            "id": "00126505",
            "name": "鎌倉女子大前",
            "lat": "35.360113",
            "lng": "139.546834"
        },
        {
            "index": "33",
            "id": "00126504",
            "name": "平島(鎌倉市)",
            "lat": "35.360823",
            "lng": "139.544062"
        },
        {
            "index": "34",
            "id": "00126503",
            "name": "笠間十字路",
            "lat": "35.361021",
            "lng": "139.539279"
        },
        {
            "index": "35",
            "id": "00126502",
            "name": "笠間町",
            "lat": "35.360496",
            "lng": "139.537543"
        },
        {
            "index": "36",
            "id": "00126501",
            "name": "岩井口",
            "lat": "35.359325",
            "lng": "139.535652"
        },
        {
            "index": "37",
            "id": "00126594",
            "name": "大船駅(横浜市栄区)",
            "lat": "35.355998",
            "lng": "139.533269"
        }
    ],
    "route_url": "https://www.kanachu.co.jp/dia/route/index/cid:0000803821/"
}
