{
    "system": "平22",
    "busstops": [
        {
            "index": "1",
            "id": "00127583",
            "name": "市民病院前(平塚市)",
            "lat": "35.336315",
            "lng": "139.325241"
        },
        {
            "index": "2",
            "id": "00127584",
            "name": "達上ヶ丘",
            "lat": "35.334976",
            "lng": "139.324526"
        },
        {
            "index": "3",
            "id": "00127572",
            "name": "上平塚",
            "lat": "35.333154",
            "lng": "139.326362"
        },
        {
            "index": "4",
            "id": "00127592",
            "name": "平塚農商高校",
            "lat": "35.333112",
            "lng": "139.328942"
        },
        {
            "index": "5",
            "id": "00127591",
            "name": "貴峯荘前",
            "lat": "35.333613",
            "lng": "139.331159"
        },
        {
            "index": "6",
            "id": "00127590",
            "name": "大久保公園(平塚市)",
            "lat": "35.334902",
            "lng": "139.331316"
        },
        {
            "index": "7",
            "id": "00127589",
            "name": "諏訪町(平塚市)",
            "lat": "35.335843",
            "lng": "139.334135"
        },
        {
            "index": "8",
            "id": "00127588",
            "name": "豊原町",
            "lat": "35.33457",
            "lng": "139.335062"
        },
        {
            "index": "9",
            "id": "00127587",
            "name": "富士見小学校前(平塚市)",
            "lat": "35.331208",
            "lng": "139.336154"
        },
        {
            "index": "10",
            "id": "00127586",
            "name": "桧扇町",
            "lat": "35.32894",
            "lng": "139.336793"
        },
        {
            "index": "11",
            "id": "00127585",
            "name": "新豊田道",
            "lat": "35.327683",
            "lng": "139.337209"
        },
        {
            "index": "12",
            "id": "00127468",
            "name": "豊田道",
            "lat": "35.327573",
            "lng": "139.338124"
        },
        {
            "index": "13",
            "id": "00127467",
            "name": "八間通り",
            "lat": "35.328369",
            "lng": "139.341444"
        },
        {
            "index": "14",
            "id": "00127466",
            "name": "平塚文化芸術ホール前",
            "lat": "35.32904",
            "lng": "139.344531"
        },
        {
            "index": "15",
            "id": "00127465",
            "name": "銀座通り(平塚市)",
            "lat": "35.329517",
            "lng": "139.346771"
        },
        {
            "index": "16",
            "id": "00127464",
            "name": "平塚駅北口",
            "lat": "35.329356",
            "lng": "139.350577"
        }
    ],
    "route_url": "https://www.kanachu.co.jp/dia/route/index/cid:0000803655/"
}
