{
    "system": "秦08",
    "busstops": [
        {
            "index": "1",
            "id": "00127715",
            "name": "秦野駅",
            "lat": "35.370233",
            "lng": "139.22634"
        },
        {
            "index": "2",
            "id": "00130496",
            "name": "大川橋・本町小学校前",
            "lat": "35.373029",
            "lng": "139.224057"
        },
        {
            "index": "3",
            "id": "00127911",
            "name": "市役所前(秦野市)",
            "lat": "35.374162",
            "lng": "139.220071"
        },
        {
            "index": "4",
            "id": "00127912",
            "name": "桜橋(秦野市)",
            "lat": "35.374481",
            "lng": "139.218687"
        },
        {
            "index": "5",
            "id": "00127913",
            "name": "本町中学校前",
            "lat": "35.375425",
            "lng": "139.214844"
        },
        {
            "index": "6",
            "id": "00127914",
            "name": "富士見町入口",
            "lat": "35.375803",
            "lng": "139.213503"
        },
        {
            "index": "7",
            "id": "00127915",
            "name": "富士見橋・警察署入口",
            "lat": "35.378325",
            "lng": "139.208025"
        },
        {
            "index": "8",
            "id": "00127917",
            "name": "浄屋入口",
            "lat": "35.379642",
            "lng": "139.205692"
        },
        {
            "index": "9",
            "id": "00127918",
            "name": "カルチャーパーク前",
            "lat": "35.381135",
            "lng": "139.203501"
        },
        {
            "index": "10",
            "id": "00127919",
            "name": "水無瀬橋(秦野市)",
            "lat": "35.383109",
            "lng": "139.19992"
        },
        {
            "index": "11",
            "id": "00127923",
            "name": "文化会館前(秦野市)",
            "lat": "35.38148",
            "lng": "139.197581"
        },
        {
            "index": "12",
            "id": "00127924",
            "name": "日立南",
            "lat": "35.378025",
            "lng": "139.194684"
        },
        {
            "index": "13",
            "id": "00127925",
            "name": "日立製作所(秦野市)",
            "lat": "35.378574",
            "lng": "139.191957"
        },
        {
            "index": "14",
            "id": "00127989",
            "name": "堀川東",
            "lat": "35.380339",
            "lng": "139.188797"
        },
        {
            "index": "15",
            "id": "00127990",
            "name": "桜土手(秦野市)",
            "lat": "35.380991",
            "lng": "139.187294"
        },
        {
            "index": "16",
            "id": "00128008",
            "name": "堀川小学校前(秦野市)",
            "lat": "35.379402",
            "lng": "139.186724"
        },
        {
            "index": "17",
            "id": "00127899",
            "name": "渋沢駅北口",
            "lat": "35.374375",
            "lng": "139.184811"
        }
    ],
    "route_url": "https://www.kanachu.co.jp/dia/route/index/cid:0000803983/"
}
