{
    "system": "平21",
    "busstops": [
        {
            "index": "1",
            "id": "00127705",
            "name": "金田公民館",
            "lat": "35.353455",
            "lng": "139.320084"
        },
        {
            "index": "2",
            "id": "00127704",
            "name": "入野前田",
            "lat": "35.352207",
            "lng": "139.32019"
        },
        {
            "index": "3",
            "id": "00127703",
            "name": "成願寺(平塚市)",
            "lat": "35.350456",
            "lng": "139.320504"
        },
        {
            "index": "4",
            "id": "00127702",
            "name": "長持根下",
            "lat": "35.348884",
            "lng": "139.320097"
        },
        {
            "index": "5",
            "id": "00127701",
            "name": "熊野神社前(平塚市)",
            "lat": "35.34756",
            "lng": "139.320017"
        },
        {
            "index": "6",
            "id": "00127700",
            "name": "長瀬北",
            "lat": "35.346195",
            "lng": "139.31999"
        },
        {
            "index": "7",
            "id": "00127738",
            "name": "長瀬(平塚市)",
            "lat": "35.343106",
            "lng": "139.321134"
        },
        {
            "index": "8",
            "id": "00127560",
            "name": "南原土手",
            "lat": "35.340368",
            "lng": "139.322255"
        },
        {
            "index": "9",
            "id": "00127583",
            "name": "市民病院前(平塚市)",
            "lat": "35.336315",
            "lng": "139.325241"
        },
        {
            "index": "10",
            "id": "00127584",
            "name": "達上ヶ丘",
            "lat": "35.334976",
            "lng": "139.324526"
        },
        {
            "index": "11",
            "id": "00127572",
            "name": "上平塚",
            "lat": "35.333154",
            "lng": "139.326362"
        },
        {
            "index": "12",
            "id": "00127592",
            "name": "平塚農商高校",
            "lat": "35.333112",
            "lng": "139.328942"
        },
        {
            "index": "13",
            "id": "00127591",
            "name": "貴峯荘前",
            "lat": "35.332745",
            "lng": "139.331466"
        },
        {
            "index": "14",
            "id": "00127596",
            "name": "中里(平塚市)",
            "lat": "35.330287",
            "lng": "139.332032"
        },
        {
            "index": "15",
            "id": "00127595",
            "name": "柳町入口",
            "lat": "35.329301",
            "lng": "139.3327"
        },
        {
            "index": "16",
            "id": "00127586",
            "name": "桧扇町",
            "lat": "35.329245",
            "lng": "139.334779"
        },
        {
            "index": "17",
            "id": "00127585",
            "name": "新豊田道",
            "lat": "35.327683",
            "lng": "139.337209"
        },
        {
            "index": "18",
            "id": "00127468",
            "name": "豊田道",
            "lat": "35.327573",
            "lng": "139.338124"
        },
        {
            "index": "19",
            "id": "00127467",
            "name": "八間通り",
            "lat": "35.328369",
            "lng": "139.341444"
        },
        {
            "index": "20",
            "id": "00127466",
            "name": "平塚文化芸術ホール前",
            "lat": "35.32904",
            "lng": "139.344531"
        },
        {
            "index": "21",
            "id": "00127465",
            "name": "銀座通り(平塚市)",
            "lat": "35.329517",
            "lng": "139.346771"
        },
        {
            "index": "22",
            "id": "00127464",
            "name": "平塚駅北口",
            "lat": "35.329356",
            "lng": "139.350577"
        }
    ],
    "route_url": "https://www.kanachu.co.jp/dia/route/index/cid:0000804229/"
}
