{
    "system": "平77",
    "busstops": [
        {
            "index": "1",
            "id": "00128055",
            "name": "東海大学前駅南口",
            "lat": "35.372651",
            "lng": "139.271857"
        },
        {
            "index": "2",
            "id": "00127760",
            "name": "東海大学前駅入口",
            "lat": "35.371603",
            "lng": "139.273893"
        },
        {
            "index": "3",
            "id": "00130522",
            "name": "東海大学1号館前",
            "lat": "35.36658",
            "lng": "139.276154"
        },
        {
            "index": "4",
            "id": "00130534",
            "name": "東海大学東",
            "lat": "35.367301",
            "lng": "139.278658"
        },
        {
            "index": "5",
            "id": "00130533",
            "name": "北金目",
            "lat": "35.367464",
            "lng": "139.282952"
        },
        {
            "index": "6",
            "id": "00130347",
            "name": "塚越古墳",
            "lat": "35.366638",
            "lng": "139.285367"
        },
        {
            "index": "7",
            "id": "00128235",
            "name": "みずほ小学校",
            "lat": "35.363931",
            "lng": "139.286107"
        },
        {
            "index": "8",
            "id": "00128236",
            "name": "堀町(平塚市)",
            "lat": "35.360662",
            "lng": "139.286436"
        },
        {
            "index": "9",
            "id": "00127731",
            "name": "金目駅",
            "lat": "35.359313",
            "lng": "139.288253"
        },
        {
            "index": "10",
            "id": "00127732",
            "name": "南金目",
            "lat": "35.359195",
            "lng": "139.292322"
        },
        {
            "index": "11",
            "id": "00127733",
            "name": "片岡(平塚市)",
            "lat": "35.359411",
            "lng": "139.298762"
        },
        {
            "index": "12",
            "id": "00127734",
            "name": "飯島(平塚市)",
            "lat": "35.356844",
            "lng": "139.305094"
        },
        {
            "index": "13",
            "id": "00127735",
            "name": "平塚支援学校前",
            "lat": "35.35598",
            "lng": "139.308777"
        },
        {
            "index": "14",
            "id": "00127736",
            "name": "水神橋(平塚市)",
            "lat": "35.353958",
            "lng": "139.31044"
        },
        {
            "index": "15",
            "id": "00127737",
            "name": "長持",
            "lat": "35.348509",
            "lng": "139.316025"
        },
        {
            "index": "16",
            "id": "00127738",
            "name": "長瀬(平塚市)",
            "lat": "35.343106",
            "lng": "139.321134"
        },
        {
            "index": "17",
            "id": "00127560",
            "name": "南原土手",
            "lat": "35.340368",
            "lng": "139.322255"
        },
        {
            "index": "18",
            "id": "00127583",
            "name": "市民病院前(平塚市)",
            "lat": "35.336315",
            "lng": "139.325241"
        },
        {
            "index": "19",
            "id": "00127584",
            "name": "達上ヶ丘",
            "lat": "35.334976",
            "lng": "139.324526"
        },
        {
            "index": "20",
            "id": "00127572",
            "name": "上平塚",
            "lat": "35.333154",
            "lng": "139.326362"
        },
        {
            "index": "21",
            "id": "00127592",
            "name": "平塚農商高校",
            "lat": "35.333112",
            "lng": "139.328942"
        },
        {
            "index": "22",
            "id": "00127591",
            "name": "貴峯荘前",
            "lat": "35.333613",
            "lng": "139.331159"
        },
        {
            "index": "23",
            "id": "00127590",
            "name": "大久保公園(平塚市)",
            "lat": "35.334902",
            "lng": "139.331316"
        },
        {
            "index": "24",
            "id": "00127589",
            "name": "諏訪町(平塚市)",
            "lat": "35.335843",
            "lng": "139.334135"
        },
        {
            "index": "25",
            "id": "00127588",
            "name": "豊原町",
            "lat": "35.33457",
            "lng": "139.335062"
        },
        {
            "index": "26",
            "id": "00127587",
            "name": "富士見小学校前(平塚市)",
            "lat": "35.331208",
            "lng": "139.336154"
        },
        {
            "index": "27",
            "id": "00127586",
            "name": "桧扇町",
            "lat": "35.32894",
            "lng": "139.336793"
        },
        {
            "index": "28",
            "id": "00127585",
            "name": "新豊田道",
            "lat": "35.327683",
            "lng": "139.337209"
        },
        {
            "index": "29",
            "id": "00127468",
            "name": "豊田道",
            "lat": "35.327573",
            "lng": "139.338124"
        },
        {
            "index": "30",
            "id": "00127467",
            "name": "八間通り",
            "lat": "35.328369",
            "lng": "139.341444"
        },
        {
            "index": "31",
            "id": "00127466",
            "name": "平塚文化芸術ホール前",
            "lat": "35.32904",
            "lng": "139.344531"
        },
        {
            "index": "32",
            "id": "00127465",
            "name": "銀座通り(平塚市)",
            "lat": "35.329517",
            "lng": "139.346771"
        },
        {
            "index": "33",
            "id": "00127464",
            "name": "平塚駅北口",
            "lat": "35.329337",
            "lng": "139.350596"
        }
    ],
    "route_url": "https://www.kanachu.co.jp/dia/route/index/cid:0000803654/"
}
