{
    "system": "町13",
    "busstops": [
        {
            "index": "1",
            "id": "00129388",
            "name": "山崎団地センター",
            "lat": "35.567562",
            "lng": "139.435659"
        },
        {
            "index": "2",
            "id": "00129387",
            "name": "山崎団地入口",
            "lat": "35.567901",
            "lng": "139.429899"
        },
        {
            "index": "3",
            "id": "00129386",
            "name": "木曽入口",
            "lat": "35.566829",
            "lng": "139.424741"
        },
        {
            "index": "4",
            "id": "00129382",
            "name": "境川団地",
            "lat": "35.56139",
            "lng": "139.422414"
        },
        {
            "index": "5",
            "id": "00025625",
            "name": "町田バスセンター",
            "lat": "35.543525",
            "lng": "139.444385"
        }
    ],
    "route_url": "https://www.kanachu.co.jp/dia/route/index/cid:0000803603/"
}
