{
    "system": "愛11",
    "busstops": [
        {
            "index": "1",
            "id": "00128193",
            "name": "七沢病院",
            "lat": "35.447459",
            "lng": "139.291257"
        },
        {
            "index": "2",
            "id": "00128192",
            "name": "七沢病院下",
            "lat": "35.44698",
            "lng": "139.294339"
        },
        {
            "index": "3",
            "id": "00128457",
            "name": "七沢温泉入口",
            "lat": "35.444739",
            "lng": "139.297165"
        },
        {
            "index": "4",
            "id": "00128455",
            "name": "馬場リハビリ入口",
            "lat": "35.4421",
            "lng": "139.298837"
        },
        {
            "index": "5",
            "id": "00128456",
            "name": "神奈川リハビリ",
            "lat": "35.440092",
            "lng": "139.296306"
        },
        {
            "index": "6",
            "id": "00128455",
            "name": "馬場リハビリ入口",
            "lat": "35.442018",
            "lng": "139.299793"
        },
        {
            "index": "7",
            "id": "00128454",
            "name": "日向川",
            "lat": "35.438949",
            "lng": "139.301596"
        },
        {
            "index": "8",
            "id": "00128453",
            "name": "玉川公民館前",
            "lat": "35.437724",
            "lng": "139.303531"
        },
        {
            "index": "9",
            "id": "00128452",
            "name": "玉川農協前",
            "lat": "35.435235",
            "lng": "139.308042"
        },
        {
            "index": "10",
            "id": "00128451",
            "name": "中屋橋",
            "lat": "35.435264",
            "lng": "139.3123"
        },
        {
            "index": "11",
            "id": "00128450",
            "name": "小野橋(厚木市)",
            "lat": "35.434424",
            "lng": "139.315478"
        },
        {
            "index": "12",
            "id": "00128449",
            "name": "小野宮前",
            "lat": "35.434186",
            "lng": "139.318785"
        },
        {
            "index": "13",
            "id": "00128448",
            "name": "愛名入口",
            "lat": "35.434489",
            "lng": "139.323474"
        },
        {
            "index": "14",
            "id": "00128447",
            "name": "上長谷(厚木市)",
            "lat": "35.433053",
            "lng": "139.328035"
        },
        {
            "index": "15",
            "id": "00128659",
            "name": "毛利台南入口",
            "lat": "35.432857",
            "lng": "139.330758"
        },
        {
            "index": "16",
            "id": "00128524",
            "name": "聖木",
            "lat": "35.428569",
            "lng": "139.32876"
        },
        {
            "index": "17",
            "id": "00128525",
            "name": "大上(厚木市)",
            "lat": "35.426334",
            "lng": "139.329383"
        },
        {
            "index": "18",
            "id": "00128526",
            "name": "愛甲原住宅",
            "lat": "35.424034",
            "lng": "139.33106"
        },
        {
            "index": "19",
            "id": "00128527",
            "name": "上愛甲",
            "lat": "35.424659",
            "lng": "139.333399"
        },
        {
            "index": "20",
            "id": "00128528",
            "name": "愛甲橋",
            "lat": "35.423541",
            "lng": "139.335691"
        },
        {
            "index": "21",
            "id": "00128529",
            "name": "堂山",
            "lat": "35.422112",
            "lng": "139.338746"
        },
        {
            "index": "22",
            "id": "00128495",
            "name": "宮前(厚木市)",
            "lat": "35.420329",
            "lng": "139.342817"
        },
        {
            "index": "23",
            "id": "00128496",
            "name": "愛甲石田駅",
            "lat": "35.418388",
            "lng": "139.344343"
        }
    ],
    "route_url": "https://www.kanachu.co.jp/dia/route/index/cid:0000803370/"
}
