{
    "system": "戸56",
    "busstops": [
        {
            "index": "1",
            "id": "00126775",
            "name": "戸塚バスセンター",
            "lat": "35.400559",
            "lng": "139.532278"
        },
        {
            "index": "2",
            "id": "00126809",
            "name": "消防署前(横浜市戸塚区)",
            "lat": "35.398563",
            "lng": "139.531015"
        },
        {
            "index": "3",
            "id": "00126810",
            "name": "八坂神社前",
            "lat": "35.394401",
            "lng": "139.529834"
        },
        {
            "index": "4",
            "id": "00126811",
            "name": "大坂下",
            "lat": "35.392865",
            "lng": "139.527214"
        },
        {
            "index": "5",
            "id": "00126812",
            "name": "大坂台",
            "lat": "35.391294",
            "lng": "139.523689"
        },
        {
            "index": "6",
            "id": "00126813",
            "name": "大坂上(横浜市戸塚区)",
            "lat": "35.388632",
            "lng": "139.520998"
        },
        {
            "index": "7",
            "id": "00126814",
            "name": "新道大坂上",
            "lat": "35.387582",
            "lng": "139.518835"
        },
        {
            "index": "8",
            "id": "00126815",
            "name": "西横浜国際総合病院前",
            "lat": "35.384608",
            "lng": "139.515625"
        },
        {
            "index": "9",
            "id": "00126816",
            "name": "吹上(横浜市戸塚区)",
            "lat": "35.381376",
            "lng": "139.512944"
        },
        {
            "index": "10",
            "id": "00126817",
            "name": "大運寺",
            "lat": "35.378798",
            "lng": "139.508902"
        },
        {
            "index": "11",
            "id": "00126819",
            "name": "横浜医療センター前",
            "lat": "35.378616",
            "lng": "139.504634"
        },
        {
            "index": "12",
            "id": "00126968",
            "name": "横浜医療センター",
            "lat": "35.379741",
            "lng": "139.504884"
        }
    ],
    "route_url": "https://www.kanachu.co.jp/dia/route/index/cid:0000801357/"
}
