{
    "system": "学04",
    "busstops": [
        {
            "index": "1",
            "id": "00127755",
            "name": "下大槻団地",
            "lat": "35.360197",
            "lng": "139.264218"
        },
        {
            "index": "2",
            "id": "00127754",
            "name": "広畑ふれあいプラザ前",
            "lat": "35.360519",
            "lng": "139.262517"
        },
        {
            "index": "3",
            "id": "00127756",
            "name": "宿矢名",
            "lat": "35.362802",
            "lng": "139.262544"
        },
        {
            "index": "4",
            "id": "00127757",
            "name": "矢名",
            "lat": "35.363825",
            "lng": "139.266218"
        },
        {
            "index": "5",
            "id": "00127758",
            "name": "学校入口(秦野市)",
            "lat": "35.365545",
            "lng": "139.270154"
        },
        {
            "index": "6",
            "id": "00127759",
            "name": "東海大学北門",
            "lat": "35.366456",
            "lng": "139.272753"
        },
        {
            "index": "7",
            "id": "00127760",
            "name": "東海大学前駅入口",
            "lat": "35.371483",
            "lng": "139.273756"
        },
        {
            "index": "8",
            "id": "00128055",
            "name": "東海大学前駅南口",
            "lat": "35.372851",
            "lng": "139.271367"
        }
    ],
    "route_url": "https://www.kanachu.co.jp/dia/route/index/cid:0000803659/"
}
