{
    "system": "戸13",
    "busstops": [
        {
            "index": "1",
            "id": "00126905",
            "name": "上飯田車庫",
            "lat": "35.442594",
            "lng": "139.477757"
        },
        {
            "index": "2",
            "id": "00126702",
            "name": "ひなた山",
            "lat": "35.442986",
            "lng": "139.483178"
        },
        {
            "index": "3",
            "id": "00126701",
            "name": "遊水池前(横浜市泉区)",
            "lat": "35.443018",
            "lng": "139.487552"
        },
        {
            "index": "4",
            "id": "00126700",
            "name": "柳明",
            "lat": "35.443112",
            "lng": "139.491154"
        },
        {
            "index": "5",
            "id": "00126699",
            "name": "阿久和山谷",
            "lat": "35.444806",
            "lng": "139.496515"
        },
        {
            "index": "6",
            "id": "00126945",
            "name": "阿久和坂上",
            "lat": "35.445902",
            "lng": "139.49996"
        },
        {
            "index": "7",
            "id": "00126681",
            "name": "阿久和",
            "lat": "35.446931",
            "lng": "139.504585"
        },
        {
            "index": "8",
            "id": "00126680",
            "name": "中村(横浜市瀬谷区)",
            "lat": "35.444059",
            "lng": "139.506164"
        },
        {
            "index": "9",
            "id": "00126679",
            "name": "大中村",
            "lat": "35.438946",
            "lng": "139.508317"
        },
        {
            "index": "10",
            "id": "00126678",
            "name": "相模新橋",
            "lat": "35.437126",
            "lng": "139.511853"
        },
        {
            "index": "11",
            "id": "00126677",
            "name": "観音寺前(横浜市泉区)",
            "lat": "35.435556",
            "lng": "139.513604"
        },
        {
            "index": "12",
            "id": "00126676",
            "name": "新橋町(横浜市泉区)",
            "lat": "35.433412",
            "lng": "139.513064"
        },
        {
            "index": "13",
            "id": "00126675",
            "name": "下新橋",
            "lat": "35.42992",
            "lng": "139.514149"
        },
        {
            "index": "14",
            "id": "00126920",
            "name": "まほろば",
            "lat": "35.428161",
            "lng": "139.516714"
        },
        {
            "index": "15",
            "id": "00126674",
            "name": "岡津橋",
            "lat": "35.427215",
            "lng": "139.521713"
        },
        {
            "index": "16",
            "id": "00126673",
            "name": "岡津",
            "lat": "35.426975",
            "lng": "139.524374"
        },
        {
            "index": "17",
            "id": "00126672",
            "name": "下岡津",
            "lat": "35.426412",
            "lng": "139.52858"
        },
        {
            "index": "18",
            "id": "00126671",
            "name": "日の森",
            "lat": "35.423248",
            "lng": "139.531902"
        },
        {
            "index": "19",
            "id": "00126670",
            "name": "上矢部",
            "lat": "35.42198",
            "lng": "139.533608"
        },
        {
            "index": "20",
            "id": "00126669",
            "name": "上矢部インター",
            "lat": "35.418951",
            "lng": "139.537117"
        },
        {
            "index": "21",
            "id": "00126668",
            "name": "富士橋",
            "lat": "35.416831",
            "lng": "139.539469"
        },
        {
            "index": "22",
            "id": "00126613",
            "name": "不動坂(横浜市戸塚区)",
            "lat": "35.413425",
            "lng": "139.541594"
        },
        {
            "index": "23",
            "id": "00126612",
            "name": "ブリヂストン前",
            "lat": "35.409557",
            "lng": "139.5396"
        },
        {
            "index": "24",
            "id": "00126611",
            "name": "元町(横浜市戸塚区)",
            "lat": "35.40689",
            "lng": "139.538133"
        },
        {
            "index": "25",
            "id": "00126969",
            "name": "戸塚駅西口",
            "lat": "35.401068",
            "lng": "139.533508"
        },
        {
            "index": "26",
            "id": "00126775",
            "name": "戸塚バスセンター",
            "lat": "35.400571",
            "lng": "139.532128"
        }
    ],
    "route_url": "https://www.kanachu.co.jp/dia/route/index/cid:0000803559/"
}
