{
    "system": "古03",
    "busstops": [
        {
            "index": "1",
            "id": "00129313",
            "name": "古淵駅",
            "lat": "35.555988",
            "lng": "139.419537"
        },
        {
            "index": "2",
            "id": "00129493",
            "name": "鹿島神社入口",
            "lat": "35.557468",
            "lng": "139.422619"
        },
        {
            "index": "3",
            "id": "00129381",
            "name": "境川団地中央",
            "lat": "35.559444",
            "lng": "139.4238"
        },
        {
            "index": "4",
            "id": "00129382",
            "name": "境川団地",
            "lat": "35.561869",
            "lng": "139.421858"
        },
        {
            "index": "5",
            "id": "00129385",
            "name": "上横町",
            "lat": "35.565076",
            "lng": "139.422466"
        },
        {
            "index": "6",
            "id": "00129386",
            "name": "木曽入口",
            "lat": "35.567197",
            "lng": "139.425082"
        },
        {
            "index": "7",
            "id": "00129387",
            "name": "山崎団地入口",
            "lat": "35.568085",
            "lng": "139.429963"
        },
        {
            "index": "8",
            "id": "00129388",
            "name": "山崎団地センター",
            "lat": "35.56767",
            "lng": "139.435195"
        },
        {
            "index": "9",
            "id": "00129389",
            "name": "給水塔前(山崎団地/町田市)",
            "lat": "35.570959",
            "lng": "139.438672"
        },
        {
            "index": "10",
            "id": "00129426",
            "name": "今井谷戸",
            "lat": "35.572354",
            "lng": "139.443751"
        },
        {
            "index": "11",
            "id": "00129451",
            "name": "藤の台団地",
            "lat": "35.571266",
            "lng": "139.449164"
        }
    ],
    "route_url": "https://www.kanachu.co.jp/dia/route/index/cid:0000801152/"
}
