{
    "system": "鶴08",
    "busstops": [
        {
            "index": "1",
            "id": "00049296",
            "name": "鶴川駅",
            "lat": "35.583577",
            "lng": "139.483441"
        },
        {
            "index": "2",
            "id": "00049297",
            "name": "岡上",
            "lat": "35.580097",
            "lng": "139.485221"
        },
        {
            "index": "3",
            "id": "00049298",
            "name": "三輪入口",
            "lat": "35.576746",
            "lng": "139.485044"
        },
        {
            "index": "4",
            "id": "00049331",
            "name": "三輪中央公園前",
            "lat": "35.574994",
            "lng": "139.488361"
        },
        {
            "index": "5",
            "id": "00049332",
            "name": "鶴川緑山住宅",
            "lat": "35.573103",
            "lng": "139.488866"
        },
        {
            "index": "6",
            "id": "00049333",
            "name": "けやき通り(町田市)",
            "lat": "35.571896",
            "lng": "139.490929"
        },
        {
            "index": "7",
            "id": "00049334",
            "name": "ゆりの木通り(町田市)",
            "lat": "35.574344",
            "lng": "139.49141"
        },
        {
            "index": "8",
            "id": "00049331",
            "name": "三輪中央公園前",
            "lat": "35.574798",
            "lng": "139.488878"
        },
        {
            "index": "9",
            "id": "00049298",
            "name": "三輪入口",
            "lat": "35.577014",
            "lng": "139.485048"
        },
        {
            "index": "10",
            "id": "00049297",
            "name": "岡上",
            "lat": "35.580337",
            "lng": "139.485201"
        },
        {
            "index": "11",
            "id": "00049296",
            "name": "鶴川駅",
            "lat": "35.584013",
            "lng": "139.482612"
        }
    ],
    "route_url": "https://www.kanachu.co.jp/dia/route/index/cid:0000803476/"
}
