{
    "system": "相05",
    "busstops": [
        {
            "index": "1",
            "id": "00129335",
            "name": "相模原駅南口",
            "lat": "35.580649",
            "lng": "139.371807"
        },
        {
            "index": "2",
            "id": "00128541",
            "name": "相模原三丁目",
            "lat": "35.578863",
            "lng": "139.373152"
        },
        {
            "index": "3",
            "id": "00128540",
            "name": "相模原五丁目",
            "lat": "35.577639",
            "lng": "139.375472"
        },
        {
            "index": "4",
            "id": "00128539",
            "name": "西門前(相模原市中央区)",
            "lat": "35.5768",
            "lng": "139.377076"
        },
        {
            "index": "5",
            "id": "00128538",
            "name": "グリーンプラザ(相模原市中央区)",
            "lat": "35.573995",
            "lng": "139.376352"
        },
        {
            "index": "6",
            "id": "00128537",
            "name": "市役所前(相模原市中央区)",
            "lat": "35.570763",
            "lng": "139.37401"
        },
        {
            "index": "7",
            "id": "00129153",
            "name": "市民会館前(相模原市中央区)",
            "lat": "35.569683",
            "lng": "139.373211"
        },
        {
            "index": "8",
            "id": "00129177",
            "name": "税務署前(相模原市中央区)",
            "lat": "35.567972",
            "lng": "139.373518"
        },
        {
            "index": "9",
            "id": "00129240",
            "name": "富士見団地入口",
            "lat": "35.565799",
            "lng": "139.377623"
        },
        {
            "index": "10",
            "id": "00129061",
            "name": "相生(相模原市中央区)",
            "lat": "35.56346",
            "lng": "139.38115"
        },
        {
            "index": "11",
            "id": "00129062",
            "name": "相生三丁目",
            "lat": "35.561143",
            "lng": "139.382851"
        },
        {
            "index": "12",
            "id": "00129281",
            "name": "弥栄二丁目",
            "lat": "35.558166",
            "lng": "139.384549"
        },
        {
            "index": "13",
            "id": "00129063",
            "name": "青葉児童館前",
            "lat": "35.554238",
            "lng": "139.387465"
        },
        {
            "index": "14",
            "id": "00129071",
            "name": "和泉短大前",
            "lat": "35.552206",
            "lng": "139.389859"
        },
        {
            "index": "15",
            "id": "00129247",
            "name": "淵野辺公園",
            "lat": "35.553962",
            "lng": "139.392879"
        },
        {
            "index": "16",
            "id": "00129095",
            "name": "大野台三丁目",
            "lat": "35.554909",
            "lng": "139.395717"
        },
        {
            "index": "17",
            "id": "00129257",
            "name": "松が丘(相模原市南区)",
            "lat": "35.551656",
            "lng": "139.398737"
        },
        {
            "index": "18",
            "id": "00129142",
            "name": "ゴルフ場前(相模原市南区)",
            "lat": "35.549248",
            "lng": "139.401065"
        },
        {
            "index": "19",
            "id": "00129096",
            "name": "大野台四丁目",
            "lat": "35.546152",
            "lng": "139.403273"
        },
        {
            "index": "20",
            "id": "00129097",
            "name": "大野台八丁目",
            "lat": "35.54285",
            "lng": "139.405572"
        },
        {
            "index": "21",
            "id": "00129093",
            "name": "大野台入口",
            "lat": "35.538954",
            "lng": "139.408345"
        },
        {
            "index": "22",
            "id": "00129197",
            "name": "オルガノ前",
            "lat": "35.538493",
            "lng": "139.411368"
        },
        {
            "index": "23",
            "id": "00129089",
            "name": "大沼",
            "lat": "35.537679",
            "lng": "139.416714"
        },
        {
            "index": "24",
            "id": "00129088",
            "name": "大沼小学校前",
            "lat": "35.537675",
            "lng": "139.419476"
        },
        {
            "index": "25",
            "id": "00129237",
            "name": "東通り(相模原市南区)",
            "lat": "35.53774",
            "lng": "139.424304"
        },
        {
            "index": "26",
            "id": "00129193",
            "name": "団地入口(相模原市南区)",
            "lat": "35.538253",
            "lng": "139.426707"
        },
        {
            "index": "27",
            "id": "00129137",
            "name": "小沼(相模原市南区)",
            "lat": "35.539097",
            "lng": "139.429817"
        },
        {
            "index": "28",
            "id": "00129205",
            "name": "南中前(相模原市南区)",
            "lat": "35.536208",
            "lng": "139.430178"
        },
        {
            "index": "29",
            "id": "00129307",
            "name": "グリーンホール前",
            "lat": "35.534984",
            "lng": "139.434657"
        },
        {
            "index": "30",
            "id": "00114298",
            "name": "相模大野駅北口",
            "lat": "35.531961",
            "lng": "139.436873"
        }
    ],
    "route_url": "https://www.kanachu.co.jp/dia/route/index/cid:0000802411/"
}
