{
    "system": "77",
    "busstops": [
        {
            "index": "1",
            "id": "00126567",
            "name": "芹が谷",
            "lat": "35.416202",
            "lng": "139.573997"
        },
        {
            "index": "2",
            "id": "00126568",
            "name": "せりぎんタウン",
            "lat": "35.416648",
            "lng": "139.571309"
        },
        {
            "index": "3",
            "id": "00126569",
            "name": "芹が谷団地前",
            "lat": "35.416928",
            "lng": "139.566508"
        },
        {
            "index": "4",
            "id": "00130495",
            "name": "永谷地区センター前",
            "lat": "35.417039",
            "lng": "139.564408"
        },
        {
            "index": "5",
            "id": "00102977",
            "name": "平戸(横浜市港南区)",
            "lat": "35.419024",
            "lng": "139.561876"
        },
        {
            "index": "6",
            "id": "00126619",
            "name": "坂下口",
            "lat": "35.423179",
            "lng": "139.565705"
        },
        {
            "index": "7",
            "id": "00126620",
            "name": "山谷(横浜市戸塚区)",
            "lat": "35.425481",
            "lng": "139.56869"
        },
        {
            "index": "8",
            "id": "00126621",
            "name": "平和台",
            "lat": "35.428831",
            "lng": "139.572923"
        },
        {
            "index": "9",
            "id": "00102378",
            "name": "狩場町",
            "lat": "35.433309",
            "lng": "139.575675"
        },
        {
            "index": "10",
            "id": "00102575",
            "name": "児童遊園地入口",
            "lat": "35.435278",
            "lng": "139.57619"
        },
        {
            "index": "11",
            "id": "00102509",
            "name": "権太坂上",
            "lat": "35.439413",
            "lng": "139.57495"
        },
        {
            "index": "12",
            "id": "00102508",
            "name": "権太坂",
            "lat": "35.44339",
            "lng": "139.576624"
        },
        {
            "index": "13",
            "id": "00103177",
            "name": "元町橋交番前",
            "lat": "35.445359",
            "lng": "139.578569"
        },
        {
            "index": "14",
            "id": "00102603",
            "name": "樹源寺前",
            "lat": "35.445062",
            "lng": "139.583378"
        },
        {
            "index": "15",
            "id": "00103045",
            "name": "保土ヶ谷町2丁目",
            "lat": "35.445563",
            "lng": "139.587291"
        },
        {
            "index": "16",
            "id": "00102921",
            "name": "八幡橋(横浜市保土ケ谷区)",
            "lat": "35.444513",
            "lng": "139.593538"
        },
        {
            "index": "17",
            "id": "00103042",
            "name": "保土ヶ谷橋",
            "lat": "35.444279",
            "lng": "139.596963"
        },
        {
            "index": "18",
            "id": "00103043",
            "name": "保土ヶ谷駅東口",
            "lat": "35.446434",
            "lng": "139.600009"
        },
        {
            "index": "19",
            "id": "00102879",
            "name": "西久保町",
            "lat": "35.449995",
            "lng": "139.603497"
        },
        {
            "index": "20",
            "id": "00102455",
            "name": "久保町(横浜市西区)",
            "lat": "35.451769",
            "lng": "139.606756"
        },
        {
            "index": "21",
            "id": "00102647",
            "name": "水道道",
            "lat": "35.452678",
            "lng": "139.608779"
        },
        {
            "index": "22",
            "id": "00102929",
            "name": "浜松町(横浜市西区)",
            "lat": "35.455013",
            "lng": "139.613824"
        },
        {
            "index": "23",
            "id": "00102882",
            "name": "西区総合庁舎入口",
            "lat": "35.455677",
            "lng": "139.615221"
        },
        {
            "index": "24",
            "id": "00102881",
            "name": "西平沼橋",
            "lat": "35.456477",
            "lng": "139.616965"
        },
        {
            "index": "25",
            "id": "00102778",
            "name": "戸部駅前",
            "lat": "35.457288",
            "lng": "139.618925"
        },
        {
            "index": "26",
            "id": "00102779",
            "name": "戸部警察署前",
            "lat": "35.457972",
            "lng": "139.620942"
        },
        {
            "index": "27",
            "id": "00102695",
            "name": "高島町",
            "lat": "35.461393",
            "lng": "139.623625"
        },
        {
            "index": "28",
            "id": "00103235",
            "name": "横浜駅改札口前",
            "lat": "35.465542",
            "lng": "139.623426"
        },
        {
            "index": "29",
            "id": "00025535",
            "name": "横浜駅東口",
            "lat": "35.465245",
            "lng": "139.625367"
        }
    ],
    "route_url": "https://www.kanachu.co.jp/dia/route/index/cid:0000802723/"
}
