{
    "system": "伊18",
    "busstops": [
        {
            "index": "1",
            "id": "00128056",
            "name": "伊勢原駅南口",
            "lat": "35.395502",
            "lng": "139.313428"
        },
        {
            "index": "2",
            "id": "00128057",
            "name": "下宿(伊勢原市)",
            "lat": "35.393768",
            "lng": "139.31519"
        },
        {
            "index": "3",
            "id": "00128058",
            "name": "伊勢原中学校前",
            "lat": "35.390478",
            "lng": "139.314598"
        },
        {
            "index": "4",
            "id": "00128059",
            "name": "下大竹",
            "lat": "35.386616",
            "lng": "139.316272"
        },
        {
            "index": "5",
            "id": "00128060",
            "name": "馬渡(伊勢原市)",
            "lat": "35.382898",
            "lng": "139.316432"
        },
        {
            "index": "6",
            "id": "00128070",
            "name": "矢羽根",
            "lat": "35.380051",
            "lng": "139.317575"
        },
        {
            "index": "7",
            "id": "00128061",
            "name": "城所入口",
            "lat": "35.377781",
            "lng": "139.317757"
        },
        {
            "index": "8",
            "id": "00128062",
            "name": "大句",
            "lat": "35.375423",
            "lng": "139.317548"
        },
        {
            "index": "9",
            "id": "00128218",
            "name": "岡崎城址入口",
            "lat": "35.374508",
            "lng": "139.311771"
        },
        {
            "index": "10",
            "id": "00128217",
            "name": "王御住グランド前",
            "lat": "35.375987",
            "lng": "139.308158"
        },
        {
            "index": "11",
            "id": "00128216",
            "name": "みどりヶ丘(平塚市)",
            "lat": "35.377727",
            "lng": "139.305108"
        },
        {
            "index": "12",
            "id": "00128081",
            "name": "あいの坂",
            "lat": "35.377128",
            "lng": "139.300042"
        },
        {
            "index": "13",
            "id": "00128082",
            "name": "丸島",
            "lat": "35.37421",
            "lng": "139.299378"
        },
        {
            "index": "14",
            "id": "00128088",
            "name": "平塚西郵便局前",
            "lat": "35.364542",
            "lng": "139.298505"
        },
        {
            "index": "15",
            "id": "00128089",
            "name": "片岡北",
            "lat": "35.361284",
            "lng": "139.298322"
        },
        {
            "index": "16",
            "id": "00127733",
            "name": "片岡(平塚市)",
            "lat": "35.358393",
            "lng": "139.29844"
        },
        {
            "index": "17",
            "id": "00127748",
            "name": "広川矢崎",
            "lat": "35.357627",
            "lng": "139.301063"
        },
        {
            "index": "18",
            "id": "00127747",
            "name": "金旭中学校入口",
            "lat": "35.354873",
            "lng": "139.301968"
        },
        {
            "index": "19",
            "id": "00127746",
            "name": "広川(平塚市)",
            "lat": "35.351767",
            "lng": "139.301806"
        },
        {
            "index": "20",
            "id": "00127745",
            "name": "江東",
            "lat": "35.35004",
            "lng": "139.302485"
        },
        {
            "index": "21",
            "id": "00127567",
            "name": "公所(平塚市)",
            "lat": "35.34607",
            "lng": "139.300852"
        },
        {
            "index": "22",
            "id": "00127568",
            "name": "長久保(平塚市)",
            "lat": "35.344409",
            "lng": "139.298062"
        },
        {
            "index": "23",
            "id": "00127582",
            "name": "湘南日向岡",
            "lat": "35.341065",
            "lng": "139.297153"
        },
        {
            "index": "24",
            "id": "00127581",
            "name": "日向岡一丁目",
            "lat": "35.338546",
            "lng": "139.298839"
        },
        {
            "index": "25",
            "id": "00127580",
            "name": "日向岡二丁目",
            "lat": "35.339369",
            "lng": "139.30182"
        },
        {
            "index": "26",
            "id": "00127579",
            "name": "日向岡入口",
            "lat": "35.342864",
            "lng": "139.303384"
        },
        {
            "index": "27",
            "id": "00127565",
            "name": "大町(平塚市)",
            "lat": "35.341313",
            "lng": "139.304521"
        },
        {
            "index": "28",
            "id": "00127564",
            "name": "坂間",
            "lat": "35.337729",
            "lng": "139.304953"
        },
        {
            "index": "29",
            "id": "00127688",
            "name": "高村団地入口",
            "lat": "35.336994",
            "lng": "139.306098"
        },
        {
            "index": "30",
            "id": "00127577",
            "name": "勝原小学校前(平塚市)",
            "lat": "35.334324",
            "lng": "139.307331"
        },
        {
            "index": "31",
            "id": "00127578",
            "name": "高村団地",
            "lat": "35.332755",
            "lng": "139.308063"
        }
    ],
    "route_url": "https://www.kanachu.co.jp/dia/route/index/cid:0000801101/"
}
