{
    "system": "伊12",
    "busstops": [
        {
            "index": "1",
            "id": "00128127",
            "name": "伊勢原駅北口",
            "lat": "35.395754",
            "lng": "139.312779"
        },
        {
            "index": "2",
            "id": "00128128",
            "name": "本町(伊勢原市)",
            "lat": "35.397702",
            "lng": "139.308101"
        },
        {
            "index": "3",
            "id": "00128129",
            "name": "大神宮前",
            "lat": "35.398789",
            "lng": "139.305436"
        },
        {
            "index": "4",
            "id": "00128143",
            "name": "片町十字路",
            "lat": "35.401097",
            "lng": "139.304497"
        },
        {
            "index": "5",
            "id": "00128144",
            "name": "片町(伊勢原市)",
            "lat": "35.403564",
            "lng": "139.302476"
        },
        {
            "index": "6",
            "id": "00128145",
            "name": "峰岸",
            "lat": "35.404175",
            "lng": "139.300416"
        },
        {
            "index": "7",
            "id": "00128146",
            "name": "市光前",
            "lat": "35.40526",
            "lng": "139.298027"
        },
        {
            "index": "8",
            "id": "00128147",
            "name": "〆引",
            "lat": "35.406104",
            "lng": "139.296191"
        },
        {
            "index": "9",
            "id": "00128148",
            "name": "道灌塚前",
            "lat": "35.408812",
            "lng": "139.291359"
        },
        {
            "index": "10",
            "id": "00128149",
            "name": "山王原(伊勢原市)",
            "lat": "35.409705",
            "lng": "139.290249"
        },
        {
            "index": "11",
            "id": "00128150",
            "name": "石倉橋",
            "lat": "35.411058",
            "lng": "139.288382"
        },
        {
            "index": "12",
            "id": "00128151",
            "name": "石倉(伊勢原市)",
            "lat": "35.41298",
            "lng": "139.285343"
        },
        {
            "index": "13",
            "id": "00128152",
            "name": "明神前(伊勢原市)",
            "lat": "35.415484",
            "lng": "139.280972"
        },
        {
            "index": "14",
            "id": "00128153",
            "name": "這子坂",
            "lat": "35.417428",
            "lng": "139.274794"
        },
        {
            "index": "15",
            "id": "00128154",
            "name": "菊屋前",
            "lat": "35.41721",
            "lng": "139.271342"
        },
        {
            "index": "16",
            "id": "00128155",
            "name": "子易",
            "lat": "35.416128",
            "lng": "139.268453"
        },
        {
            "index": "17",
            "id": "00128156",
            "name": "鳥居前(伊勢原市)",
            "lat": "35.417341",
            "lng": "139.264102"
        },
        {
            "index": "18",
            "id": "00128157",
            "name": "大山小学校前(伊勢原市)",
            "lat": "35.418038",
            "lng": "139.26149"
        },
        {
            "index": "19",
            "id": "00128158",
            "name": "大山駅",
            "lat": "35.418786",
            "lng": "139.258518"
        }
    ],
    "route_url": "https://www.kanachu.co.jp/dia/route/index/cid:0000801047/"
}
