{
    "system": "平37",
    "busstops": [
        {
            "index": "1",
            "id": "00127464",
            "name": "平塚駅北口",
            "lat": "35.329645",
            "lng": "139.350215"
        },
        {
            "index": "2",
            "id": "00127465",
            "name": "銀座通り(平塚市)",
            "lat": "35.329601",
            "lng": "139.348024"
        },
        {
            "index": "3",
            "id": "00127466",
            "name": "平塚文化芸術ホール前",
            "lat": "35.328853",
            "lng": "139.344531"
        },
        {
            "index": "4",
            "id": "00127467",
            "name": "八間通り",
            "lat": "35.327918",
            "lng": "139.340189"
        },
        {
            "index": "5",
            "id": "00127468",
            "name": "豊田道",
            "lat": "35.327492",
            "lng": "139.338433"
        },
        {
            "index": "6",
            "id": "00127469",
            "name": "柳町(平塚市)",
            "lat": "35.326218",
            "lng": "139.334583"
        },
        {
            "index": "7",
            "id": "00127470",
            "name": "古花水",
            "lat": "35.325518",
            "lng": "139.332584"
        },
        {
            "index": "8",
            "id": "00127570",
            "name": "桜ヶ丘公園(平塚市)",
            "lat": "35.328551",
            "lng": "139.328551"
        },
        {
            "index": "9",
            "id": "00127571",
            "name": "桜ヶ丘",
            "lat": "35.329595",
            "lng": "139.327904"
        },
        {
            "index": "10",
            "id": "00127572",
            "name": "上平塚",
            "lat": "35.333643",
            "lng": "139.324335"
        },
        {
            "index": "11",
            "id": "00127573",
            "name": "神明下",
            "lat": "35.335266",
            "lng": "139.317418"
        },
        {
            "index": "12",
            "id": "00127574",
            "name": "山下団地入口",
            "lat": "35.335268",
            "lng": "139.314027"
        },
        {
            "index": "13",
            "id": "00127576",
            "name": "南河内(平塚市)",
            "lat": "35.335503",
            "lng": "139.311639"
        },
        {
            "index": "14",
            "id": "00127686",
            "name": "北河内(平塚市)",
            "lat": "35.340532",
            "lng": "139.308318"
        },
        {
            "index": "15",
            "id": "00127566",
            "name": "堀の内(平塚市)",
            "lat": "35.345409",
            "lng": "139.303998"
        },
        {
            "index": "16",
            "id": "00127567",
            "name": "公所(平塚市)",
            "lat": "35.34607",
            "lng": "139.300852"
        },
        {
            "index": "17",
            "id": "00127568",
            "name": "長久保(平塚市)",
            "lat": "35.344409",
            "lng": "139.298062"
        },
        {
            "index": "18",
            "id": "00127569",
            "name": "中沢橋",
            "lat": "35.342464",
            "lng": "139.294347"
        },
        {
            "index": "19",
            "id": "00127834",
            "name": "寺前橋",
            "lat": "35.34331",
            "lng": "139.291387"
        },
        {
            "index": "20",
            "id": "00127833",
            "name": "神戸(平塚市)",
            "lat": "35.343938",
            "lng": "139.289841"
        },
        {
            "index": "21",
            "id": "00127832",
            "name": "山の神(平塚市)",
            "lat": "35.343728",
            "lng": "139.283169"
        },
        {
            "index": "22",
            "id": "00127831",
            "name": "山入口",
            "lat": "35.344427",
            "lng": "139.281561"
        },
        {
            "index": "23",
            "id": "00127830",
            "name": "吉浜(平塚市)",
            "lat": "35.346678",
            "lng": "139.279828"
        },
        {
            "index": "24",
            "id": "00127829",
            "name": "飛谷津",
            "lat": "35.347107",
            "lng": "139.276698"
        },
        {
            "index": "25",
            "id": "00127828",
            "name": "富士見台病院",
            "lat": "35.346984",
            "lng": "139.274468"
        },
        {
            "index": "26",
            "id": "00127827",
            "name": "土沢農協前",
            "lat": "35.345643",
            "lng": "139.271538"
        },
        {
            "index": "27",
            "id": "00127826",
            "name": "土沢中学校前",
            "lat": "35.345905",
            "lng": "139.269877"
        },
        {
            "index": "28",
            "id": "00127825",
            "name": "妙円寺前",
            "lat": "35.347166",
            "lng": "139.264679"
        },
        {
            "index": "29",
            "id": "00127824",
            "name": "神奈川大学",
            "lat": "35.34818",
            "lng": "139.261539"
        }
    ],
    "route_url": "https://www.kanachu.co.jp/dia/route/index/cid:0000803265/"
}
