{
    "system": "秦38",
    "busstops": [
        {
            "index": "1",
            "id": "00127715",
            "name": "秦野駅",
            "lat": "35.370441",
            "lng": "139.226096"
        },
        {
            "index": "2",
            "id": "00127721",
            "name": "室川橋",
            "lat": "35.367687",
            "lng": "139.239965"
        },
        {
            "index": "3",
            "id": "00127722",
            "name": "なでしこ広場前",
            "lat": "35.366103",
            "lng": "139.242645"
        },
        {
            "index": "4",
            "id": "00127723",
            "name": "秦才橋",
            "lat": "35.363815",
            "lng": "139.245775"
        },
        {
            "index": "5",
            "id": "00127724",
            "name": "下大槻",
            "lat": "35.360912",
            "lng": "139.24972"
        },
        {
            "index": "6",
            "id": "00127725",
            "name": "南平橋",
            "lat": "35.357333",
            "lng": "139.25428"
        },
        {
            "index": "7",
            "id": "00128011",
            "name": "下大槻南平",
            "lat": "35.355528",
            "lng": "139.255332"
        },
        {
            "index": "8",
            "id": "00128012",
            "name": "湘南老人ホーム前",
            "lat": "35.355298",
            "lng": "139.257054"
        },
        {
            "index": "9",
            "id": "00128013",
            "name": "小熊天神前",
            "lat": "35.354012",
            "lng": "139.259377"
        },
        {
            "index": "10",
            "id": "00128014",
            "name": "遠藤原",
            "lat": "35.351138",
            "lng": "139.252679"
        },
        {
            "index": "11",
            "id": "00128015",
            "name": "自治会館前(平塚市)",
            "lat": "35.348772",
            "lng": "139.255174"
        },
        {
            "index": "12",
            "id": "00127824",
            "name": "神奈川大学",
            "lat": "35.34818",
            "lng": "139.261539"
        }
    ],
    "route_url": "https://www.kanachu.co.jp/dia/route/index/cid:0000803260/"
}
