{
    "system": "秦96",
    "busstops": [
        {
            "index": "1",
            "id": "00127950",
            "name": "中井町役場入口",
            "lat": "35.331765",
            "lng": "139.217923"
        },
        {
            "index": "2",
            "id": "00127949",
            "name": "中井中学校前",
            "lat": "35.334559",
            "lng": "139.219682"
        },
        {
            "index": "3",
            "id": "00127948",
            "name": "藤沢",
            "lat": "35.337376",
            "lng": "139.222287"
        },
        {
            "index": "4",
            "id": "00127946",
            "name": "才戸",
            "lat": "35.34208",
            "lng": "139.221759"
        },
        {
            "index": "5",
            "id": "00128037",
            "name": "グリーンテク西",
            "lat": "35.345002",
            "lng": "139.221796"
        },
        {
            "index": "6",
            "id": "00128036",
            "name": "グリーンテク中央",
            "lat": "35.348371",
            "lng": "139.226249"
        },
        {
            "index": "7",
            "id": "00128035",
            "name": "砂口入口",
            "lat": "35.349032",
            "lng": "139.228942"
        },
        {
            "index": "8",
            "id": "00128034",
            "name": "グリーンテク東",
            "lat": "35.350346",
            "lng": "139.232541"
        },
        {
            "index": "9",
            "id": "00026081",
            "name": "東名秦野",
            "lat": "35.351729",
            "lng": "139.235671"
        },
        {
            "index": "10",
            "id": "00127774",
            "name": "南が丘東",
            "lat": "35.356509",
            "lng": "139.234875"
        },
        {
            "index": "11",
            "id": "00128049",
            "name": "立野緑地入口",
            "lat": "35.357647",
            "lng": "139.232364"
        },
        {
            "index": "12",
            "id": "00128048",
            "name": "日赤病院前(秦野市)",
            "lat": "35.360128",
            "lng": "139.230074"
        },
        {
            "index": "13",
            "id": "00127768",
            "name": "小原台入口(秦野市)",
            "lat": "35.36268",
            "lng": "139.226772"
        },
        {
            "index": "14",
            "id": "00128038",
            "name": "上尾尻橋",
            "lat": "35.366082",
            "lng": "139.226163"
        },
        {
            "index": "15",
            "id": "00128054",
            "name": "秦野駅南口",
            "lat": "35.370145",
            "lng": "139.225385"
        }
    ],
    "route_url": "https://www.kanachu.co.jp/dia/route/index/cid:0000803990/"
}
