{
    "system": "厚95",
    "busstops": [
        {
            "index": "1",
            "id": "00128256",
            "name": "厚木バスセンター",
            "lat": "35.441457",
            "lng": "139.367046"
        },
        {
            "index": "2",
            "id": "00025684",
            "name": "本厚木駅",
            "lat": "35.440074",
            "lng": "139.364771"
        },
        {
            "index": "3",
            "id": "00128257",
            "name": "あつぎ大通り",
            "lat": "35.441285",
            "lng": "139.362668"
        },
        {
            "index": "4",
            "id": "00128396",
            "name": "市役所入口(厚木市)",
            "lat": "35.442448",
            "lng": "139.361188"
        },
        {
            "index": "5",
            "id": "00128669",
            "name": "厚木警察署前",
            "lat": "35.445135",
            "lng": "139.357891"
        },
        {
            "index": "6",
            "id": "00128397",
            "name": "愛光病院前",
            "lat": "35.450714",
            "lng": "139.355476"
        },
        {
            "index": "7",
            "id": "00128398",
            "name": "戸室",
            "lat": "35.453857",
            "lng": "139.350633"
        },
        {
            "index": "8",
            "id": "00128399",
            "name": "林(厚木市)",
            "lat": "35.455529",
            "lng": "139.348474"
        },
        {
            "index": "9",
            "id": "00128674",
            "name": "王子入口",
            "lat": "35.454965",
            "lng": "139.345794"
        },
        {
            "index": "10",
            "id": "00128695",
            "name": "高校入口(厚木市)",
            "lat": "35.455489",
            "lng": "139.343261"
        },
        {
            "index": "11",
            "id": "00128670",
            "name": "王子(厚木市)",
            "lat": "35.457657",
            "lng": "139.340299"
        }
    ],
    "route_url": "https://www.kanachu.co.jp/dia/route/index/cid:0000801693/"
}
