{
    "system": "",
    "busstops": [
        {
            "index": "1",
            "id": "00129633",
            "name": "大和駅",
            "lat": "35.469356",
            "lng": "139.462374"
        },
        {
            "index": "2",
            "id": "00130415",
            "name": "大和警察署前",
            "lat": "35.466503",
            "lng": "139.460773"
        },
        {
            "index": "3",
            "id": "00130417",
            "name": "日飛入口",
            "lat": "35.460508",
            "lng": "139.461167"
        },
        {
            "index": "4",
            "id": "00130418",
            "name": "引地台公園",
            "lat": "35.457334",
            "lng": "139.461237"
        },
        {
            "index": "5",
            "id": "00130419",
            "name": "まごころ地域福祉センター",
            "lat": "35.456467",
            "lng": "139.463509"
        },
        {
            "index": "6",
            "id": "00129624",
            "name": "桜ヶ丘駅西口",
            "lat": "35.450584",
            "lng": "139.465199"
        },
        {
            "index": "7",
            "id": "00130420",
            "name": "桜丘学習センター前",
            "lat": "35.450441",
            "lng": "139.463026"
        },
        {
            "index": "8",
            "id": "00130421",
            "name": "山下(大和市)",
            "lat": "35.447574",
            "lng": "139.462302"
        },
        {
            "index": "9",
            "id": "00130422",
            "name": "福田小前",
            "lat": "35.444381",
            "lng": "139.461768"
        },
        {
            "index": "10",
            "id": "00130423",
            "name": "福田コミセン前",
            "lat": "35.441735",
            "lng": "139.460913"
        },
        {
            "index": "11",
            "id": "00129995",
            "name": "千本桜商店街",
            "lat": "35.438621",
            "lng": "139.458777"
        },
        {
            "index": "12",
            "id": "00129996",
            "name": "札の辻(大和市)",
            "lat": "35.435613",
            "lng": "139.461619"
        },
        {
            "index": "13",
            "id": "00130433",
            "name": "モール入口",
            "lat": "35.433097",
            "lng": "139.461165"
        },
        {
            "index": "14",
            "id": "00130432",
            "name": "高座渋谷駅西口",
            "lat": "35.432198",
            "lng": "139.464354"
        },
        {
            "index": "15",
            "id": "00130433",
            "name": "モール入口",
            "lat": "35.434106",
            "lng": "139.461103"
        },
        {
            "index": "16",
            "id": "00129996",
            "name": "札の辻(大和市)",
            "lat": "35.437188",
            "lng": "139.461058"
        },
        {
            "index": "17",
            "id": "00129995",
            "name": "千本桜商店街",
            "lat": "35.437878",
            "lng": "139.45933"
        },
        {
            "index": "18",
            "id": "00130459",
            "name": "代官2丁目公園",
            "lat": "35.442542",
            "lng": "139.457616"
        },
        {
            "index": "19",
            "id": "00130434",
            "name": "代官3丁目公園",
            "lat": "35.440968",
            "lng": "139.455167"
        },
        {
            "index": "20",
            "id": "00130457",
            "name": "代官4丁目",
            "lat": "35.438442",
            "lng": "139.453995"
        },
        {
            "index": "21",
            "id": "00130435",
            "name": "ゆとりの森",
            "lat": "35.436646",
            "lng": "139.451893"
        },
        {
            "index": "22",
            "id": "00130436",
            "name": "神明橋",
            "lat": "35.435278",
            "lng": "139.456181"
        },
        {
            "index": "23",
            "id": "00130424",
            "name": "常泉寺入口",
            "lat": "35.433385",
            "lng": "139.458775"
        },
        {
            "index": "24",
            "id": "00130425",
            "name": "下福田小前",
            "lat": "35.431993",
            "lng": "139.457297"
        },
        {
            "index": "25",
            "id": "00130426",
            "name": "新幹線高架橋下",
            "lat": "35.429329",
            "lng": "139.456678"
        },
        {
            "index": "26",
            "id": "00130427",
            "name": "蓮慶寺入口",
            "lat": "35.426134",
            "lng": "139.458005"
        },
        {
            "index": "27",
            "id": "00130428",
            "name": "下福田中前",
            "lat": "35.426265",
            "lng": "139.460014"
        },
        {
            "index": "28",
            "id": "00130429",
            "name": "敬愛の園入口",
            "lat": "35.425644",
            "lng": "139.464474"
        },
        {
            "index": "29",
            "id": "00130430",
            "name": "県営サンハイツ渋谷前",
            "lat": "35.428505",
            "lng": "139.466186"
        },
        {
            "index": "30",
            "id": "00130230",
            "name": "高座渋谷駅東口",
            "lat": "35.432629",
            "lng": "139.465266"
        },
        {
            "index": "31",
            "id": "00130432",
            "name": "高座渋谷駅西口",
            "lat": "35.432198",
            "lng": "139.464354"
        },
        {
            "index": "32",
            "id": "00130433",
            "name": "モール入口",
            "lat": "35.434106",
            "lng": "139.461103"
        },
        {
            "index": "33",
            "id": "00129996",
            "name": "札の辻(大和市)",
            "lat": "35.437188",
            "lng": "139.461058"
        },
        {
            "index": "34",
            "id": "00129995",
            "name": "千本桜商店街",
            "lat": "35.437878",
            "lng": "139.45933"
        },
        {
            "index": "35",
            "id": "00130423",
            "name": "福田コミセン前",
            "lat": "35.440831",
            "lng": "139.459585"
        },
        {
            "index": "36",
            "id": "00130422",
            "name": "福田小前",
            "lat": "35.445076",
            "lng": "139.462278"
        },
        {
            "index": "37",
            "id": "00130421",
            "name": "山下(大和市)",
            "lat": "35.447841",
            "lng": "139.462181"
        },
        {
            "index": "38",
            "id": "00130420",
            "name": "桜丘学習センター前",
            "lat": "35.450467",
            "lng": "139.462941"
        },
        {
            "index": "39",
            "id": "00129624",
            "name": "桜ヶ丘駅西口",
            "lat": "35.450584",
            "lng": "139.465199"
        },
        {
            "index": "40",
            "id": "00130419",
            "name": "まごころ地域福祉センター",
            "lat": "35.455634",
            "lng": "139.464333"
        },
        {
            "index": "41",
            "id": "00130431",
            "name": "柳橋小入口",
            "lat": "35.460532",
            "lng": "139.463689"
        },
        {
            "index": "42",
            "id": "00130417",
            "name": "日飛入口",
            "lat": "35.460508",
            "lng": "139.461167"
        },
        {
            "index": "43",
            "id": "00130418",
            "name": "引地台公園",
            "lat": "35.457164",
            "lng": "139.461259"
        },
        {
            "index": "44",
            "id": "00130416",
            "name": "中央6丁目",
            "lat": "35.462014",
            "lng": "139.460953"
        },
        {
            "index": "45",
            "id": "00130415",
            "name": "大和警察署前",
            "lat": "35.466182",
            "lng": "139.460677"
        },
        {
            "index": "46",
            "id": "00129633",
            "name": "大和駅",
            "lat": "35.469356",
            "lng": "139.462374"
        }
    ],
    "route_url": "https://www.kanachu.co.jp/dia/route/index/cid:0000803401/"
}
