{
    "system": "茅25",
    "busstops": [
        {
            "index": "1",
            "id": "00127314",
            "name": "寒川駅南口",
            "lat": "35.367285",
            "lng": "139.385773"
        },
        {
            "index": "2",
            "id": "00127168",
            "name": "景観寺",
            "lat": "35.363176",
            "lng": "139.388299"
        },
        {
            "index": "3",
            "id": "00127167",
            "name": "筒井(高座郡寒川町)",
            "lat": "35.361649",
            "lng": "139.389214"
        },
        {
            "index": "4",
            "id": "00127166",
            "name": "大曲(高座郡寒川町)",
            "lat": "35.358746",
            "lng": "139.392483"
        },
        {
            "index": "5",
            "id": "00127165",
            "name": "香川駅入口",
            "lat": "35.356893",
            "lng": "139.394383"
        },
        {
            "index": "6",
            "id": "00127277",
            "name": "大曲橋",
            "lat": "35.354116",
            "lng": "139.394961"
        },
        {
            "index": "7",
            "id": "00127164",
            "name": "変電所前(茅ケ崎市)",
            "lat": "35.351403",
            "lng": "139.396666"
        },
        {
            "index": "8",
            "id": "00127163",
            "name": "西久保(茅ケ崎市)",
            "lat": "35.348486",
            "lng": "139.39721"
        },
        {
            "index": "9",
            "id": "00127162",
            "name": "円蔵",
            "lat": "35.34364",
            "lng": "139.398245"
        },
        {
            "index": "10",
            "id": "00127161",
            "name": "矢畑",
            "lat": "35.338276",
            "lng": "139.397851"
        },
        {
            "index": "11",
            "id": "00127160",
            "name": "肥地力",
            "lat": "35.33591",
            "lng": "139.398806"
        },
        {
            "index": "12",
            "id": "00127271",
            "name": "保健所前(茅ケ崎市)",
            "lat": "35.33472",
            "lng": "139.399281"
        },
        {
            "index": "13",
            "id": "00127288",
            "name": "ジャスコ前(茅ケ崎市)",
            "lat": "35.33545",
            "lng": "139.402879"
        },
        {
            "index": "14",
            "id": "00127171",
            "name": "市民文化会館前(茅ケ崎市)",
            "lat": "35.335179",
            "lng": "139.404774"
        },
        {
            "index": "15",
            "id": "00127126",
            "name": "茅ヶ崎駅",
            "lat": "35.331146",
            "lng": "139.406276"
        }
    ],
    "route_url": "https://www.kanachu.co.jp/dia/route/index/cid:0000800049/"
}
