{
    "system": "辻05",
    "busstops": [
        {
            "index": "1",
            "id": "00127111",
            "name": "辻堂駅南口",
            "lat": "35.336674",
            "lng": "139.44759"
        },
        {
            "index": "2",
            "id": "00127112",
            "name": "仲町(藤沢市)",
            "lat": "35.336361",
            "lng": "139.449832"
        },
        {
            "index": "3",
            "id": "00127113",
            "name": "熊の森",
            "lat": "35.334072",
            "lng": "139.450248"
        },
        {
            "index": "4",
            "id": "00127114",
            "name": "西町(藤沢市)",
            "lat": "35.331757",
            "lng": "139.451104"
        },
        {
            "index": "5",
            "id": "00127115",
            "name": "南町(藤沢市)",
            "lat": "35.329798",
            "lng": "139.451949"
        },
        {
            "index": "6",
            "id": "00127096",
            "name": "浜見山",
            "lat": "35.326924",
            "lng": "139.45219"
        },
        {
            "index": "7",
            "id": "00127105",
            "name": "南海岸",
            "lat": "35.326654",
            "lng": "139.45019"
        },
        {
            "index": "8",
            "id": "00127106",
            "name": "高砂小学校前(藤沢市)",
            "lat": "35.326197",
            "lng": "139.447222"
        },
        {
            "index": "9",
            "id": "00127107",
            "name": "辻堂団地",
            "lat": "35.325529",
            "lng": "139.443647"
        },
        {
            "index": "10",
            "id": "00127232",
            "name": "のぞみ学園前",
            "lat": "35.324805",
            "lng": "139.438988"
        },
        {
            "index": "11",
            "id": "00127230",
            "name": "東浜須賀",
            "lat": "35.325037",
            "lng": "139.437993"
        },
        {
            "index": "12",
            "id": "00127228",
            "name": "富士見町(茅ケ崎市)",
            "lat": "35.32552",
            "lng": "139.435075"
        },
        {
            "index": "13",
            "id": "00127227",
            "name": "平和学園前(茅ケ崎市)",
            "lat": "35.325459",
            "lng": "139.432425"
        },
        {
            "index": "14",
            "id": "00127269",
            "name": "浜須賀入口",
            "lat": "35.325402",
            "lng": "139.429846"
        },
        {
            "index": "15",
            "id": "00127226",
            "name": "平和町",
            "lat": "35.32527",
            "lng": "139.426809"
        },
        {
            "index": "16",
            "id": "00127225",
            "name": "松が丘二丁目(茅ケ崎市)",
            "lat": "35.325155",
            "lng": "139.422151"
        },
        {
            "index": "17",
            "id": "00127224",
            "name": "東海岸北五丁目",
            "lat": "35.32507",
            "lng": "139.419276"
        }
    ],
    "route_url": "https://www.kanachu.co.jp/dia/route/index/cid:0000802924/"
}
