{
    "system": "船24",
    "busstops": [
        {
            "index": "1",
            "id": "00126594",
            "name": "大船駅(横浜市栄区)",
            "lat": "35.355593",
            "lng": "139.533109"
        },
        {
            "index": "2",
            "id": "00126500",
            "name": "笠間一丁目",
            "lat": "35.357747",
            "lng": "139.533565"
        },
        {
            "index": "3",
            "id": "00126501",
            "name": "岩井口",
            "lat": "35.35998",
            "lng": "139.536398"
        },
        {
            "index": "4",
            "id": "00126502",
            "name": "笠間町",
            "lat": "35.360807",
            "lng": "139.538133"
        },
        {
            "index": "5",
            "id": "00126503",
            "name": "笠間十字路",
            "lat": "35.361358",
            "lng": "139.539952"
        },
        {
            "index": "6",
            "id": "00126504",
            "name": "平島(鎌倉市)",
            "lat": "35.361004",
            "lng": "139.544139"
        },
        {
            "index": "7",
            "id": "00126505",
            "name": "鎌倉女子大前",
            "lat": "35.360268",
            "lng": "139.546633"
        },
        {
            "index": "8",
            "id": "00126542",
            "name": "朝日平和台入口",
            "lat": "35.35912",
            "lng": "139.550085"
        },
        {
            "index": "9",
            "id": "00126543",
            "name": "椎郷",
            "lat": "35.356079",
            "lng": "139.551493"
        },
        {
            "index": "10",
            "id": "00126544",
            "name": "湘南ハイツ",
            "lat": "35.353898",
            "lng": "139.555015"
        },
        {
            "index": "11",
            "id": "00126597",
            "name": "荒井沢公園前",
            "lat": "35.350768",
            "lng": "139.557311"
        },
        {
            "index": "12",
            "id": "00126598",
            "name": "公田ハイツ前",
            "lat": "35.353552",
            "lng": "139.557038"
        }
    ],
    "route_url": "https://www.kanachu.co.jp/dia/route/index/cid:0000802793/"
}
