{
    "system": "伊13",
    "busstops": [
        {
            "index": "1",
            "id": "00128127",
            "name": "伊勢原駅北口",
            "lat": "35.395754",
            "lng": "139.312779"
        },
        {
            "index": "2",
            "id": "00128128",
            "name": "本町(伊勢原市)",
            "lat": "35.397702",
            "lng": "139.308101"
        },
        {
            "index": "3",
            "id": "00128129",
            "name": "大神宮前",
            "lat": "35.398789",
            "lng": "139.305436"
        },
        {
            "index": "4",
            "id": "00128143",
            "name": "片町十字路",
            "lat": "35.401097",
            "lng": "139.304497"
        },
        {
            "index": "5",
            "id": "00128144",
            "name": "片町(伊勢原市)",
            "lat": "35.403564",
            "lng": "139.302476"
        },
        {
            "index": "6",
            "id": "00128145",
            "name": "峰岸",
            "lat": "35.404175",
            "lng": "139.300416"
        },
        {
            "index": "7",
            "id": "00128146",
            "name": "市光前",
            "lat": "35.40526",
            "lng": "139.298027"
        },
        {
            "index": "8",
            "id": "00128147",
            "name": "〆引",
            "lat": "35.406104",
            "lng": "139.296191"
        },
        {
            "index": "9",
            "id": "00128148",
            "name": "道灌塚前",
            "lat": "35.408812",
            "lng": "139.291359"
        },
        {
            "index": "10",
            "id": "00128149",
            "name": "山王原(伊勢原市)",
            "lat": "35.409705",
            "lng": "139.290249"
        },
        {
            "index": "11",
            "id": "00128150",
            "name": "石倉橋",
            "lat": "35.411058",
            "lng": "139.288382"
        },
        {
            "index": "12",
            "id": "00128151",
            "name": "石倉(伊勢原市)",
            "lat": "35.41298",
            "lng": "139.285343"
        },
        {
            "index": "13",
            "id": "00128163",
            "name": "御伊勢の森",
            "lat": "35.414813",
            "lng": "139.284729"
        },
        {
            "index": "14",
            "id": "00128164",
            "name": "産業能率大学",
            "lat": "35.415662",
            "lng": "139.287502"
        }
    ],
    "route_url": "https://www.kanachu.co.jp/dia/route/index/cid:0000800943/"
}
