{
    "system": "茅16",
    "busstops": [
        {
            "index": "1",
            "id": "00127265",
            "name": "室田二丁目",
            "lat": "35.343185",
            "lng": "139.420875"
        },
        {
            "index": "2",
            "id": "00127264",
            "name": "室田一丁目",
            "lat": "35.344043",
            "lng": "139.421811"
        },
        {
            "index": "3",
            "id": "00127263",
            "name": "室田小学校入口",
            "lat": "35.345075",
            "lng": "139.42095"
        },
        {
            "index": "4",
            "id": "00127262",
            "name": "室田",
            "lat": "35.344951",
            "lng": "139.419209"
        },
        {
            "index": "5",
            "id": "00127261",
            "name": "高田三丁目",
            "lat": "35.342187",
            "lng": "139.41767"
        },
        {
            "index": "6",
            "id": "00127266",
            "name": "ニュータウン中央(茅ケ崎市)",
            "lat": "35.342751",
            "lng": "139.414314"
        },
        {
            "index": "7",
            "id": "00127138",
            "name": "ニュータウン入口(茅ケ崎市)",
            "lat": "35.342633",
            "lng": "139.412445"
        },
        {
            "index": "8",
            "id": "00127153",
            "name": "市立病院(茅ケ崎市)",
            "lat": "35.340283",
            "lng": "139.415154"
        },
        {
            "index": "9",
            "id": "00127316",
            "name": "本村五丁目",
            "lat": "35.339708",
            "lng": "139.413459"
        },
        {
            "index": "10",
            "id": "00127127",
            "name": "本村(茅ケ崎市)",
            "lat": "35.336008",
            "lng": "139.413614"
        },
        {
            "index": "11",
            "id": "00127126",
            "name": "茅ヶ崎駅",
            "lat": "35.331146",
            "lng": "139.406276"
        }
    ],
    "route_url": "https://www.kanachu.co.jp/dia/route/index/cid:0000800946/"
}
