{
    "system": "平67",
    "busstops": [
        {
            "index": "1",
            "id": "00127464",
            "name": "平塚駅北口",
            "lat": "35.328778",
            "lng": "139.349998"
        },
        {
            "index": "2",
            "id": "00127190",
            "name": "四ツ角(平塚市)",
            "lat": "35.330828",
            "lng": "139.350049"
        },
        {
            "index": "3",
            "id": "00127684",
            "name": "市役所前(平塚市)",
            "lat": "35.334525",
            "lng": "139.350218"
        },
        {
            "index": "4",
            "id": "00127644",
            "name": "コンフォール平塚前",
            "lat": "35.337186",
            "lng": "139.350899"
        },
        {
            "index": "5",
            "id": "00127645",
            "name": "八幡入口",
            "lat": "35.339765",
            "lng": "139.351687"
        },
        {
            "index": "6",
            "id": "00127646",
            "name": "八幡(平塚市)",
            "lat": "35.342147",
            "lng": "139.352567"
        },
        {
            "index": "7",
            "id": "00127647",
            "name": "八幡公民館入口",
            "lat": "35.34423",
            "lng": "139.353228"
        },
        {
            "index": "8",
            "id": "00127648",
            "name": "古河電工入口",
            "lat": "35.346522",
            "lng": "139.353925"
        },
        {
            "index": "9",
            "id": "00127641",
            "name": "西八幡(平塚市)",
            "lat": "35.347133",
            "lng": "139.352831"
        },
        {
            "index": "10",
            "id": "00127642",
            "name": "神明中学校入口",
            "lat": "35.350832",
            "lng": "139.350864"
        },
        {
            "index": "11",
            "id": "00127643",
            "name": "南真土",
            "lat": "35.353232",
            "lng": "139.349748"
        },
        {
            "index": "12",
            "id": "00127609",
            "name": "大野農協前",
            "lat": "35.355358",
            "lng": "139.349381"
        },
        {
            "index": "13",
            "id": "00127610",
            "name": "市場前(平塚市)",
            "lat": "35.357257",
            "lng": "139.349988"
        },
        {
            "index": "14",
            "id": "00127611",
            "name": "坂口(平塚市)",
            "lat": "35.360345",
            "lng": "139.350973"
        },
        {
            "index": "15",
            "id": "00127612",
            "name": "今里(平塚市)",
            "lat": "35.362584",
            "lng": "139.351021"
        },
        {
            "index": "16",
            "id": "00127613",
            "name": "横内団地前",
            "lat": "35.366462",
            "lng": "139.349918"
        },
        {
            "index": "17",
            "id": "00127614",
            "name": "横内下",
            "lat": "35.371014",
            "lng": "139.350349"
        },
        {
            "index": "18",
            "id": "00127615",
            "name": "横内公民館入口",
            "lat": "35.373509",
            "lng": "139.351025"
        },
        {
            "index": "19",
            "id": "00127616",
            "name": "横内四ツ角",
            "lat": "35.375608",
            "lng": "139.352621"
        },
        {
            "index": "20",
            "id": "00114295",
            "name": "田村車庫",
            "lat": "35.376016",
            "lng": "139.358556"
        }
    ],
    "route_url": "https://www.kanachu.co.jp/dia/route/index/cid:0000804110/"
}
