{
    "system": "林03",
    "busstops": [
        {
            "index": "1",
            "id": "00128603",
            "name": "イオンモール座間",
            "lat": "35.501902",
            "lng": "139.425317"
        },
        {
            "index": "2",
            "id": "00130488",
            "name": "イオンモール座間入口",
            "lat": "35.502147",
            "lng": "139.426216"
        },
        {
            "index": "3",
            "id": "00129680",
            "name": "小松原(座間市)",
            "lat": "35.495841",
            "lng": "139.429449"
        },
        {
            "index": "4",
            "id": "00129681",
            "name": "小松原二丁目",
            "lat": "35.491535",
            "lng": "139.431385"
        },
        {
            "index": "5",
            "id": "00129682",
            "name": "ひばりが丘一丁目(座間市)",
            "lat": "35.490404",
            "lng": "139.432559"
        },
        {
            "index": "6",
            "id": "00129683",
            "name": "十一条",
            "lat": "35.491375",
            "lng": "139.437621"
        },
        {
            "index": "7",
            "id": "00129684",
            "name": "九条",
            "lat": "35.492221",
            "lng": "139.439995"
        },
        {
            "index": "8",
            "id": "00129667",
            "name": "南林間駅前通り",
            "lat": "35.49456",
            "lng": "139.444761"
        },
        {
            "index": "9",
            "id": "00129666",
            "name": "南林間駅",
            "lat": "35.495922",
            "lng": "139.447458"
        }
    ],
    "route_url": "https://www.kanachu.co.jp/dia/route/index/cid:0000803693/"
}
