{
    "system": "辻31",
    "busstops": [
        {
            "index": "1",
            "id": "00127100",
            "name": "老人センター(藤沢市)",
            "lat": "35.354051",
            "lng": "139.461738"
        },
        {
            "index": "2",
            "id": "00127099",
            "name": "観音坂下",
            "lat": "35.351988",
            "lng": "139.461839"
        },
        {
            "index": "3",
            "id": "00127052",
            "name": "引地橋",
            "lat": "35.348364",
            "lng": "139.466441"
        },
        {
            "index": "4",
            "id": "00127087",
            "name": "湘南台",
            "lat": "35.344952",
            "lng": "139.464364"
        },
        {
            "index": "5",
            "id": "00127088",
            "name": "梅ヶ枝通り",
            "lat": "35.342552",
            "lng": "139.461689"
        },
        {
            "index": "6",
            "id": "00130195",
            "name": "住宅前(藤沢市明治)",
            "lat": "35.341389",
            "lng": "139.458946"
        },
        {
            "index": "7",
            "id": "00127084",
            "name": "汲田",
            "lat": "35.341653",
            "lng": "139.457106"
        },
        {
            "index": "8",
            "id": "00127085",
            "name": "明治中学校前",
            "lat": "35.341719",
            "lng": "139.454539"
        },
        {
            "index": "9",
            "id": "00127086",
            "name": "羽鳥郵便局前",
            "lat": "35.341449",
            "lng": "139.451291"
        },
        {
            "index": "10",
            "id": "00130068",
            "name": "神台公園前",
            "lat": "35.340508",
            "lng": "139.447461"
        },
        {
            "index": "11",
            "id": "00129934",
            "name": "辻堂駅北口",
            "lat": "35.337688",
            "lng": "139.448197"
        }
    ],
    "route_url": "https://www.kanachu.co.jp/dia/route/index/cid:0000803304/"
}
