{
    "system": "二32",
    "busstops": [
        {
            "index": "1",
            "id": "00127950",
            "name": "中井町役場入口",
            "lat": "35.331765",
            "lng": "139.217923"
        },
        {
            "index": "2",
            "id": "00127962",
            "name": "中井役場前",
            "lat": "35.33161",
            "lng": "139.218826"
        },
        {
            "index": "3",
            "id": "00127963",
            "name": "万年橋(足柄上郡中井町)",
            "lat": "35.327886",
            "lng": "139.218674"
        },
        {
            "index": "4",
            "id": "00127964",
            "name": "中井郵便局前",
            "lat": "35.324013",
            "lng": "139.218524"
        },
        {
            "index": "5",
            "id": "00127965",
            "name": "五所ノ宮",
            "lat": "35.322138",
            "lng": "139.218301"
        },
        {
            "index": "6",
            "id": "00127966",
            "name": "滝ノ前(足柄上郡中井町)",
            "lat": "35.319927",
            "lng": "139.220451"
        },
        {
            "index": "7",
            "id": "00127967",
            "name": "北田(足柄上郡中井町)",
            "lat": "35.32083",
            "lng": "139.223506"
        },
        {
            "index": "8",
            "id": "00127968",
            "name": "遠藤(足柄上郡中井町)",
            "lat": "35.317179",
            "lng": "139.225468"
        },
        {
            "index": "9",
            "id": "00127969",
            "name": "上小竹",
            "lat": "35.315303",
            "lng": "139.226931"
        },
        {
            "index": "10",
            "id": "00127970",
            "name": "隧道口",
            "lat": "35.313159",
            "lng": "139.227075"
        },
        {
            "index": "11",
            "id": "00127971",
            "name": "坂呂橋",
            "lat": "35.311548",
            "lng": "139.225321"
        },
        {
            "index": "12",
            "id": "00127972",
            "name": "下小竹",
            "lat": "35.30836",
            "lng": "139.226029"
        },
        {
            "index": "13",
            "id": "00127973",
            "name": "下中駐在所前",
            "lat": "35.303394",
            "lng": "139.226807"
        },
        {
            "index": "14",
            "id": "00127974",
            "name": "下中小学校前",
            "lat": "35.301251",
            "lng": "139.227812"
        },
        {
            "index": "15",
            "id": "00130389",
            "name": "上町入口(小田原市)",
            "lat": "35.299863",
            "lng": "139.228174"
        },
        {
            "index": "16",
            "id": "00130388",
            "name": "テクノパーク北",
            "lat": "35.29726",
            "lng": "139.227644"
        },
        {
            "index": "17",
            "id": "00130387",
            "name": "テクノパーク中央",
            "lat": "35.295342",
            "lng": "139.229717"
        },
        {
            "index": "18",
            "id": "00127979",
            "name": "中村原",
            "lat": "35.295994",
            "lng": "139.232812"
        },
        {
            "index": "19",
            "id": "00127977",
            "name": "下原(小田原市)",
            "lat": "35.294515",
            "lng": "139.233362"
        },
        {
            "index": "20",
            "id": "00127978",
            "name": "橘中学校入口(小田原市)",
            "lat": "35.292595",
            "lng": "139.234252"
        },
        {
            "index": "21",
            "id": "00127495",
            "name": "押切(中郡二宮町)",
            "lat": "35.290167",
            "lng": "139.236884"
        },
        {
            "index": "22",
            "id": "00127494",
            "name": "押切坂上",
            "lat": "35.292163",
            "lng": "139.24176"
        },
        {
            "index": "23",
            "id": "00127493",
            "name": "山西(中郡二宮町)",
            "lat": "35.293729",
            "lng": "139.245614"
        },
        {
            "index": "24",
            "id": "00127492",
            "name": "吾妻神社前(中郡二宮町)",
            "lat": "35.29529",
            "lng": "139.25004"
        },
        {
            "index": "25",
            "id": "00127491",
            "name": "梅沢(中郡二宮町)",
            "lat": "35.296187",
            "lng": "139.252437"
        },
        {
            "index": "26",
            "id": "00127490",
            "name": "藤田電機前(中郡二宮町)",
            "lat": "35.296795",
            "lng": "139.254378"
        },
        {
            "index": "27",
            "id": "00127489",
            "name": "二宮駅南口",
            "lat": "35.298469",
            "lng": "139.258191"
        }
    ],
    "route_url": "https://www.kanachu.co.jp/dia/route/index/cid:0000804216/"
}
