{
    "system": "伊76",
    "busstops": [
        {
            "index": "1",
            "id": "00128127",
            "name": "伊勢原駅北口",
            "lat": "35.396312",
            "lng": "139.312984"
        },
        {
            "index": "2",
            "id": "00128205",
            "name": "電話局前(伊勢原市)",
            "lat": "35.398436",
            "lng": "139.313898"
        },
        {
            "index": "3",
            "id": "00128206",
            "name": "池端(伊勢原市)",
            "lat": "35.400014",
            "lng": "139.317712"
        },
        {
            "index": "4",
            "id": "00128207",
            "name": "中沢中学校前",
            "lat": "35.403878",
            "lng": "139.321947"
        },
        {
            "index": "5",
            "id": "00128208",
            "name": "粕屋上宿",
            "lat": "35.405888",
            "lng": "139.32255"
        },
        {
            "index": "6",
            "id": "00128209",
            "name": "粕屋下宿",
            "lat": "35.405977",
            "lng": "139.324522"
        },
        {
            "index": "7",
            "id": "00128210",
            "name": "成瀬農協前",
            "lat": "35.409303",
            "lng": "139.328002"
        },
        {
            "index": "8",
            "id": "00128211",
            "name": "白金",
            "lat": "35.409353",
            "lng": "139.331697"
        },
        {
            "index": "9",
            "id": "00128212",
            "name": "小金塚",
            "lat": "35.409697",
            "lng": "139.33425"
        },
        {
            "index": "10",
            "id": "00128213",
            "name": "谷戸入",
            "lat": "35.412363",
            "lng": "139.336621"
        },
        {
            "index": "11",
            "id": "00128202",
            "name": "道了尊入口",
            "lat": "35.415449",
            "lng": "139.339577"
        },
        {
            "index": "12",
            "id": "00128496",
            "name": "愛甲石田駅",
            "lat": "35.418388",
            "lng": "139.344343"
        }
    ],
    "route_url": "https://www.kanachu.co.jp/dia/route/index/cid:0000800995/"
}
