{
    "system": "橋57",
    "busstops": [
        {
            "index": "1",
            "id": "00128970",
            "name": "橋本駅南口",
            "lat": "35.59428",
            "lng": "139.344861"
        },
        {
            "index": "2",
            "id": "00128971",
            "name": "橋本二丁目",
            "lat": "35.595232",
            "lng": "139.340162"
        },
        {
            "index": "3",
            "id": "00129066",
            "name": "旭中学校(相模原市緑区)",
            "lat": "35.588156",
            "lng": "139.341703"
        },
        {
            "index": "4",
            "id": "00129264",
            "name": "緑ヶ丘(相模原市緑区)",
            "lat": "35.58609",
            "lng": "139.340652"
        },
        {
            "index": "5",
            "id": "00129073",
            "name": "石宮",
            "lat": "35.583603",
            "lng": "139.339345"
        },
        {
            "index": "6",
            "id": "00129115",
            "name": "上中の原団地",
            "lat": "35.580521",
            "lng": "139.336038"
        },
        {
            "index": "7",
            "id": "00129297",
            "name": "六地蔵(相模原市緑区)",
            "lat": "35.579673",
            "lng": "139.33224"
        },
        {
            "index": "8",
            "id": "00129110",
            "name": "上九沢",
            "lat": "35.578383",
            "lng": "139.329155"
        },
        {
            "index": "9",
            "id": "00129087",
            "name": "大沢まちづくりセンター前",
            "lat": "35.575314",
            "lng": "139.326216"
        },
        {
            "index": "10",
            "id": "00129079",
            "name": "榎戸(相模原市緑区)",
            "lat": "35.570123",
            "lng": "139.321141"
        },
        {
            "index": "11",
            "id": "00129227",
            "name": "日々社前",
            "lat": "35.568575",
            "lng": "139.321899"
        },
        {
            "index": "12",
            "id": "00129262",
            "name": "水場",
            "lat": "35.566183",
            "lng": "139.323027"
        },
        {
            "index": "13",
            "id": "00129135",
            "name": "古清水",
            "lat": "35.563439",
            "lng": "139.326165"
        },
        {
            "index": "14",
            "id": "00129157",
            "name": "清水(相模原市中央区)",
            "lat": "35.560122",
            "lng": "139.327147"
        },
        {
            "index": "15",
            "id": "00129158",
            "name": "清水入口(相模原市中央区)",
            "lat": "35.557567",
            "lng": "139.328185"
        },
        {
            "index": "16",
            "id": "00129069",
            "name": "雨窪(相模原市中央区)",
            "lat": "35.555092",
            "lng": "139.330986"
        },
        {
            "index": "17",
            "id": "00129256",
            "name": "堀の内(相模原市中央区)",
            "lat": "35.552151",
            "lng": "139.33379"
        },
        {
            "index": "18",
            "id": "00129077",
            "name": "田名バスターミナル",
            "lat": "35.550976",
            "lng": "139.334945"
        }
    ],
    "route_url": "https://www.kanachu.co.jp/dia/route/index/cid:0000803780/"
}
