{
    "system": "境01",
    "busstops": [
        {
            "index": "1",
            "id": "00126905",
            "name": "上飯田車庫",
            "lat": "35.442594",
            "lng": "139.477757"
        },
        {
            "index": "2",
            "id": "00126702",
            "name": "ひなた山",
            "lat": "35.442986",
            "lng": "139.483178"
        },
        {
            "index": "3",
            "id": "00126701",
            "name": "遊水池前(横浜市泉区)",
            "lat": "35.443025",
            "lng": "139.487546"
        },
        {
            "index": "4",
            "id": "00126700",
            "name": "柳明",
            "lat": "35.443112",
            "lng": "139.491154"
        },
        {
            "index": "5",
            "id": "00126699",
            "name": "阿久和山谷",
            "lat": "35.444825",
            "lng": "139.496551"
        },
        {
            "index": "6",
            "id": "00126945",
            "name": "阿久和坂上",
            "lat": "35.445919",
            "lng": "139.499997"
        },
        {
            "index": "7",
            "id": "00126681",
            "name": "阿久和",
            "lat": "35.447899",
            "lng": "139.504094"
        },
        {
            "index": "8",
            "id": "00126682",
            "name": "宮の腰(横浜市瀬谷区)",
            "lat": "35.449808",
            "lng": "139.503347"
        },
        {
            "index": "9",
            "id": "00126683",
            "name": "谷戸阿久和",
            "lat": "35.453119",
            "lng": "139.502311"
        },
        {
            "index": "10",
            "id": "00126684",
            "name": "上阿久和",
            "lat": "35.457291",
            "lng": "139.499903"
        },
        {
            "index": "11",
            "id": "00126685",
            "name": "旭ヶ丘(横浜市瀬谷区)",
            "lat": "35.458643",
            "lng": "139.499115"
        },
        {
            "index": "12",
            "id": "00126703",
            "name": "住宅前(横浜市瀬谷区)",
            "lat": "35.461699",
            "lng": "139.500043"
        },
        {
            "index": "13",
            "id": "00126704",
            "name": "富士見台(横浜市瀬谷区)",
            "lat": "35.464473",
            "lng": "139.500302"
        },
        {
            "index": "14",
            "id": "00126705",
            "name": "富士見通り商店街",
            "lat": "35.467652",
            "lng": "139.500877"
        },
        {
            "index": "15",
            "id": "00126706",
            "name": "三ツ境駅",
            "lat": "35.466956",
            "lng": "139.504247"
        }
    ],
    "route_url": "https://www.kanachu.co.jp/dia/route/index/cid:0000801484/"
}
