{
    "system": "鶴26",
    "busstops": [
        {
            "index": "1",
            "id": "00049296",
            "name": "鶴川駅",
            "lat": "35.583577",
            "lng": "139.483441"
        },
        {
            "index": "2",
            "id": "00049315",
            "name": "能ヶ谷二丁目",
            "lat": "35.587437",
            "lng": "139.480541"
        },
        {
            "index": "3",
            "id": "00049329",
            "name": "平和台入口",
            "lat": "35.589357",
            "lng": "139.479154"
        },
        {
            "index": "4",
            "id": "00130512",
            "name": "きつねくぼ緑地前",
            "lat": "35.5912",
            "lng": "139.478081"
        },
        {
            "index": "5",
            "id": "00049435",
            "name": "東平(町田市)",
            "lat": "35.593374",
            "lng": "139.47606"
        },
        {
            "index": "6",
            "id": "00049434",
            "name": "広袴中央",
            "lat": "35.596505",
            "lng": "139.472097"
        },
        {
            "index": "7",
            "id": "00049433",
            "name": "真光寺中学校入口",
            "lat": "35.599694",
            "lng": "139.466986"
        },
        {
            "index": "8",
            "id": "00049432",
            "name": "鶴川台中央",
            "lat": "35.60176",
            "lng": "139.467854"
        },
        {
            "index": "9",
            "id": "00049431",
            "name": "真光寺会館入口",
            "lat": "35.603607",
            "lng": "139.467561"
        },
        {
            "index": "10",
            "id": "00049430",
            "name": "真光寺緑地入口",
            "lat": "35.605073",
            "lng": "139.466728"
        },
        {
            "index": "11",
            "id": "00049429",
            "name": "真光寺公園",
            "lat": "35.606706",
            "lng": "139.465828"
        }
    ],
    "route_url": "https://www.kanachu.co.jp/dia/route/index/cid:0000803469/"
}
