{
    "system": "町37",
    "busstops": [
        {
            "index": "1",
            "id": "00025625",
            "name": "町田バスセンター",
            "lat": "35.543497",
            "lng": "139.444468"
        },
        {
            "index": "2",
            "id": "00129356",
            "name": "町田市役所市民ホール前",
            "lat": "35.547227",
            "lng": "139.439002"
        },
        {
            "index": "3",
            "id": "00129357",
            "name": "第四小学校前(町田市)",
            "lat": "35.550343",
            "lng": "139.438207"
        },
        {
            "index": "4",
            "id": "00129358",
            "name": "森野三丁目",
            "lat": "35.552678",
            "lng": "139.439366"
        },
        {
            "index": "5",
            "id": "00129359",
            "name": "市民病院前(町田市)",
            "lat": "35.555545",
            "lng": "139.435749"
        },
        {
            "index": "6",
            "id": "00129360",
            "name": "浄水場前(町田市)",
            "lat": "35.557661",
            "lng": "139.433249"
        },
        {
            "index": "7",
            "id": "00129361",
            "name": "滝の沢(町田市)",
            "lat": "35.559716",
            "lng": "139.429759"
        },
        {
            "index": "8",
            "id": "00129516",
            "name": "木曽中原",
            "lat": "35.562655",
            "lng": "139.430292"
        },
        {
            "index": "9",
            "id": "00129517",
            "name": "緑ヶ丘入口(町田市)",
            "lat": "35.563583",
            "lng": "139.433799"
        },
        {
            "index": "10",
            "id": "00129518",
            "name": "原田向",
            "lat": "35.563757",
            "lng": "139.437658"
        },
        {
            "index": "11",
            "id": "00129519",
            "name": "町田木曽会館前",
            "lat": "35.565629",
            "lng": "139.437438"
        },
        {
            "index": "12",
            "id": "00129389",
            "name": "給水塔前(山崎団地/町田市)",
            "lat": "35.570959",
            "lng": "139.438672"
        },
        {
            "index": "13",
            "id": "00129426",
            "name": "今井谷戸",
            "lat": "35.572354",
            "lng": "139.443751"
        },
        {
            "index": "14",
            "id": "00129451",
            "name": "藤の台団地",
            "lat": "35.571495",
            "lng": "139.449569"
        },
        {
            "index": "15",
            "id": "00129450",
            "name": "藤の台東",
            "lat": "35.571461",
            "lng": "139.451672"
        },
        {
            "index": "16",
            "id": "00129499",
            "name": "遊歩公園",
            "lat": "35.573126",
            "lng": "139.454363"
        },
        {
            "index": "17",
            "id": "00129500",
            "name": "入谷戸(やくし台/町田市)",
            "lat": "35.577126",
            "lng": "139.454997"
        },
        {
            "index": "18",
            "id": "00129501",
            "name": "やくし台二丁目",
            "lat": "35.578992",
            "lng": "139.455146"
        },
        {
            "index": "19",
            "id": "00129440",
            "name": "やくし台三丁目",
            "lat": "35.580376",
            "lng": "139.45468"
        },
        {
            "index": "20",
            "id": "00129441",
            "name": "やくし台センター",
            "lat": "35.580728",
            "lng": "139.452852"
        }
    ],
    "route_url": "https://www.kanachu.co.jp/dia/route/index/cid:0000802676/"
}
