{
    "system": "鶴01",
    "busstops": [
        {
            "index": "1",
            "id": "00049296",
            "name": "鶴川駅",
            "lat": "35.583577",
            "lng": "139.483441"
        },
        {
            "index": "2",
            "id": "00049297",
            "name": "岡上",
            "lat": "35.580241",
            "lng": "139.487207"
        },
        {
            "index": "3",
            "id": "00129442",
            "name": "上三輪クラブ前",
            "lat": "35.580317",
            "lng": "139.489637"
        },
        {
            "index": "4",
            "id": "00129443",
            "name": "第一住宅(町田市)",
            "lat": "35.582999",
            "lng": "139.491177"
        },
        {
            "index": "5",
            "id": "00129444",
            "name": "フェリシア高校前",
            "lat": "35.581113",
            "lng": "139.495115"
        },
        {
            "index": "6",
            "id": "00129445",
            "name": "下三輪入口",
            "lat": "35.579802",
            "lng": "139.497728"
        },
        {
            "index": "7",
            "id": "00129446",
            "name": "三輪(町田市)",
            "lat": "35.57688",
            "lng": "139.499066"
        },
        {
            "index": "8",
            "id": "00129507",
            "name": "妙福寺前(町田市)",
            "lat": "35.575294",
            "lng": "139.497876"
        },
        {
            "index": "9",
            "id": "00129508",
            "name": "廣慶寺前",
            "lat": "35.574128",
            "lng": "139.494793"
        },
        {
            "index": "10",
            "id": "00129509",
            "name": "フェリシアこども短期大学",
            "lat": "35.570844",
            "lng": "139.493644"
        }
    ],
    "route_url": "https://www.kanachu.co.jp/dia/route/index/cid:0000803436/"
}
