{
    "system": "橋20",
    "busstops": [
        {
            "index": "1",
            "id": "00128969",
            "name": "橋本駅北口",
            "lat": "35.595491",
            "lng": "139.344368"
        },
        {
            "index": "2",
            "id": "00020098",
            "name": "旭農協前",
            "lat": "35.597185",
            "lng": "139.34619"
        },
        {
            "index": "3",
            "id": "00128991",
            "name": "寿町(相模原市緑区)",
            "lat": "35.599163",
            "lng": "139.347471"
        },
        {
            "index": "4",
            "id": "00130222",
            "name": "寿橋",
            "lat": "35.601847",
            "lng": "139.348319"
        },
        {
            "index": "5",
            "id": "00128992",
            "name": "久保ヶ谷戸",
            "lat": "35.602933",
            "lng": "139.348222"
        },
        {
            "index": "6",
            "id": "00128881",
            "name": "相原境",
            "lat": "35.604285",
            "lng": "139.344246"
        },
        {
            "index": "7",
            "id": "00021470",
            "name": "坂下(町田街道側/町田市)",
            "lat": "35.605386",
            "lng": "139.341222"
        },
        {
            "index": "8",
            "id": "00128882",
            "name": "堺農協前",
            "lat": "35.605838",
            "lng": "139.337678"
        },
        {
            "index": "9",
            "id": "00128883",
            "name": "堺中学校前",
            "lat": "35.605627",
            "lng": "139.336345"
        },
        {
            "index": "10",
            "id": "00128884",
            "name": "堺市民センター前",
            "lat": "35.60472",
            "lng": "139.333822"
        },
        {
            "index": "11",
            "id": "00128885",
            "name": "相原(町田市)",
            "lat": "35.60443",
            "lng": "139.330045"
        },
        {
            "index": "12",
            "id": "00128886",
            "name": "諏訪神社前(町田市)",
            "lat": "35.60459",
            "lng": "139.32749"
        },
        {
            "index": "13",
            "id": "00128887",
            "name": "相原小学校前",
            "lat": "35.605664",
            "lng": "139.32339"
        },
        {
            "index": "14",
            "id": "00128888",
            "name": "開都",
            "lat": "35.606334",
            "lng": "139.31948"
        },
        {
            "index": "15",
            "id": "00128889",
            "name": "相原十字路",
            "lat": "35.605678",
            "lng": "139.316564"
        },
        {
            "index": "16",
            "id": "00128890",
            "name": "根岸(相原町/町田市)",
            "lat": "35.605288",
            "lng": "139.309971"
        },
        {
            "index": "17",
            "id": "00128891",
            "name": "境橋(町田市)",
            "lat": "35.605724",
            "lng": "139.305161"
        },
        {
            "index": "18",
            "id": "00128892",
            "name": "円林寺前",
            "lat": "35.606961",
            "lng": "139.3019"
        },
        {
            "index": "19",
            "id": "00128893",
            "name": "水の口(町田市)",
            "lat": "35.609521",
            "lng": "139.29902"
        },
        {
            "index": "20",
            "id": "00130508",
            "name": "法政大学入口",
            "lat": "35.611679",
            "lng": "139.295892"
        },
        {
            "index": "21",
            "id": "00021279",
            "name": "法政大学(町田市)",
            "lat": "35.613957",
            "lng": "139.297153"
        }
    ],
    "route_url": "https://www.kanachu.co.jp/dia/route/index/cid:0000804290/"
}
