{
    "system": "橋27",
    "busstops": [
        {
            "index": "1",
            "id": "00128970",
            "name": "橋本駅南口",
            "lat": "35.594009",
            "lng": "139.345484"
        },
        {
            "index": "2",
            "id": "00128971",
            "name": "橋本二丁目",
            "lat": "35.595232",
            "lng": "139.340162"
        },
        {
            "index": "3",
            "id": "00129000",
            "name": "緑区合同庁舎前(相模原市緑区)",
            "lat": "35.595126",
            "lng": "139.337287"
        },
        {
            "index": "4",
            "id": "00129042",
            "name": "北警察署前(相模原市緑区)",
            "lat": "35.595067",
            "lng": "139.335208"
        },
        {
            "index": "5",
            "id": "00128972",
            "name": "西橋本三丁目",
            "lat": "35.595137",
            "lng": "139.331456"
        },
        {
            "index": "6",
            "id": "00128973",
            "name": "日本板硝子前(相模原市緑区)",
            "lat": "35.594772",
            "lng": "139.327175"
        },
        {
            "index": "7",
            "id": "00128974",
            "name": "住宅前(相模原市緑区)",
            "lat": "35.594375",
            "lng": "139.32365"
        },
        {
            "index": "8",
            "id": "00128975",
            "name": "公園前(相模原市緑区)",
            "lat": "35.594182",
            "lng": "139.322021"
        },
        {
            "index": "9",
            "id": "00128997",
            "name": "二本松二丁目",
            "lat": "35.593856",
            "lng": "139.319338"
        },
        {
            "index": "10",
            "id": "00128998",
            "name": "八幡神社前(相模原市緑区)",
            "lat": "35.59345",
            "lng": "139.316112"
        },
        {
            "index": "11",
            "id": "00128999",
            "name": "原宿公園西",
            "lat": "35.59348",
            "lng": "139.312329"
        },
        {
            "index": "12",
            "id": "00129001",
            "name": "原宿五丁目",
            "lat": "35.593953",
            "lng": "139.308222"
        }
    ],
    "route_url": "https://www.kanachu.co.jp/dia/route/index/cid:0000803129/"
}
