{
    "system": "",
    "busstops": [
        {
            "index": "1",
            "id": "00102376",
            "name": "鴨居駅",
            "lat": "35.510618",
            "lng": "139.567181"
        },
        {
            "index": "2",
            "id": "00102852",
            "name": "中村通",
            "lat": "35.507684",
            "lng": "139.56415"
        },
        {
            "index": "3",
            "id": "00102377",
            "name": "鴨居町",
            "lat": "35.505791",
            "lng": "139.564258"
        },
        {
            "index": "4",
            "id": "00102389",
            "name": "鴨居六丁目",
            "lat": "35.503465",
            "lng": "139.561302"
        },
        {
            "index": "5",
            "id": "00103071",
            "name": "法国寺入口",
            "lat": "35.500195",
            "lng": "139.556608"
        },
        {
            "index": "6",
            "id": "00102390",
            "name": "鴨居七丁目",
            "lat": "35.497125",
            "lng": "139.556802"
        },
        {
            "index": "7",
            "id": "00102222",
            "name": "新井小学校下",
            "lat": "35.493769",
            "lng": "139.557644"
        },
        {
            "index": "8",
            "id": "00102223",
            "name": "新井町",
            "lat": "35.490531",
            "lng": "139.55832"
        },
        {
            "index": "9",
            "id": "00102515",
            "name": "公民館前(横浜市保土ケ谷区)",
            "lat": "35.487147",
            "lng": "139.558364"
        },
        {
            "index": "10",
            "id": "00102259",
            "name": "稲荷通",
            "lat": "35.486845",
            "lng": "139.554948"
        },
        {
            "index": "11",
            "id": "00102361",
            "name": "金草沢",
            "lat": "35.488775",
            "lng": "139.553274"
        },
        {
            "index": "12",
            "id": "00102675",
            "name": "千丸台団地",
            "lat": "35.49035",
            "lng": "139.552261"
        },
        {
            "index": "13",
            "id": "00102559",
            "name": "さわやか苑前",
            "lat": "35.494266",
            "lng": "139.5505"
        },
        {
            "index": "14",
            "id": "00102931",
            "name": "白山高校",
            "lat": "35.498721",
            "lng": "139.549611"
        },
        {
            "index": "15",
            "id": "00102932",
            "name": "白山坂上",
            "lat": "35.500535",
            "lng": "139.551507"
        },
        {
            "index": "16",
            "id": "00102934",
            "name": "白山みどり",
            "lat": "35.502285",
            "lng": "139.553827"
        },
        {
            "index": "17",
            "id": "00102933",
            "name": "白山中央",
            "lat": "35.504431",
            "lng": "139.557582"
        },
        {
            "index": "18",
            "id": "00103268",
            "name": "白山二丁目(横浜市緑区)",
            "lat": "35.505901",
            "lng": "139.55965"
        },
        {
            "index": "19",
            "id": "00102938",
            "name": "白山一丁目(横浜市緑区)",
            "lat": "35.508753",
            "lng": "139.560256"
        },
        {
            "index": "20",
            "id": "00102375",
            "name": "鴨居橋",
            "lat": "35.509494",
            "lng": "139.563137"
        },
        {
            "index": "21",
            "id": "00102376",
            "name": "鴨居駅",
            "lat": "35.51052",
            "lng": "139.56704"
        }
    ],
    "route_url": "https://www.kanachu.co.jp/dia/route/index/cid:0000802184/"
}
