{
    "system": "東02",
    "busstops": [
        {
            "index": "1",
            "id": "00126646",
            "name": "舞岡",
            "lat": "35.409491",
            "lng": "139.550744"
        },
        {
            "index": "2",
            "id": "00126645",
            "name": "西根",
            "lat": "35.410171",
            "lng": "139.547428"
        },
        {
            "index": "3",
            "id": "00126644",
            "name": "舞岡中学校前",
            "lat": "35.410292",
            "lng": "139.54438"
        },
        {
            "index": "4",
            "id": "00126643",
            "name": "舞岡町入口",
            "lat": "35.411157",
            "lng": "139.541179"
        },
        {
            "index": "5",
            "id": "00126613",
            "name": "不動坂(横浜市戸塚区)",
            "lat": "35.412538",
            "lng": "139.540797"
        },
        {
            "index": "6",
            "id": "00126614",
            "name": "ポーラ前(横浜市戸塚区)",
            "lat": "35.416473",
            "lng": "139.545757"
        },
        {
            "index": "7",
            "id": "00126615",
            "name": "柏尾(横浜市戸塚区)",
            "lat": "35.418818",
            "lng": "139.54911"
        },
        {
            "index": "8",
            "id": "00126661",
            "name": "秋葉三叉路",
            "lat": "35.421421",
            "lng": "139.54787"
        },
        {
            "index": "9",
            "id": "00126662",
            "name": "秋葉",
            "lat": "35.423212",
            "lng": "139.545252"
        },
        {
            "index": "10",
            "id": "00126663",
            "name": "富士山下",
            "lat": "35.426036",
            "lng": "139.541306"
        },
        {
            "index": "11",
            "id": "00126651",
            "name": "公園前(横浜市戸塚区)",
            "lat": "35.427907",
            "lng": "139.542717"
        },
        {
            "index": "12",
            "id": "00126650",
            "name": "川上小学校前(横浜市戸塚区)",
            "lat": "35.427338",
            "lng": "139.546086"
        },
        {
            "index": "13",
            "id": "00126649",
            "name": "前田ハイツ前",
            "lat": "35.427376",
            "lng": "139.550297"
        },
        {
            "index": "14",
            "id": "00126648",
            "name": "天王山橋",
            "lat": "35.427417",
            "lng": "139.553371"
        },
        {
            "index": "15",
            "id": "00126647",
            "name": "東戸塚駅東口",
            "lat": "35.429912",
            "lng": "139.55729"
        }
    ],
    "route_url": "https://www.kanachu.co.jp/dia/route/index/cid:0000803831/"
}
