{
    "system": "町28",
    "busstops": [
        {
            "index": "1",
            "id": "00129544",
            "name": "町田ターミナル",
            "lat": "35.540273",
            "lng": "139.44914"
        },
        {
            "index": "2",
            "id": "00129465",
            "name": "原町田四丁目",
            "lat": "35.543496",
            "lng": "139.451815"
        },
        {
            "index": "3",
            "id": "00129464",
            "name": "原町田五丁目",
            "lat": "35.545614",
            "lng": "139.449906"
        },
        {
            "index": "4",
            "id": "00129484",
            "name": "中町一丁目(町田市)",
            "lat": "35.548737",
            "lng": "139.447131"
        },
        {
            "index": "5",
            "id": "00129483",
            "name": "図書館前(町田市)",
            "lat": "35.551556",
            "lng": "139.444639"
        },
        {
            "index": "6",
            "id": "00129482",
            "name": "五間道路",
            "lat": "35.553272",
            "lng": "139.443124"
        },
        {
            "index": "7",
            "id": "00130506",
            "name": "旭町(町田市)",
            "lat": "35.554529",
            "lng": "139.442022"
        },
        {
            "index": "8",
            "id": "00130288",
            "name": "町田市民病院",
            "lat": "35.557123",
            "lng": "139.438156"
        },
        {
            "index": "9",
            "id": "00129393",
            "name": "忠生公園前",
            "lat": "35.573226",
            "lng": "139.421383"
        },
        {
            "index": "10",
            "id": "00129396",
            "name": "忠生三丁目",
            "lat": "35.578029",
            "lng": "139.420068"
        },
        {
            "index": "11",
            "id": "00129487",
            "name": "市立室内プール",
            "lat": "35.586402",
            "lng": "139.411984"
        },
        {
            "index": "12",
            "id": "00129409",
            "name": "桜橋(町田市)",
            "lat": "35.59393",
            "lng": "139.413547"
        },
        {
            "index": "13",
            "id": "00129202",
            "name": "常盤(町田市)",
            "lat": "35.58571",
            "lng": "139.39541"
        },
        {
            "index": "14",
            "id": "00130093",
            "name": "小山小学校前(町田市)",
            "lat": "35.593206",
            "lng": "139.377936"
        },
        {
            "index": "15",
            "id": "00130091",
            "name": "片所",
            "lat": "35.59703",
            "lng": "139.368054"
        },
        {
            "index": "16",
            "id": "00130089",
            "name": "田端(町田市)",
            "lat": "35.600109",
            "lng": "139.360641"
        },
        {
            "index": "17",
            "id": "00128992",
            "name": "久保ヶ谷戸",
            "lat": "35.602933",
            "lng": "139.348222"
        },
        {
            "index": "18",
            "id": "00128881",
            "name": "相原境",
            "lat": "35.604285",
            "lng": "139.344246"
        },
        {
            "index": "19",
            "id": "00021470",
            "name": "坂下(町田街道側/町田市)",
            "lat": "35.605386",
            "lng": "139.341222"
        },
        {
            "index": "20",
            "id": "00128882",
            "name": "堺農協前",
            "lat": "35.605838",
            "lng": "139.337678"
        },
        {
            "index": "21",
            "id": "00128883",
            "name": "堺中学校前",
            "lat": "35.605627",
            "lng": "139.336345"
        },
        {
            "index": "22",
            "id": "00128884",
            "name": "堺市民センター前",
            "lat": "35.60472",
            "lng": "139.333822"
        },
        {
            "index": "23",
            "id": "00128885",
            "name": "相原(町田市)",
            "lat": "35.60443",
            "lng": "139.330045"
        },
        {
            "index": "24",
            "id": "00128886",
            "name": "諏訪神社前(町田市)",
            "lat": "35.60459",
            "lng": "139.32749"
        },
        {
            "index": "25",
            "id": "00128887",
            "name": "相原小学校前",
            "lat": "35.605664",
            "lng": "139.32339"
        },
        {
            "index": "26",
            "id": "00128888",
            "name": "開都",
            "lat": "35.606334",
            "lng": "139.31948"
        },
        {
            "index": "27",
            "id": "00128889",
            "name": "相原十字路",
            "lat": "35.605678",
            "lng": "139.316564"
        },
        {
            "index": "28",
            "id": "00128890",
            "name": "根岸(相原町/町田市)",
            "lat": "35.605288",
            "lng": "139.309971"
        },
        {
            "index": "29",
            "id": "00128891",
            "name": "境橋(町田市)",
            "lat": "35.605724",
            "lng": "139.305161"
        },
        {
            "index": "30",
            "id": "00128892",
            "name": "円林寺前",
            "lat": "35.606961",
            "lng": "139.3019"
        },
        {
            "index": "31",
            "id": "00128893",
            "name": "水の口(町田市)",
            "lat": "35.609521",
            "lng": "139.29902"
        },
        {
            "index": "32",
            "id": "00128894",
            "name": "公会堂前(町田市)",
            "lat": "35.611007",
            "lng": "139.294876"
        },
        {
            "index": "33",
            "id": "00128895",
            "name": "大戸橋",
            "lat": "35.612772",
            "lng": "139.290823"
        },
        {
            "index": "34",
            "id": "00128896",
            "name": "上大戸",
            "lat": "35.613034",
            "lng": "139.288242"
        },
        {
            "index": "35",
            "id": "00128897",
            "name": "ネイチャーファクトリー東京町田",
            "lat": "35.612382",
            "lng": "139.285474"
        }
    ],
    "route_url": "https://www.kanachu.co.jp/dia/route/index/cid:0000802845/"
}
