{
    "system": "鶴31",
    "busstops": [
        {
            "index": "1",
            "id": "00049296",
            "name": "鶴川駅",
            "lat": "35.583469",
            "lng": "139.480262"
        },
        {
            "index": "2",
            "id": "00129439",
            "name": "上能ヶ谷",
            "lat": "35.583536",
            "lng": "139.475986"
        },
        {
            "index": "3",
            "id": "00129438",
            "name": "金井入口",
            "lat": "35.58492",
            "lng": "139.472259"
        },
        {
            "index": "4",
            "id": "00129437",
            "name": "下大蔵",
            "lat": "35.586771",
            "lng": "139.470134"
        },
        {
            "index": "5",
            "id": "00129436",
            "name": "鶴川市民センター入口",
            "lat": "35.588125",
            "lng": "139.46581"
        },
        {
            "index": "6",
            "id": "00129435",
            "name": "大蔵(鶴川郵便局前/町田市)",
            "lat": "35.588407",
            "lng": "139.463364"
        },
        {
            "index": "7",
            "id": "00129473",
            "name": "井の花",
            "lat": "35.591274",
            "lng": "139.458696"
        },
        {
            "index": "8",
            "id": "00129474",
            "name": "岩子山",
            "lat": "35.593992",
            "lng": "139.455532"
        },
        {
            "index": "9",
            "id": "00129475",
            "name": "下堤(町田市)",
            "lat": "35.595196",
            "lng": "139.452691"
        },
        {
            "index": "10",
            "id": "00129476",
            "name": "五反田(町田市)",
            "lat": "35.594941",
            "lng": "139.448282"
        },
        {
            "index": "11",
            "id": "00130074",
            "name": "湯船(町田市)",
            "lat": "35.598087",
            "lng": "139.44613"
        },
        {
            "index": "12",
            "id": "00130073",
            "name": "別所(町田市)",
            "lat": "35.603189",
            "lng": "139.445146"
        },
        {
            "index": "13",
            "id": "00130072",
            "name": "中村(町田市小野路町)",
            "lat": "35.605584",
            "lng": "139.444299"
        },
        {
            "index": "14",
            "id": "00020255",
            "name": "京王多摩車庫前",
            "lat": "35.610791",
            "lng": "139.442902"
        },
        {
            "index": "15",
            "id": "00021039",
            "name": "南瓜生",
            "lat": "35.613752",
            "lng": "139.442682"
        },
        {
            "index": "16",
            "id": "00020133",
            "name": "瓜生(多摩市)",
            "lat": "35.616396",
            "lng": "139.442408"
        },
        {
            "index": "17",
            "id": "00021041",
            "name": "南貝取",
            "lat": "35.620317",
            "lng": "139.443784"
        },
        {
            "index": "18",
            "id": "00020145",
            "name": "永山五丁目",
            "lat": "35.618557",
            "lng": "139.446336"
        },
        {
            "index": "19",
            "id": "00020147",
            "name": "永山高校",
            "lat": "35.616824",
            "lng": "139.448101"
        },
        {
            "index": "20",
            "id": "00020140",
            "name": "永山いちょう通り",
            "lat": "35.617691",
            "lng": "139.450012"
        },
        {
            "index": "21",
            "id": "00020623",
            "name": "諏訪南公園",
            "lat": "35.620582",
            "lng": "139.451628"
        },
        {
            "index": "22",
            "id": "00020976",
            "name": "諏訪幼稚園前",
            "lat": "35.621654",
            "lng": "139.450862"
        },
        {
            "index": "23",
            "id": "00020624",
            "name": "諏訪二丁目(多摩市)",
            "lat": "35.625384",
            "lng": "139.449542"
        },
        {
            "index": "24",
            "id": "00020143",
            "name": "永山駅",
            "lat": "35.630642",
            "lng": "139.447534"
        }
    ],
    "route_url": "https://www.kanachu.co.jp/dia/route/index/cid:0000803440/"
}
