{
    "system": "大15",
    "busstops": [
        {
            "index": "1",
            "id": "00129347",
            "name": "上溝",
            "lat": "35.557568",
            "lng": "139.363631"
        },
        {
            "index": "2",
            "id": "00129348",
            "name": "上溝中央",
            "lat": "35.557043",
            "lng": "139.359828"
        },
        {
            "index": "3",
            "id": "00128531",
            "name": "本町(相模原市中央区)",
            "lat": "35.55606",
            "lng": "139.358265"
        },
        {
            "index": "4",
            "id": "00128530",
            "name": "元町(相模原市中央区)",
            "lat": "35.554225",
            "lng": "139.35903"
        },
        {
            "index": "5",
            "id": "00129218",
            "name": "農協下",
            "lat": "35.551974",
            "lng": "139.360111"
        },
        {
            "index": "6",
            "id": "00129185",
            "name": "田中住宅前",
            "lat": "35.552563",
            "lng": "139.361709"
        },
        {
            "index": "7",
            "id": "00129255",
            "name": "北相前",
            "lat": "35.551528",
            "lng": "139.364315"
        },
        {
            "index": "8",
            "id": "00129223",
            "name": "亀ヶ池八幡宮前",
            "lat": "35.550703",
            "lng": "139.36576"
        },
        {
            "index": "9",
            "id": "00129181",
            "name": "田島(相模原市中央区)",
            "lat": "35.54882",
            "lng": "139.368713"
        },
        {
            "index": "10",
            "id": "00129212",
            "name": "虹吹",
            "lat": "35.54724",
            "lng": "139.370585"
        },
        {
            "index": "11",
            "id": "00129204",
            "name": "七曲り下",
            "lat": "35.545416",
            "lng": "139.372508"
        },
        {
            "index": "12",
            "id": "00129113",
            "name": "上溝新開",
            "lat": "35.541757",
            "lng": "139.375029"
        },
        {
            "index": "13",
            "id": "00129147",
            "name": "古山三谷",
            "lat": "35.540703",
            "lng": "139.375909"
        },
        {
            "index": "14",
            "id": "00129165",
            "name": "下古山",
            "lat": "35.538478",
            "lng": "139.377638"
        },
        {
            "index": "15",
            "id": "00129209",
            "name": "中丸(相模原市南区)",
            "lat": "35.535409",
            "lng": "139.378307"
        },
        {
            "index": "16",
            "id": "00129352",
            "name": "下中丸",
            "lat": "35.533827",
            "lng": "139.379427"
        },
        {
            "index": "17",
            "id": "00129351",
            "name": "下原橋",
            "lat": "35.532359",
            "lng": "139.379757"
        },
        {
            "index": "18",
            "id": "00129350",
            "name": "下原中央",
            "lat": "35.530838",
            "lng": "139.379902"
        },
        {
            "index": "19",
            "id": "00129349",
            "name": "新中丸橋",
            "lat": "35.530171",
            "lng": "139.378666"
        },
        {
            "index": "20",
            "id": "00129319",
            "name": "原当麻駅",
            "lat": "35.529399",
            "lng": "139.3752"
        },
        {
            "index": "21",
            "id": "00129320",
            "name": "原当麻駅東",
            "lat": "35.529243",
            "lng": "139.378052"
        },
        {
            "index": "22",
            "id": "00129166",
            "name": "下原(相模原市南区)",
            "lat": "35.528078",
            "lng": "139.382207"
        },
        {
            "index": "23",
            "id": "00129239",
            "name": "山の神坂下",
            "lat": "35.529652",
            "lng": "139.383968"
        },
        {
            "index": "24",
            "id": "00129133",
            "name": "県立相模原公園前",
            "lat": "35.53308",
            "lng": "139.385477"
        },
        {
            "index": "25",
            "id": "00129286",
            "name": "友愛病院前",
            "lat": "35.536716",
            "lng": "139.392207"
        },
        {
            "index": "26",
            "id": "00129119",
            "name": "北里大学病院・北里大学",
            "lat": "35.537573",
            "lng": "139.393871"
        },
        {
            "index": "27",
            "id": "00129064",
            "name": "麻溝台高校",
            "lat": "35.537472",
            "lng": "139.400357"
        },
        {
            "index": "28",
            "id": "00129121",
            "name": "麻溝台入口",
            "lat": "35.537813",
            "lng": "139.404059"
        },
        {
            "index": "29",
            "id": "00129093",
            "name": "大野台入口",
            "lat": "35.538214",
            "lng": "139.408409"
        },
        {
            "index": "30",
            "id": "00129197",
            "name": "オルガノ前",
            "lat": "35.538493",
            "lng": "139.411368"
        },
        {
            "index": "31",
            "id": "00129089",
            "name": "大沼",
            "lat": "35.537679",
            "lng": "139.416714"
        },
        {
            "index": "32",
            "id": "00129088",
            "name": "大沼小学校前",
            "lat": "35.537675",
            "lng": "139.419476"
        },
        {
            "index": "33",
            "id": "00129237",
            "name": "東通り(相模原市南区)",
            "lat": "35.53774",
            "lng": "139.424304"
        },
        {
            "index": "34",
            "id": "00129193",
            "name": "団地入口(相模原市南区)",
            "lat": "35.538253",
            "lng": "139.426707"
        },
        {
            "index": "35",
            "id": "00129137",
            "name": "小沼(相模原市南区)",
            "lat": "35.539097",
            "lng": "139.429817"
        },
        {
            "index": "36",
            "id": "00129205",
            "name": "南中前(相模原市南区)",
            "lat": "35.536208",
            "lng": "139.430178"
        },
        {
            "index": "37",
            "id": "00129307",
            "name": "グリーンホール前",
            "lat": "35.534984",
            "lng": "139.434657"
        },
        {
            "index": "38",
            "id": "00114298",
            "name": "相模大野駅北口",
            "lat": "35.531961",
            "lng": "139.436873"
        }
    ],
    "route_url": "https://www.kanachu.co.jp/dia/route/index/cid:0000803500/"
}
