{
    "system": "船08",
    "busstops": [
        {
            "index": "1",
            "id": "00126594",
            "name": "大船駅(横浜市栄区)",
            "lat": "35.355742",
            "lng": "139.533217"
        },
        {
            "index": "2",
            "id": "00126500",
            "name": "笠間一丁目",
            "lat": "35.357747",
            "lng": "139.533565"
        },
        {
            "index": "3",
            "id": "00126501",
            "name": "岩井口",
            "lat": "35.35998",
            "lng": "139.536398"
        },
        {
            "index": "4",
            "id": "00126502",
            "name": "笠間町",
            "lat": "35.360807",
            "lng": "139.538133"
        },
        {
            "index": "5",
            "id": "00126503",
            "name": "笠間十字路",
            "lat": "35.361358",
            "lng": "139.539952"
        },
        {
            "index": "6",
            "id": "00126504",
            "name": "平島(鎌倉市)",
            "lat": "35.361004",
            "lng": "139.544139"
        },
        {
            "index": "7",
            "id": "00126505",
            "name": "鎌倉女子大前",
            "lat": "35.360268",
            "lng": "139.546633"
        },
        {
            "index": "8",
            "id": "00126506",
            "name": "公田",
            "lat": "35.361233",
            "lng": "139.550352"
        },
        {
            "index": "9",
            "id": "00126609",
            "name": "栄警察署前",
            "lat": "35.362583",
            "lng": "139.553207"
        },
        {
            "index": "10",
            "id": "00126507",
            "name": "天神橋(横浜市栄区)",
            "lat": "35.363475",
            "lng": "139.555167"
        },
        {
            "index": "11",
            "id": "00126508",
            "name": "南河内(横浜市栄区)",
            "lat": "35.363666",
            "lng": "139.557813"
        },
        {
            "index": "12",
            "id": "00126509",
            "name": "本郷小学校前",
            "lat": "35.363413",
            "lng": "139.561189"
        },
        {
            "index": "13",
            "id": "00126510",
            "name": "本郷(横浜市栄区)",
            "lat": "35.363519",
            "lng": "139.563859"
        },
        {
            "index": "14",
            "id": "00126511",
            "name": "中野町",
            "lat": "35.363868",
            "lng": "139.566229"
        },
        {
            "index": "15",
            "id": "00126512",
            "name": "稲荷森",
            "lat": "35.364368",
            "lng": "139.568984"
        },
        {
            "index": "16",
            "id": "00126513",
            "name": "山手学院入口",
            "lat": "35.363581",
            "lng": "139.57266"
        },
        {
            "index": "17",
            "id": "00025683",
            "name": "本郷車庫前(横浜市栄区)",
            "lat": "35.362702",
            "lng": "139.574926"
        },
        {
            "index": "18",
            "id": "00126514",
            "name": "紅葉橋(横浜市栄区)",
            "lat": "35.360528",
            "lng": "139.577465"
        },
        {
            "index": "19",
            "id": "00126515",
            "name": "光明寺(横浜市栄区)",
            "lat": "35.358203",
            "lng": "139.57931"
        },
        {
            "index": "20",
            "id": "00126516",
            "name": "中島(横浜市栄区)",
            "lat": "35.353807",
            "lng": "139.579916"
        },
        {
            "index": "21",
            "id": "00126517",
            "name": "八軒谷戸",
            "lat": "35.349949",
            "lng": "139.580983"
        },
        {
            "index": "22",
            "id": "00126518",
            "name": "長倉町",
            "lat": "35.345998",
            "lng": "139.582028"
        },
        {
            "index": "23",
            "id": "00126519",
            "name": "上郷(横浜市栄区)",
            "lat": "35.34455",
            "lng": "139.582422"
        },
        {
            "index": "24",
            "id": "00126520",
            "name": "森の家前",
            "lat": "35.33978",
            "lng": "139.583959"
        },
        {
            "index": "25",
            "id": "00126521",
            "name": "横浜霊園前",
            "lat": "35.338713",
            "lng": "139.585042"
        },
        {
            "index": "26",
            "id": "00126522",
            "name": "隧道東口",
            "lat": "35.333924",
            "lng": "139.590745"
        },
        {
            "index": "27",
            "id": "00113828",
            "name": "相武隧道",
            "lat": "35.331615",
            "lng": "139.592324"
        },
        {
            "index": "28",
            "id": "00113829",
            "name": "朝比奈",
            "lat": "35.329198",
            "lng": "139.597322"
        },
        {
            "index": "29",
            "id": "00113604",
            "name": "大道中学校前",
            "lat": "35.328923",
            "lng": "139.602667"
        },
        {
            "index": "30",
            "id": "00113603",
            "name": "住宅前(横浜市金沢区)",
            "lat": "35.328938",
            "lng": "139.603509"
        },
        {
            "index": "31",
            "id": "00113602",
            "name": "西大道",
            "lat": "35.328847",
            "lng": "139.606116"
        },
        {
            "index": "32",
            "id": "00113601",
            "name": "大道(横浜市金沢区)",
            "lat": "35.328752",
            "lng": "139.606838"
        },
        {
            "index": "33",
            "id": "00113600",
            "name": "大道小学校前",
            "lat": "35.327561",
            "lng": "139.61007"
        },
        {
            "index": "34",
            "id": "00113599",
            "name": "六浦",
            "lat": "35.328069",
            "lng": "139.615235"
        },
        {
            "index": "35",
            "id": "00113598",
            "name": "上行寺",
            "lat": "35.328111",
            "lng": "139.617451"
        },
        {
            "index": "36",
            "id": "00113541",
            "name": "六浦橋",
            "lat": "35.32801",
            "lng": "139.620246"
        },
        {
            "index": "37",
            "id": "00130503",
            "name": "金沢八景",
            "lat": "35.331308",
            "lng": "139.621153"
        },
        {
            "index": "38",
            "id": "00113597",
            "name": "金沢八景駅",
            "lat": "35.33167",
            "lng": "139.620676"
        }
    ],
    "route_url": "https://www.kanachu.co.jp/dia/route/index/cid:0000802827/"
}
