{
    "system": "橋28",
    "busstops": [
        {
            "index": "1",
            "id": "00128970",
            "name": "橋本駅南口",
            "lat": "35.593907",
            "lng": "139.345728"
        },
        {
            "index": "2",
            "id": "00128971",
            "name": "橋本二丁目",
            "lat": "35.595232",
            "lng": "139.340162"
        },
        {
            "index": "3",
            "id": "00129000",
            "name": "緑区合同庁舎前(相模原市緑区)",
            "lat": "35.595908",
            "lng": "139.335586"
        },
        {
            "index": "4",
            "id": "00128968",
            "name": "上町(相模原市緑区)",
            "lat": "35.597906",
            "lng": "139.334771"
        },
        {
            "index": "5",
            "id": "00128967",
            "name": "大西(相模原市緑区)",
            "lat": "35.598241",
            "lng": "139.330491"
        },
        {
            "index": "6",
            "id": "00128966",
            "name": "相原台",
            "lat": "35.598383",
            "lng": "139.328313"
        },
        {
            "index": "7",
            "id": "00128965",
            "name": "相原中央",
            "lat": "35.598479",
            "lng": "139.325669"
        },
        {
            "index": "8",
            "id": "00128964",
            "name": "二本松(相模原市緑区)",
            "lat": "35.59845",
            "lng": "139.321176"
        },
        {
            "index": "9",
            "id": "00128963",
            "name": "森の上",
            "lat": "35.598283",
            "lng": "139.3169"
        },
        {
            "index": "10",
            "id": "00128962",
            "name": "東原宿",
            "lat": "35.598411",
            "lng": "139.313233"
        },
        {
            "index": "11",
            "id": "00128996",
            "name": "城山相原界",
            "lat": "35.600513",
            "lng": "139.313715"
        },
        {
            "index": "12",
            "id": "00129004",
            "name": "本郷(相模原市緑区)",
            "lat": "35.602358",
            "lng": "139.311286"
        },
        {
            "index": "13",
            "id": "00129005",
            "name": "砂(相模原市緑区)",
            "lat": "35.602465",
            "lng": "139.308351"
        },
        {
            "index": "14",
            "id": "00129006",
            "name": "町屋本町",
            "lat": "35.60333",
            "lng": "139.304098"
        },
        {
            "index": "15",
            "id": "00129007",
            "name": "広田小学校前",
            "lat": "35.603722",
            "lng": "139.30123"
        },
        {
            "index": "16",
            "id": "00129008",
            "name": "かたくりの里",
            "lat": "35.602619",
            "lng": "139.296392"
        },
        {
            "index": "17",
            "id": "00129009",
            "name": "若葉台七丁目",
            "lat": "35.598975",
            "lng": "139.294361"
        },
        {
            "index": "18",
            "id": "00129010",
            "name": "新若葉台",
            "lat": "35.59637",
            "lng": "139.294719"
        },
        {
            "index": "19",
            "id": "00128874",
            "name": "若葉台住宅",
            "lat": "35.596608",
            "lng": "139.290584"
        }
    ],
    "route_url": "https://www.kanachu.co.jp/dia/route/index/cid:0000803133/"
}
