{
    "system": "秦91",
    "busstops": [
        {
            "index": "1",
            "id": "00127683",
            "name": "二宮駅北口",
            "lat": "35.299089",
            "lng": "139.257381"
        },
        {
            "index": "2",
            "id": "00127791",
            "name": "元町(中郡二宮町)",
            "lat": "35.301632",
            "lng": "139.258545"
        },
        {
            "index": "3",
            "id": "00127790",
            "name": "堂面(中郡二宮町)",
            "lat": "35.30523",
            "lng": "139.255254"
        },
        {
            "index": "4",
            "id": "00127789",
            "name": "中島(中郡二宮町)",
            "lat": "35.307295",
            "lng": "139.252859"
        },
        {
            "index": "5",
            "id": "00127788",
            "name": "中里(中郡二宮町)",
            "lat": "35.308334",
            "lng": "139.248841"
        },
        {
            "index": "6",
            "id": "00127787",
            "name": "二宮高校入口",
            "lat": "35.311899",
            "lng": "139.245308"
        },
        {
            "index": "7",
            "id": "00127786",
            "name": "団地中央(中郡二宮町)",
            "lat": "35.31213",
            "lng": "139.243425"
        },
        {
            "index": "8",
            "id": "00127785",
            "name": "岩崎(中郡二宮町)",
            "lat": "35.314139",
            "lng": "139.244214"
        },
        {
            "index": "9",
            "id": "00127784",
            "name": "下谷(中郡二宮町)",
            "lat": "35.317764",
            "lng": "139.24249"
        },
        {
            "index": "10",
            "id": "00127783",
            "name": "一色(中郡二宮町)",
            "lat": "35.321212",
            "lng": "139.241207"
        },
        {
            "index": "11",
            "id": "00127782",
            "name": "梅ノ木(中郡二宮町)",
            "lat": "35.32373",
            "lng": "139.23989"
        },
        {
            "index": "12",
            "id": "00127781",
            "name": "五分一",
            "lat": "35.328226",
            "lng": "139.2365"
        },
        {
            "index": "13",
            "id": "00127780",
            "name": "下井ノ口",
            "lat": "35.331553",
            "lng": "139.235204"
        },
        {
            "index": "14",
            "id": "00127779",
            "name": "北窪入口",
            "lat": "35.335205",
            "lng": "139.232595"
        },
        {
            "index": "15",
            "id": "00127778",
            "name": "井ノ口小学校前",
            "lat": "35.339577",
            "lng": "139.232479"
        },
        {
            "index": "16",
            "id": "00127777",
            "name": "上井ノ口",
            "lat": "35.341607",
            "lng": "139.232324"
        },
        {
            "index": "17",
            "id": "00127776",
            "name": "原(足柄上郡中井町)",
            "lat": "35.345771",
            "lng": "139.233716"
        },
        {
            "index": "18",
            "id": "00127775",
            "name": "猪分",
            "lat": "35.348131",
            "lng": "139.234565"
        },
        {
            "index": "19",
            "id": "00026081",
            "name": "東名秦野",
            "lat": "35.351729",
            "lng": "139.235671"
        },
        {
            "index": "20",
            "id": "00127774",
            "name": "南が丘東",
            "lat": "35.356509",
            "lng": "139.234875"
        },
        {
            "index": "21",
            "id": "00127773",
            "name": "南が丘五丁目(秦野市)",
            "lat": "35.354435",
            "lng": "139.232699"
        },
        {
            "index": "22",
            "id": "00127772",
            "name": "南が丘公園前",
            "lat": "35.352008",
            "lng": "139.230594"
        },
        {
            "index": "23",
            "id": "00127771",
            "name": "南が丘三丁目",
            "lat": "35.352821",
            "lng": "139.226139"
        },
        {
            "index": "24",
            "id": "00127770",
            "name": "南が丘センター",
            "lat": "35.355198",
            "lng": "139.226755"
        },
        {
            "index": "25",
            "id": "00127769",
            "name": "秦野総合高校前",
            "lat": "35.358687",
            "lng": "139.225587"
        },
        {
            "index": "26",
            "id": "00127997",
            "name": "南が丘一丁目(秦野市)",
            "lat": "35.359895",
            "lng": "139.225288"
        },
        {
            "index": "27",
            "id": "00127768",
            "name": "小原台入口(秦野市)",
            "lat": "35.36268",
            "lng": "139.226772"
        },
        {
            "index": "28",
            "id": "00128038",
            "name": "上尾尻橋",
            "lat": "35.366082",
            "lng": "139.226163"
        },
        {
            "index": "29",
            "id": "00128054",
            "name": "秦野駅南口",
            "lat": "35.370145",
            "lng": "139.225385"
        }
    ],
    "route_url": "https://www.kanachu.co.jp/dia/route/index/cid:0000803959/"
}
