{
    "system": "い12",
    "busstops": [
        {
            "index": "1",
            "id": "00126783",
            "name": "立場ターミナル",
            "lat": "35.41386",
            "lng": "139.50033"
        },
        {
            "index": "2",
            "id": "00126908",
            "name": "立場駅",
            "lat": "35.415392",
            "lng": "139.49956"
        },
        {
            "index": "3",
            "id": "00126933",
            "name": "三ツ俣",
            "lat": "35.419392",
            "lng": "139.500451"
        },
        {
            "index": "4",
            "id": "00126934",
            "name": "横浜泉郵便局前",
            "lat": "35.421473",
            "lng": "139.501089"
        },
        {
            "index": "5",
            "id": "00126935",
            "name": "芝原(横浜市泉区)",
            "lat": "35.423717",
            "lng": "139.501642"
        },
        {
            "index": "6",
            "id": "00126936",
            "name": "富士塚(横浜市泉区)",
            "lat": "35.425919",
            "lng": "139.501127"
        },
        {
            "index": "7",
            "id": "00126904",
            "name": "泉警察署前",
            "lat": "35.427737",
            "lng": "139.49417"
        },
        {
            "index": "8",
            "id": "00126932",
            "name": "いずみ野駅",
            "lat": "35.429949",
            "lng": "139.494727"
        },
        {
            "index": "9",
            "id": "00126940",
            "name": "グリーンハイム前",
            "lat": "35.432482",
            "lng": "139.494099"
        },
        {
            "index": "10",
            "id": "00126939",
            "name": "松陽高校前",
            "lat": "35.437034",
            "lng": "139.495279"
        },
        {
            "index": "11",
            "id": "00126941",
            "name": "三家(横浜市泉区)",
            "lat": "35.438641",
            "lng": "139.490072"
        },
        {
            "index": "12",
            "id": "00126942",
            "name": "早稲田(横浜市泉区)",
            "lat": "35.438474",
            "lng": "139.486367"
        },
        {
            "index": "13",
            "id": "00126800",
            "name": "ひなた山第一",
            "lat": "35.441259",
            "lng": "139.484383"
        },
        {
            "index": "14",
            "id": "00126801",
            "name": "ひなた山バザール前",
            "lat": "35.444414",
            "lng": "139.484155"
        },
        {
            "index": "15",
            "id": "00126802",
            "name": "ひなた山第二",
            "lat": "35.446753",
            "lng": "139.483969"
        },
        {
            "index": "16",
            "id": "00126803",
            "name": "下瀬谷坂上",
            "lat": "35.449658",
            "lng": "139.483666"
        },
        {
            "index": "17",
            "id": "00126804",
            "name": "下瀬谷",
            "lat": "35.451891",
            "lng": "139.482016"
        }
    ],
    "route_url": "https://www.kanachu.co.jp/dia/route/index/cid:0000800438/"
}
