{
    "system": "町39",
    "busstops": [
        {
            "index": "1",
            "id": "00025625",
            "name": "町田バスセンター",
            "lat": "35.543739",
            "lng": "139.444028"
        },
        {
            "index": "2",
            "id": "00129356",
            "name": "町田市役所市民ホール前",
            "lat": "35.547266",
            "lng": "139.438906"
        },
        {
            "index": "3",
            "id": "00129357",
            "name": "第四小学校前(町田市)",
            "lat": "35.550343",
            "lng": "139.438207"
        },
        {
            "index": "4",
            "id": "00129358",
            "name": "森野三丁目",
            "lat": "35.552678",
            "lng": "139.439366"
        },
        {
            "index": "5",
            "id": "00129359",
            "name": "市民病院前(町田市)",
            "lat": "35.555545",
            "lng": "139.435749"
        },
        {
            "index": "6",
            "id": "00129360",
            "name": "浄水場前(町田市)",
            "lat": "35.557661",
            "lng": "139.433249"
        },
        {
            "index": "7",
            "id": "00129361",
            "name": "滝の沢(町田市)",
            "lat": "35.559716",
            "lng": "139.429759"
        },
        {
            "index": "8",
            "id": "00129362",
            "name": "木曽住宅",
            "lat": "35.563788",
            "lng": "139.426096"
        },
        {
            "index": "9",
            "id": "00129363",
            "name": "三家(町田市)",
            "lat": "35.564575",
            "lng": "139.425469"
        },
        {
            "index": "10",
            "id": "00129364",
            "name": "木曽(町田市)",
            "lat": "35.568528",
            "lng": "139.4225"
        },
        {
            "index": "11",
            "id": "00129494",
            "name": "忠生公園入口",
            "lat": "35.571423",
            "lng": "139.420864"
        },
        {
            "index": "12",
            "id": "00129365",
            "name": "上宿(町田市)",
            "lat": "35.574575",
            "lng": "139.418673"
        },
        {
            "index": "13",
            "id": "00129366",
            "name": "下根岸(町田市)",
            "lat": "35.576358",
            "lng": "139.414946"
        },
        {
            "index": "14",
            "id": "00129367",
            "name": "根岸(根岸町/町田市)",
            "lat": "35.577754",
            "lng": "139.412485"
        },
        {
            "index": "15",
            "id": "00129515",
            "name": "忠生都営住宅前",
            "lat": "35.578608",
            "lng": "139.40965"
        },
        {
            "index": "16",
            "id": "00129485",
            "name": "桜美林学園東",
            "lat": "35.580447",
            "lng": "139.408503"
        },
        {
            "index": "17",
            "id": "00129486",
            "name": "尾根緑道入口",
            "lat": "35.583705",
            "lng": "139.409425"
        },
        {
            "index": "18",
            "id": "00129487",
            "name": "市立室内プール",
            "lat": "35.586402",
            "lng": "139.411984"
        },
        {
            "index": "19",
            "id": "00129408",
            "name": "日大三高入口",
            "lat": "35.58941",
            "lng": "139.418755"
        },
        {
            "index": "20",
            "id": "00129407",
            "name": "日影橋",
            "lat": "35.586793",
            "lng": "139.420564"
        },
        {
            "index": "21",
            "id": "00129369",
            "name": "図師大橋",
            "lat": "35.582917",
            "lng": "139.42443"
        },
        {
            "index": "22",
            "id": "00129370",
            "name": "図師",
            "lat": "35.583116",
            "lng": "139.425669"
        },
        {
            "index": "23",
            "id": "00129371",
            "name": "並木(町田市)",
            "lat": "35.585369",
            "lng": "139.43315"
        },
        {
            "index": "24",
            "id": "00129372",
            "name": "神学校(町田市)",
            "lat": "35.585944",
            "lng": "139.436981"
        },
        {
            "index": "25",
            "id": "00129373",
            "name": "野津田車庫",
            "lat": "35.587205",
            "lng": "139.441257"
        }
    ],
    "route_url": "https://www.kanachu.co.jp/dia/route/index/cid:0000802468/"
}
