{
    "system": "秦91",
    "busstops": [
        {
            "index": "1",
            "id": "00128054",
            "name": "秦野駅南口",
            "lat": "35.370078",
            "lng": "139.225524"
        },
        {
            "index": "2",
            "id": "00128038",
            "name": "上尾尻橋",
            "lat": "35.366209",
            "lng": "139.226281"
        },
        {
            "index": "3",
            "id": "00128039",
            "name": "小原台",
            "lat": "35.363127",
            "lng": "139.226858"
        },
        {
            "index": "4",
            "id": "00127768",
            "name": "小原台入口(秦野市)",
            "lat": "35.361407",
            "lng": "139.227181"
        },
        {
            "index": "5",
            "id": "00127997",
            "name": "南が丘一丁目(秦野市)",
            "lat": "35.359871",
            "lng": "139.226125"
        },
        {
            "index": "6",
            "id": "00127769",
            "name": "秦野総合高校前",
            "lat": "35.358936",
            "lng": "139.225367"
        },
        {
            "index": "7",
            "id": "00127770",
            "name": "南が丘センター",
            "lat": "35.355087",
            "lng": "139.226871"
        },
        {
            "index": "8",
            "id": "00127771",
            "name": "南が丘三丁目",
            "lat": "35.352975",
            "lng": "139.226241"
        },
        {
            "index": "9",
            "id": "00127772",
            "name": "南が丘公園前",
            "lat": "35.352432",
            "lng": "139.22992"
        },
        {
            "index": "10",
            "id": "00127773",
            "name": "南が丘五丁目(秦野市)",
            "lat": "35.354458",
            "lng": "139.232549"
        },
        {
            "index": "11",
            "id": "00127774",
            "name": "南が丘東",
            "lat": "35.356581",
            "lng": "139.23459"
        },
        {
            "index": "12",
            "id": "00026081",
            "name": "東名秦野",
            "lat": "35.351672",
            "lng": "139.235942"
        },
        {
            "index": "13",
            "id": "00127775",
            "name": "猪分",
            "lat": "35.348113",
            "lng": "139.234687"
        },
        {
            "index": "14",
            "id": "00127776",
            "name": "原(足柄上郡中井町)",
            "lat": "35.345919",
            "lng": "139.233928"
        },
        {
            "index": "15",
            "id": "00127777",
            "name": "上井ノ口",
            "lat": "35.341531",
            "lng": "139.23241"
        },
        {
            "index": "16",
            "id": "00127778",
            "name": "井ノ口小学校前",
            "lat": "35.33909",
            "lng": "139.232629"
        },
        {
            "index": "17",
            "id": "00127779",
            "name": "北窪入口",
            "lat": "35.336373",
            "lng": "139.232766"
        },
        {
            "index": "18",
            "id": "00127780",
            "name": "下井ノ口",
            "lat": "35.331937",
            "lng": "139.235245"
        },
        {
            "index": "19",
            "id": "00127781",
            "name": "五分一",
            "lat": "35.328293",
            "lng": "139.236575"
        },
        {
            "index": "20",
            "id": "00127782",
            "name": "梅ノ木(中郡二宮町)",
            "lat": "35.323728",
            "lng": "139.239949"
        },
        {
            "index": "21",
            "id": "00127783",
            "name": "一色(中郡二宮町)",
            "lat": "35.321153",
            "lng": "139.241339"
        },
        {
            "index": "22",
            "id": "00127784",
            "name": "下谷(中郡二宮町)",
            "lat": "35.317757",
            "lng": "139.242566"
        },
        {
            "index": "23",
            "id": "00127785",
            "name": "岩崎(中郡二宮町)",
            "lat": "35.314192",
            "lng": "139.244259"
        },
        {
            "index": "24",
            "id": "00127786",
            "name": "団地中央(中郡二宮町)",
            "lat": "35.312088",
            "lng": "139.243463"
        },
        {
            "index": "25",
            "id": "00127787",
            "name": "二宮高校入口",
            "lat": "35.311871",
            "lng": "139.245298"
        },
        {
            "index": "26",
            "id": "00127788",
            "name": "中里(中郡二宮町)",
            "lat": "35.308627",
            "lng": "139.250211"
        },
        {
            "index": "27",
            "id": "00127789",
            "name": "中島(中郡二宮町)",
            "lat": "35.307516",
            "lng": "139.25288"
        },
        {
            "index": "28",
            "id": "00127790",
            "name": "堂面(中郡二宮町)",
            "lat": "35.305482",
            "lng": "139.255251"
        },
        {
            "index": "29",
            "id": "00127791",
            "name": "元町(中郡二宮町)",
            "lat": "35.301529",
            "lng": "139.257673"
        },
        {
            "index": "30",
            "id": "00127683",
            "name": "二宮駅北口",
            "lat": "35.29915",
            "lng": "139.257459"
        }
    ],
    "route_url": "https://www.kanachu.co.jp/dia/route/index/cid:0000800501/"
}
