{
    "system": "秦50",
    "busstops": [
        {
            "index": "1",
            "id": "00127715",
            "name": "秦野駅",
            "lat": "35.370353",
            "lng": "139.226219"
        },
        {
            "index": "2",
            "id": "00127716",
            "name": "大川橋(秦野市)",
            "lat": "35.372976",
            "lng": "139.224976"
        },
        {
            "index": "3",
            "id": "00127717",
            "name": "上宿通り",
            "lat": "35.373762",
            "lng": "139.226425"
        },
        {
            "index": "4",
            "id": "00127876",
            "name": "大道(秦野市)",
            "lat": "35.376541",
            "lng": "139.225397"
        },
        {
            "index": "5",
            "id": "00127877",
            "name": "上大道",
            "lat": "35.377516",
            "lng": "139.223557"
        },
        {
            "index": "6",
            "id": "00127878",
            "name": "宮前(秦野市)",
            "lat": "35.378613",
            "lng": "139.221286"
        },
        {
            "index": "7",
            "id": "00127879",
            "name": "宮上(秦野市)",
            "lat": "35.38106",
            "lng": "139.216998"
        },
        {
            "index": "8",
            "id": "00127880",
            "name": "榎木堂",
            "lat": "35.382433",
            "lng": "139.214168"
        },
        {
            "index": "9",
            "id": "00127881",
            "name": "六反地",
            "lat": "35.383767",
            "lng": "139.212454"
        },
        {
            "index": "10",
            "id": "00127882",
            "name": "田原入口",
            "lat": "35.386488",
            "lng": "139.209125"
        },
        {
            "index": "11",
            "id": "00127883",
            "name": "羽根入口",
            "lat": "35.389414",
            "lng": "139.204812"
        },
        {
            "index": "12",
            "id": "00127884",
            "name": "三屋入口",
            "lat": "35.391503",
            "lng": "139.20183"
        },
        {
            "index": "13",
            "id": "00127885",
            "name": "戸川入口",
            "lat": "35.394814",
            "lng": "139.197371"
        },
        {
            "index": "14",
            "id": "00127886",
            "name": "菩提原",
            "lat": "35.397906",
            "lng": "139.195661"
        },
        {
            "index": "15",
            "id": "00127887",
            "name": "菩提(秦野市)",
            "lat": "35.399649",
            "lng": "139.193666"
        },
        {
            "index": "16",
            "id": "00127888",
            "name": "横野入口",
            "lat": "35.400773",
            "lng": "139.189223"
        }
    ],
    "route_url": "https://www.kanachu.co.jp/dia/route/index/cid:0000800178/"
}
