{
    "system": "船07",
    "busstops": [
        {
            "index": "1",
            "id": "00126596",
            "name": "栄プール",
            "lat": "35.342698",
            "lng": "139.579148"
        },
        {
            "index": "2",
            "id": "00126525",
            "name": "上郷ネオポリス",
            "lat": "35.346686",
            "lng": "139.577881"
        },
        {
            "index": "3",
            "id": "00126524",
            "name": "西ヶ谷",
            "lat": "35.35119",
            "lng": "139.57768"
        },
        {
            "index": "4",
            "id": "00126523",
            "name": "西ヶ谷入口",
            "lat": "35.352201",
            "lng": "139.578661"
        },
        {
            "index": "5",
            "id": "00126516",
            "name": "中島(横浜市栄区)",
            "lat": "35.354673",
            "lng": "139.579888"
        },
        {
            "index": "6",
            "id": "00126515",
            "name": "光明寺(横浜市栄区)",
            "lat": "35.357884",
            "lng": "139.57946"
        },
        {
            "index": "7",
            "id": "00126514",
            "name": "紅葉橋(横浜市栄区)",
            "lat": "35.360541",
            "lng": "139.577308"
        },
        {
            "index": "8",
            "id": "00025683",
            "name": "本郷車庫前(横浜市栄区)",
            "lat": "35.362621",
            "lng": "139.574725"
        },
        {
            "index": "9",
            "id": "00126513",
            "name": "山手学院入口",
            "lat": "35.363589",
            "lng": "139.572433"
        },
        {
            "index": "10",
            "id": "00126512",
            "name": "稲荷森",
            "lat": "35.364251",
            "lng": "139.568941"
        },
        {
            "index": "11",
            "id": "00126511",
            "name": "中野町",
            "lat": "35.363833",
            "lng": "139.566972"
        },
        {
            "index": "12",
            "id": "00126510",
            "name": "本郷(横浜市栄区)",
            "lat": "35.363519",
            "lng": "139.564459"
        },
        {
            "index": "13",
            "id": "00126509",
            "name": "本郷小学校前",
            "lat": "35.36335",
            "lng": "139.560819"
        },
        {
            "index": "14",
            "id": "00126508",
            "name": "南河内(横浜市栄区)",
            "lat": "35.363534",
            "lng": "139.558282"
        },
        {
            "index": "15",
            "id": "00126507",
            "name": "天神橋(横浜市栄区)",
            "lat": "35.363256",
            "lng": "139.555255"
        },
        {
            "index": "16",
            "id": "00126609",
            "name": "栄警察署前",
            "lat": "35.362342",
            "lng": "139.553224"
        },
        {
            "index": "17",
            "id": "00126506",
            "name": "公田",
            "lat": "35.361053",
            "lng": "139.550497"
        },
        {
            "index": "18",
            "id": "00126505",
            "name": "鎌倉女子大前",
            "lat": "35.360113",
            "lng": "139.546834"
        },
        {
            "index": "19",
            "id": "00126504",
            "name": "平島(鎌倉市)",
            "lat": "35.360823",
            "lng": "139.544062"
        },
        {
            "index": "20",
            "id": "00126503",
            "name": "笠間十字路",
            "lat": "35.361021",
            "lng": "139.539279"
        },
        {
            "index": "21",
            "id": "00126502",
            "name": "笠間町",
            "lat": "35.360496",
            "lng": "139.537543"
        },
        {
            "index": "22",
            "id": "00126501",
            "name": "岩井口",
            "lat": "35.359325",
            "lng": "139.535652"
        },
        {
            "index": "23",
            "id": "00126594",
            "name": "大船駅(横浜市栄区)",
            "lat": "35.355998",
            "lng": "139.533269"
        }
    ],
    "route_url": "https://www.kanachu.co.jp/dia/route/index/cid:0000803966/"
}
