{
    "system": "コ09",
    "busstops": [
        {
            "index": "1",
            "id": "00127153",
            "name": "市立病院(茅ケ崎市)",
            "lat": "35.340266",
            "lng": "139.415108"
        },
        {
            "index": "2",
            "id": "00127138",
            "name": "ニュータウン入口(茅ケ崎市)",
            "lat": "35.343988",
            "lng": "139.412227"
        },
        {
            "index": "3",
            "id": "00127139",
            "name": "鶴が台入口",
            "lat": "35.346243",
            "lng": "139.41307"
        },
        {
            "index": "4",
            "id": "00127319",
            "name": "鶴が台中学校南",
            "lat": "35.347377",
            "lng": "139.41156"
        },
        {
            "index": "5",
            "id": "00127154",
            "name": "鶴が台中学校前",
            "lat": "35.348077",
            "lng": "139.410505"
        },
        {
            "index": "6",
            "id": "00127320",
            "name": "甘沼向原",
            "lat": "35.350766",
            "lng": "139.409671"
        },
        {
            "index": "7",
            "id": "00127157",
            "name": "香川小学校入口",
            "lat": "35.35271",
            "lng": "139.409044"
        },
        {
            "index": "8",
            "id": "00127321",
            "name": "教会前(香川/茅ケ崎市)",
            "lat": "35.354034",
            "lng": "139.407027"
        },
        {
            "index": "9",
            "id": "00127322",
            "name": "香川小学校プール前",
            "lat": "35.354909",
            "lng": "139.405149"
        },
        {
            "index": "10",
            "id": "00127323",
            "name": "分教場跡",
            "lat": "35.355106",
            "lng": "139.404189"
        },
        {
            "index": "11",
            "id": "00127324",
            "name": "香川自治会館前",
            "lat": "35.355362",
            "lng": "139.403211"
        },
        {
            "index": "12",
            "id": "00127325",
            "name": "閑居山入口",
            "lat": "35.355452",
            "lng": "139.401528"
        },
        {
            "index": "13",
            "id": "00127326",
            "name": "香川駅",
            "lat": "35.355679",
            "lng": "139.400027"
        },
        {
            "index": "14",
            "id": "00127327",
            "name": "香川南",
            "lat": "35.359133",
            "lng": "139.400155"
        },
        {
            "index": "15",
            "id": "00127328",
            "name": "香川北",
            "lat": "35.361027",
            "lng": "139.400984"
        },
        {
            "index": "16",
            "id": "00127329",
            "name": "北陵高校入口",
            "lat": "35.362698",
            "lng": "139.400437"
        },
        {
            "index": "17",
            "id": "00127330",
            "name": "西方(茅ケ崎市)",
            "lat": "35.364361",
            "lng": "139.401971"
        },
        {
            "index": "18",
            "id": "00127331",
            "name": "下寺尾(茅ケ崎市)",
            "lat": "35.364796",
            "lng": "139.403484"
        },
        {
            "index": "19",
            "id": "00127332",
            "name": "みずき北",
            "lat": "35.364917",
            "lng": "139.405635"
        },
        {
            "index": "20",
            "id": "00127333",
            "name": "北陽中学校入口",
            "lat": "35.365265",
            "lng": "139.409109"
        },
        {
            "index": "21",
            "id": "00127334",
            "name": "カトレアホーム湘南さくら",
            "lat": "35.3662",
            "lng": "139.411251"
        },
        {
            "index": "22",
            "id": "00127149",
            "name": "茅ヶ崎新北陵病院",
            "lat": "35.367501",
            "lng": "139.413831"
        },
        {
            "index": "23",
            "id": "00127148",
            "name": "文教大学",
            "lat": "35.368845",
            "lng": "139.415999"
        },
        {
            "index": "24",
            "id": "00127348",
            "name": "行谷",
            "lat": "35.370415",
            "lng": "139.414208"
        },
        {
            "index": "25",
            "id": "00127349",
            "name": "里山公園西駐車場前",
            "lat": "35.373097",
            "lng": "139.414604"
        },
        {
            "index": "26",
            "id": "00127350",
            "name": "里山公園平成の森前",
            "lat": "35.37339",
            "lng": "139.416725"
        },
        {
            "index": "27",
            "id": "00127335",
            "name": "里山公園",
            "lat": "35.373387",
            "lng": "139.41951"
        },
        {
            "index": "28",
            "id": "00127336",
            "name": "芹沢中部上",
            "lat": "35.373759",
            "lng": "139.422028"
        },
        {
            "index": "29",
            "id": "00127340",
            "name": "芹沢中部(善谷寺前/茅ケ崎市)",
            "lat": "35.375666",
            "lng": "139.421559"
        },
        {
            "index": "30",
            "id": "00127341",
            "name": "芹沢中部下",
            "lat": "35.378064",
            "lng": "139.420774"
        },
        {
            "index": "31",
            "id": "00127342",
            "name": "芹沢細紺",
            "lat": "35.380231",
            "lng": "139.420657"
        },
        {
            "index": "32",
            "id": "00127343",
            "name": "芹沢台田(斎場入口/茅ケ崎市)",
            "lat": "35.38313",
            "lng": "139.422274"
        },
        {
            "index": "33",
            "id": "00127344",
            "name": "芹沢細谷入口",
            "lat": "35.381099",
            "lng": "139.424918"
        },
        {
            "index": "34",
            "id": "00130309",
            "name": "芹沢スポーツ広場",
            "lat": "35.37739",
            "lng": "139.423466"
        },
        {
            "index": "35",
            "id": "00130310",
            "name": "芹沢清水台上",
            "lat": "35.373676",
            "lng": "139.423815"
        },
        {
            "index": "36",
            "id": "00127337",
            "name": "小出小学校西",
            "lat": "35.371598",
            "lng": "139.422458"
        },
        {
            "index": "37",
            "id": "00127147",
            "name": "小出小学校前",
            "lat": "35.371352",
            "lng": "139.422741"
        },
        {
            "index": "38",
            "id": "00127146",
            "name": "小出二本松",
            "lat": "35.369975",
            "lng": "139.423683"
        },
        {
            "index": "39",
            "id": "00127145",
            "name": "堤坂下",
            "lat": "35.365216",
            "lng": "139.42167"
        },
        {
            "index": "40",
            "id": "00127356",
            "name": "堤自治会館前",
            "lat": "35.364608",
            "lng": "139.42066"
        },
        {
            "index": "41",
            "id": "00127338",
            "name": "堤仲谷",
            "lat": "35.363666",
            "lng": "139.417408"
        },
        {
            "index": "42",
            "id": "00127339",
            "name": "浄見寺入口",
            "lat": "35.363566",
            "lng": "139.411925"
        },
        {
            "index": "43",
            "id": "00127332",
            "name": "みずき北",
            "lat": "35.364853",
            "lng": "139.406142"
        },
        {
            "index": "44",
            "id": "00127331",
            "name": "下寺尾(茅ケ崎市)",
            "lat": "35.36487",
            "lng": "139.404379"
        },
        {
            "index": "45",
            "id": "00127330",
            "name": "西方(茅ケ崎市)",
            "lat": "35.364385",
            "lng": "139.402373"
        },
        {
            "index": "46",
            "id": "00127329",
            "name": "北陵高校入口",
            "lat": "35.362869",
            "lng": "139.400442"
        },
        {
            "index": "47",
            "id": "00127328",
            "name": "香川北",
            "lat": "35.360301",
            "lng": "139.401123"
        },
        {
            "index": "48",
            "id": "00127327",
            "name": "香川南",
            "lat": "35.359162",
            "lng": "139.400292"
        },
        {
            "index": "49",
            "id": "00127326",
            "name": "香川駅",
            "lat": "35.356099",
            "lng": "139.399798"
        },
        {
            "index": "50",
            "id": "00127325",
            "name": "閑居山入口",
            "lat": "35.355522",
            "lng": "139.402067"
        },
        {
            "index": "51",
            "id": "00127323",
            "name": "分教場跡",
            "lat": "35.355216",
            "lng": "139.404213"
        },
        {
            "index": "52",
            "id": "00127322",
            "name": "香川小学校プール前",
            "lat": "35.354988",
            "lng": "139.404996"
        },
        {
            "index": "53",
            "id": "00127321",
            "name": "教会前(香川/茅ケ崎市)",
            "lat": "35.353983",
            "lng": "139.407442"
        },
        {
            "index": "54",
            "id": "00127157",
            "name": "香川小学校入口",
            "lat": "35.3528",
            "lng": "139.40913"
        },
        {
            "index": "55",
            "id": "00127320",
            "name": "甘沼向原",
            "lat": "35.350934",
            "lng": "139.40973"
        },
        {
            "index": "56",
            "id": "00127154",
            "name": "鶴が台中学校前",
            "lat": "35.348272",
            "lng": "139.410578"
        },
        {
            "index": "57",
            "id": "00127319",
            "name": "鶴が台中学校南",
            "lat": "35.347309",
            "lng": "139.412233"
        },
        {
            "index": "58",
            "id": "00127139",
            "name": "鶴が台入口",
            "lat": "35.345364",
            "lng": "139.412823"
        },
        {
            "index": "59",
            "id": "00127138",
            "name": "ニュータウン入口(茅ケ崎市)",
            "lat": "35.342677",
            "lng": "139.412426"
        },
        {
            "index": "60",
            "id": "00127153",
            "name": "市立病院(茅ケ崎市)",
            "lat": "35.340323",
            "lng": "139.414955"
        }
    ],
    "route_url": "https://www.kanachu.co.jp/dia/route/index/cid:0000801762/"
}
