{
    "system": "",
    "busstops": [
        {
            "index": "1",
            "id": "00129406",
            "name": "小山田桜台",
            "lat": "35.5881",
            "lng": "139.402533"
        },
        {
            "index": "2",
            "id": "00129402",
            "name": "桜台入口(町田市)",
            "lat": "35.58837",
            "lng": "139.406675"
        },
        {
            "index": "3",
            "id": "00130131",
            "name": "清住平",
            "lat": "35.591814",
            "lng": "139.408689"
        },
        {
            "index": "4",
            "id": "00129410",
            "name": "大泉寺",
            "lat": "35.596406",
            "lng": "139.410633"
        },
        {
            "index": "5",
            "id": "00129411",
            "name": "山の端",
            "lat": "35.596906",
            "lng": "139.408966"
        },
        {
            "index": "6",
            "id": "00130486",
            "name": "大善倶楽部",
            "lat": "35.602256",
            "lng": "139.408164"
        },
        {
            "index": "7",
            "id": "00130487",
            "name": "山中集会所",
            "lat": "35.608251",
            "lng": "139.407458"
        },
        {
            "index": "8",
            "id": "00020983",
            "name": "唐木田駅東",
            "lat": "35.615952",
            "lng": "139.411952"
        },
        {
            "index": "9",
            "id": "00020769",
            "name": "多摩南部地域病院",
            "lat": "35.622406",
            "lng": "139.41484"
        }
    ],
    "route_url": "https://www.kanachu.co.jp/dia/route/index/cid:0000803647/"
}
