{
    "system": "平15",
    "busstops": [
        {
            "index": "1",
            "id": "00128637",
            "name": "本厚木駅南口",
            "lat": "35.439189",
            "lng": "139.36487"
        },
        {
            "index": "2",
            "id": "00128634",
            "name": "岡田一本杉(新道/厚木市)",
            "lat": "35.428445",
            "lng": "139.365833"
        },
        {
            "index": "3",
            "id": "00128632",
            "name": "岡田電話局前",
            "lat": "35.418363",
            "lng": "139.364637"
        },
        {
            "index": "4",
            "id": "00128625",
            "name": "酒井(新道/厚木市)",
            "lat": "35.416459",
            "lng": "139.363988"
        },
        {
            "index": "5",
            "id": "00128609",
            "name": "戸田(新道/厚木市)",
            "lat": "35.408537",
            "lng": "139.361758"
        },
        {
            "index": "6",
            "id": "00130528",
            "name": "ツインシティ大神",
            "lat": "35.392561",
            "lng": "139.36733"
        },
        {
            "index": "7",
            "id": "00127670",
            "name": "大神(新道/平塚市)",
            "lat": "35.388506",
            "lng": "139.361736"
        },
        {
            "index": "8",
            "id": "00127654",
            "name": "神田小学校前(平塚市)",
            "lat": "35.376807",
            "lng": "139.361866"
        },
        {
            "index": "9",
            "id": "00127653",
            "name": "駒返橋入口",
            "lat": "35.373975",
            "lng": "139.361825"
        },
        {
            "index": "10",
            "id": "00127652",
            "name": "田村団地入口",
            "lat": "35.370728",
            "lng": "139.361746"
        },
        {
            "index": "11",
            "id": "00127628",
            "name": "東真土",
            "lat": "35.354501",
            "lng": "139.357"
        },
        {
            "index": "12",
            "id": "00127464",
            "name": "平塚駅北口",
            "lat": "35.329356",
            "lng": "139.350577"
        }
    ],
    "route_url": "https://www.kanachu.co.jp/dia/route/index/cid:0000803318/"
}
