{
    "system": "愛15",
    "busstops": [
        {
            "index": "1",
            "id": "00128496",
            "name": "愛甲石田駅",
            "lat": "35.418042",
            "lng": "139.344115"
        },
        {
            "index": "2",
            "id": "00128495",
            "name": "宮前(厚木市)",
            "lat": "35.420482",
            "lng": "139.341804"
        },
        {
            "index": "3",
            "id": "00128529",
            "name": "堂山",
            "lat": "35.421563",
            "lng": "139.339575"
        },
        {
            "index": "4",
            "id": "00128528",
            "name": "愛甲橋",
            "lat": "35.42344",
            "lng": "139.335608"
        },
        {
            "index": "5",
            "id": "00128527",
            "name": "上愛甲",
            "lat": "35.42479",
            "lng": "139.332824"
        },
        {
            "index": "6",
            "id": "00128526",
            "name": "愛甲原住宅",
            "lat": "35.423832",
            "lng": "139.331303"
        },
        {
            "index": "7",
            "id": "00128525",
            "name": "大上(厚木市)",
            "lat": "35.426201",
            "lng": "139.329291"
        },
        {
            "index": "8",
            "id": "00128524",
            "name": "聖木",
            "lat": "35.428788",
            "lng": "139.32869"
        },
        {
            "index": "9",
            "id": "00128659",
            "name": "毛利台南入口",
            "lat": "35.432849",
            "lng": "139.330541"
        },
        {
            "index": "10",
            "id": "00128447",
            "name": "上長谷(厚木市)",
            "lat": "35.432797",
            "lng": "139.32641"
        },
        {
            "index": "11",
            "id": "00128448",
            "name": "愛名入口",
            "lat": "35.43444",
            "lng": "139.323219"
        },
        {
            "index": "12",
            "id": "00128449",
            "name": "小野宮前",
            "lat": "35.434018",
            "lng": "139.319281"
        },
        {
            "index": "13",
            "id": "00128450",
            "name": "小野橋(厚木市)",
            "lat": "35.434765",
            "lng": "139.315365"
        },
        {
            "index": "14",
            "id": "00128517",
            "name": "榎田",
            "lat": "35.436942",
            "lng": "139.313278"
        },
        {
            "index": "15",
            "id": "00128497",
            "name": "若宮橋(厚木市)",
            "lat": "35.440685",
            "lng": "139.311926"
        },
        {
            "index": "16",
            "id": "00128645",
            "name": "森の里一丁目",
            "lat": "35.440807",
            "lng": "139.307095"
        },
        {
            "index": "17",
            "id": "00128646",
            "name": "森の里二丁目",
            "lat": "35.442504",
            "lng": "139.305817"
        },
        {
            "index": "18",
            "id": "00128647",
            "name": "森の里小学校前",
            "lat": "35.445198",
            "lng": "139.305328"
        },
        {
            "index": "19",
            "id": "00128648",
            "name": "森の里三丁目",
            "lat": "35.446687",
            "lng": "139.304651"
        },
        {
            "index": "20",
            "id": "00128668",
            "name": "森の里中学校前",
            "lat": "35.44897",
            "lng": "139.303953"
        },
        {
            "index": "21",
            "id": "00128667",
            "name": "北センター(厚木市)",
            "lat": "35.452748",
            "lng": "139.304408"
        },
        {
            "index": "22",
            "id": "00128666",
            "name": "森の里五丁目",
            "lat": "35.453605",
            "lng": "139.304564"
        },
        {
            "index": "23",
            "id": "00128649",
            "name": "森の里",
            "lat": "35.455678",
            "lng": "139.304065"
        }
    ],
    "route_url": "https://www.kanachu.co.jp/dia/route/index/cid:0000800386/"
}
