{
    "system": "鶴37",
    "busstops": [
        {
            "index": "1",
            "id": "00049296",
            "name": "鶴川駅",
            "lat": "35.583469",
            "lng": "139.480262"
        },
        {
            "index": "2",
            "id": "00129439",
            "name": "上能ヶ谷",
            "lat": "35.583536",
            "lng": "139.475986"
        },
        {
            "index": "3",
            "id": "00129438",
            "name": "金井入口",
            "lat": "35.58492",
            "lng": "139.472259"
        },
        {
            "index": "4",
            "id": "00129437",
            "name": "下大蔵",
            "lat": "35.586771",
            "lng": "139.470134"
        },
        {
            "index": "5",
            "id": "00129436",
            "name": "鶴川市民センター入口",
            "lat": "35.588125",
            "lng": "139.46581"
        },
        {
            "index": "6",
            "id": "00129435",
            "name": "大蔵(鶴川郵便局前/町田市)",
            "lat": "35.588407",
            "lng": "139.463364"
        },
        {
            "index": "7",
            "id": "00129434",
            "name": "川島入口(町田市)",
            "lat": "35.588666",
            "lng": "139.457029"
        },
        {
            "index": "8",
            "id": "00129433",
            "name": "綾部入口",
            "lat": "35.588633",
            "lng": "139.454695"
        },
        {
            "index": "9",
            "id": "00129430",
            "name": "袋橋",
            "lat": "35.58802",
            "lng": "139.44962"
        },
        {
            "index": "10",
            "id": "00129431",
            "name": "田中入口",
            "lat": "35.587666",
            "lng": "139.446308"
        },
        {
            "index": "11",
            "id": "00129373",
            "name": "野津田車庫",
            "lat": "35.587098",
            "lng": "139.44133"
        },
        {
            "index": "12",
            "id": "00129372",
            "name": "神学校(町田市)",
            "lat": "35.585397",
            "lng": "139.435935"
        },
        {
            "index": "13",
            "id": "00129371",
            "name": "並木(町田市)",
            "lat": "35.584377",
            "lng": "139.431034"
        },
        {
            "index": "14",
            "id": "00129370",
            "name": "図師",
            "lat": "35.582987",
            "lng": "139.425704"
        },
        {
            "index": "15",
            "id": "00129369",
            "name": "図師大橋",
            "lat": "35.582831",
            "lng": "139.42482"
        },
        {
            "index": "16",
            "id": "00129368",
            "name": "馬駈",
            "lat": "35.581483",
            "lng": "139.418118"
        },
        {
            "index": "17",
            "id": "00129367",
            "name": "根岸(根岸町/町田市)",
            "lat": "35.577908",
            "lng": "139.414596"
        },
        {
            "index": "18",
            "id": "00129216",
            "name": "根岸橋(相模原市中央区)",
            "lat": "35.573453",
            "lng": "139.408328"
        },
        {
            "index": "19",
            "id": "00129146",
            "name": "山王平",
            "lat": "35.573378",
            "lng": "139.405632"
        },
        {
            "index": "20",
            "id": "00129068",
            "name": "東町(相模原市中央区)",
            "lat": "35.570646",
            "lng": "139.401673"
        },
        {
            "index": "21",
            "id": "00129159",
            "name": "小学校入口(相模原市中央区)",
            "lat": "35.572773",
            "lng": "139.398719"
        },
        {
            "index": "22",
            "id": "00129309",
            "name": "淵野辺郵便局前",
            "lat": "35.571632",
            "lng": "139.39757"
        },
        {
            "index": "23",
            "id": "00129148",
            "name": "幸町(相模原市中央区)",
            "lat": "35.570473",
            "lng": "139.396519"
        },
        {
            "index": "24",
            "id": "00129246",
            "name": "淵野辺駅北口",
            "lat": "35.569097",
            "lng": "139.394529"
        }
    ],
    "route_url": "https://www.kanachu.co.jp/dia/route/index/cid:0000803474/"
}
