{
    "system": "津03",
    "busstops": [
        {
            "index": "1",
            "id": "00130356",
            "name": "長津田駅北口",
            "lat": "35.532076",
            "lng": "139.496224"
        },
        {
            "index": "2",
            "id": "00130357",
            "name": "長津田三丁目",
            "lat": "35.535684",
            "lng": "139.494014"
        },
        {
            "index": "3",
            "id": "00019243",
            "name": "堀の内(横浜市青葉区)",
            "lat": "35.53829",
            "lng": "139.491077"
        },
        {
            "index": "4",
            "id": "00019244",
            "name": "杉山神社前(横浜市青葉区)",
            "lat": "35.541137",
            "lng": "139.492649"
        },
        {
            "index": "5",
            "id": "00019206",
            "name": "中恩田橋",
            "lat": "35.542788",
            "lng": "139.496985"
        },
        {
            "index": "6",
            "id": "00019245",
            "name": "苗万坂",
            "lat": "35.544889",
            "lng": "139.498616"
        },
        {
            "index": "7",
            "id": "00019246",
            "name": "桂台遊水池前",
            "lat": "35.546375",
            "lng": "139.500671"
        },
        {
            "index": "8",
            "id": "00019247",
            "name": "松風台(横浜市青葉区)",
            "lat": "35.546748",
            "lng": "139.50381"
        },
        {
            "index": "9",
            "id": "00019248",
            "name": "椎木地蔵尊入口",
            "lat": "35.54414",
            "lng": "139.50516"
        },
        {
            "index": "10",
            "id": "00019249",
            "name": "榎が丘小学校前",
            "lat": "35.543183",
            "lng": "139.509387"
        },
        {
            "index": "11",
            "id": "00019250",
            "name": "榎が丘",
            "lat": "35.543231",
            "lng": "139.512676"
        },
        {
            "index": "12",
            "id": "00019224",
            "name": "青葉台駅",
            "lat": "35.544086",
            "lng": "139.516673"
        }
    ],
    "route_url": "https://www.kanachu.co.jp/dia/route/index/cid:0000804022/"
}
