{
    "system": "湘12",
    "busstops": [
        {
            "index": "1",
            "id": "00126881",
            "name": "湘南台駅東口",
            "lat": "35.396714",
            "lng": "139.467701"
        },
        {
            "index": "2",
            "id": "00129895",
            "name": "北警察署前(藤沢市)",
            "lat": "35.395787",
            "lng": "139.457893"
        },
        {
            "index": "3",
            "id": "00129955",
            "name": "南桐原",
            "lat": "35.388547",
            "lng": "139.457489"
        },
        {
            "index": "4",
            "id": "00129954",
            "name": "石川山田",
            "lat": "35.384579",
            "lng": "139.456867"
        },
        {
            "index": "5",
            "id": "00130498",
            "name": "石川中村",
            "lat": "35.380419",
            "lng": "139.455451"
        },
        {
            "index": "6",
            "id": "00130499",
            "name": "鍛冶山",
            "lat": "35.377609",
            "lng": "139.454518"
        },
        {
            "index": "7",
            "id": "00127062",
            "name": "石川橋",
            "lat": "35.374639",
            "lng": "139.453205"
        },
        {
            "index": "8",
            "id": "00130500",
            "name": "一ノ坪",
            "lat": "35.372353",
            "lng": "139.449872"
        },
        {
            "index": "9",
            "id": "00130501",
            "name": "駒寄住宅北",
            "lat": "35.373235",
            "lng": "139.44586"
        },
        {
            "index": "10",
            "id": "00130502",
            "name": "遠藤永山",
            "lat": "35.375371",
            "lng": "139.443052"
        },
        {
            "index": "11",
            "id": "00129950",
            "name": "矢尻(藤沢市)",
            "lat": "35.37759",
            "lng": "139.438878"
        },
        {
            "index": "12",
            "id": "00129949",
            "name": "南原(藤沢市)",
            "lat": "35.376781",
            "lng": "139.436539"
        },
        {
            "index": "13",
            "id": "00129948",
            "name": "湘南ライフタウン",
            "lat": "35.375208",
            "lng": "139.433763"
        }
    ],
    "route_url": "https://www.kanachu.co.jp/dia/route/index/cid:0000802919/"
}
