{
    "system": "ー",
    "busstops": [
        {
            "index": "1",
            "id": "00114295",
            "name": "田村車庫",
            "lat": "35.376016",
            "lng": "139.358556"
        },
        {
            "index": "2",
            "id": "00127654",
            "name": "神田小学校前(平塚市)",
            "lat": "35.375855",
            "lng": "139.36284"
        },
        {
            "index": "3",
            "id": "00127662",
            "name": "田村十字路",
            "lat": "35.373467",
            "lng": "139.365059"
        },
        {
            "index": "4",
            "id": "00127661",
            "name": "駒返橋",
            "lat": "35.371546",
            "lng": "139.364788"
        },
        {
            "index": "5",
            "id": "00127660",
            "name": "鹿見堂橋",
            "lat": "35.368274",
            "lng": "139.363183"
        },
        {
            "index": "6",
            "id": "00127711",
            "name": "平塚市リサイクルプラザ",
            "lat": "35.366249",
            "lng": "139.363001"
        },
        {
            "index": "7",
            "id": "00127659",
            "name": "大江工業前",
            "lat": "35.364207",
            "lng": "139.362231"
        },
        {
            "index": "8",
            "id": "00127650",
            "name": "ふじみ園前",
            "lat": "35.361507",
            "lng": "139.361127"
        },
        {
            "index": "9",
            "id": "00127658",
            "name": "前鳥神社前",
            "lat": "35.358031",
            "lng": "139.362057"
        },
        {
            "index": "10",
            "id": "00127657",
            "name": "大念寺前",
            "lat": "35.35451",
            "lng": "139.359812"
        },
        {
            "index": "11",
            "id": "00127628",
            "name": "東真土",
            "lat": "35.355264",
            "lng": "139.356383"
        },
        {
            "index": "12",
            "id": "00127627",
            "name": "真土",
            "lat": "35.355273",
            "lng": "139.354316"
        },
        {
            "index": "13",
            "id": "00127609",
            "name": "大野農協前",
            "lat": "35.354836",
            "lng": "139.34967"
        },
        {
            "index": "14",
            "id": "00127608",
            "name": "西真土",
            "lat": "35.353214",
            "lng": "139.344647"
        },
        {
            "index": "15",
            "id": "00127607",
            "name": "大野中学校前",
            "lat": "35.352432",
            "lng": "139.341748"
        },
        {
            "index": "16",
            "id": "00130491",
            "name": "東中原住宅",
            "lat": "35.352416",
            "lng": "139.338435"
        },
        {
            "index": "17",
            "id": "00127605",
            "name": "伊勢山(平塚市)",
            "lat": "35.350682",
            "lng": "139.335816"
        },
        {
            "index": "18",
            "id": "00127604",
            "name": "中原中宿",
            "lat": "35.348568",
            "lng": "139.336707"
        },
        {
            "index": "19",
            "id": "00127603",
            "name": "中原東(平塚市)",
            "lat": "35.34544",
            "lng": "139.337988"
        },
        {
            "index": "20",
            "id": "00127713",
            "name": "総合公園前(平塚市)",
            "lat": "35.342264",
            "lng": "139.33752"
        },
        {
            "index": "21",
            "id": "00128222",
            "name": "共済病院前総合公園西",
            "lat": "35.338752",
            "lng": "139.337086"
        },
        {
            "index": "22",
            "id": "00127557",
            "name": "江南高校前",
            "lat": "35.337222",
            "lng": "139.33376"
        },
        {
            "index": "23",
            "id": "00127560",
            "name": "南原土手",
            "lat": "35.339983",
            "lng": "139.323446"
        },
        {
            "index": "24",
            "id": "00127583",
            "name": "市民病院前(平塚市)",
            "lat": "35.336142",
            "lng": "139.325203"
        }
    ],
    "route_url": "https://www.kanachu.co.jp/dia/route/index/cid:0000803937/"
}
