{
    "system": "",
    "busstops": [
        {
            "index": "1",
            "id": "00130231",
            "name": "寒川駅",
            "lat": "35.368298",
            "lng": "139.387337"
        },
        {
            "index": "2",
            "id": "00130257",
            "name": "図書館文書館前",
            "lat": "35.371242",
            "lng": "139.383807"
        },
        {
            "index": "3",
            "id": "00130256",
            "name": "寒川町役場(高座郡寒川町)",
            "lat": "35.372698",
            "lng": "139.384939"
        },
        {
            "index": "4",
            "id": "00130258",
            "name": "総合体育館前(高座郡寒川町)",
            "lat": "35.375298",
            "lng": "139.386205"
        },
        {
            "index": "5",
            "id": "00130259",
            "name": "堂崎",
            "lat": "35.377702",
            "lng": "139.388388"
        },
        {
            "index": "6",
            "id": "00130260",
            "name": "福泉寺入口",
            "lat": "35.381005",
            "lng": "139.392712"
        },
        {
            "index": "7",
            "id": "00130261",
            "name": "小谷入町",
            "lat": "35.383467",
            "lng": "139.395641"
        },
        {
            "index": "8",
            "id": "00130262",
            "name": "ふれあいセンター前(高座郡寒川町)",
            "lat": "35.385356",
            "lng": "139.393028"
        },
        {
            "index": "9",
            "id": "00130263",
            "name": "念宗寺入口",
            "lat": "35.386631",
            "lng": "139.393608"
        },
        {
            "index": "10",
            "id": "00130264",
            "name": "小動神社前",
            "lat": "35.384617",
            "lng": "139.398049"
        },
        {
            "index": "11",
            "id": "00127177",
            "name": "小谷(高座郡寒川町)",
            "lat": "35.382448",
            "lng": "139.401542"
        },
        {
            "index": "12",
            "id": "00130285",
            "name": "寒川ホーム入口",
            "lat": "35.379299",
            "lng": "139.39961"
        },
        {
            "index": "13",
            "id": "00127176",
            "name": "大蔵(高座郡寒川町)",
            "lat": "35.378233",
            "lng": "139.397985"
        },
        {
            "index": "14",
            "id": "00130286",
            "name": "こすもすの郷前",
            "lat": "35.37538",
            "lng": "139.396907"
        },
        {
            "index": "15",
            "id": "00130287",
            "name": "越公園前",
            "lat": "35.37367",
            "lng": "139.397374"
        },
        {
            "index": "16",
            "id": "00130265",
            "name": "県営住宅東(高座郡寒川町)",
            "lat": "35.374072",
            "lng": "139.399605"
        },
        {
            "index": "17",
            "id": "00130266",
            "name": "県営住宅西(高座郡寒川町)",
            "lat": "35.374116",
            "lng": "139.396478"
        },
        {
            "index": "18",
            "id": "00130267",
            "name": "県営住宅北(高座郡寒川町)",
            "lat": "35.375953",
            "lng": "139.397534"
        },
        {
            "index": "19",
            "id": "00130268",
            "name": "湘風園入口",
            "lat": "35.375782",
            "lng": "139.400324"
        },
        {
            "index": "20",
            "id": "00130269",
            "name": "青少年広場",
            "lat": "35.374779",
            "lng": "139.402478"
        },
        {
            "index": "21",
            "id": "00130270",
            "name": "越の山公園北",
            "lat": "35.371988",
            "lng": "139.402011"
        },
        {
            "index": "22",
            "id": "00130271",
            "name": "越の山公園南",
            "lat": "35.370459",
            "lng": "139.401316"
        },
        {
            "index": "23",
            "id": "00130272",
            "name": "殖産住宅入口(高座郡寒川町)",
            "lat": "35.369637",
            "lng": "139.399836"
        },
        {
            "index": "24",
            "id": "00127151",
            "name": "越の山入口",
            "lat": "35.36905",
            "lng": "139.398226"
        },
        {
            "index": "25",
            "id": "00127152",
            "name": "東岡田",
            "lat": "35.367943",
            "lng": "139.39393"
        },
        {
            "index": "26",
            "id": "00130231",
            "name": "寒川駅",
            "lat": "35.368175",
            "lng": "139.387267"
        }
    ],
    "route_url": "https://www.kanachu.co.jp/dia/route/index/cid:0000800818/"
}
