{
    "system": "横51",
    "busstops": [
        {
            "index": "1",
            "id": "00102821",
            "name": "中山駅",
            "lat": "35.514318",
            "lng": "139.539587"
        },
        {
            "index": "2",
            "id": "00130396",
            "name": "緑消防署前",
            "lat": "35.511691",
            "lng": "139.540228"
        },
        {
            "index": "3",
            "id": "00102822",
            "name": "中山町",
            "lat": "35.510955",
            "lng": "139.543206"
        },
        {
            "index": "4",
            "id": "00102856",
            "name": "中山小学校南",
            "lat": "35.510283",
            "lng": "139.546066"
        },
        {
            "index": "5",
            "id": "00102371",
            "name": "上山町(横浜市緑区)",
            "lat": "35.50926",
            "lng": "139.549696"
        },
        {
            "index": "6",
            "id": "00102236",
            "name": "石神(横浜市緑区)",
            "lat": "35.508003",
            "lng": "139.552926"
        },
        {
            "index": "7",
            "id": "00102939",
            "name": "白山ハイテクパーク",
            "lat": "35.507579",
            "lng": "139.555508"
        },
        {
            "index": "8",
            "id": "00103124",
            "name": "緑車庫前",
            "lat": "35.506687",
            "lng": "139.558485"
        },
        {
            "index": "9",
            "id": "00102938",
            "name": "白山一丁目(横浜市緑区)",
            "lat": "35.508753",
            "lng": "139.560256"
        },
        {
            "index": "10",
            "id": "00102375",
            "name": "鴨居橋",
            "lat": "35.509494",
            "lng": "139.563137"
        },
        {
            "index": "11",
            "id": "00102852",
            "name": "中村通",
            "lat": "35.507671",
            "lng": "139.564171"
        },
        {
            "index": "12",
            "id": "00102377",
            "name": "鴨居町",
            "lat": "35.505852",
            "lng": "139.564274"
        },
        {
            "index": "13",
            "id": "00102577",
            "name": "地蔵前(横浜市緑区)",
            "lat": "35.499371",
            "lng": "139.565728"
        },
        {
            "index": "14",
            "id": "00102742",
            "name": "辻山",
            "lat": "35.496003",
            "lng": "139.566792"
        },
        {
            "index": "15",
            "id": "00102548",
            "name": "笹山(横浜市保土ケ谷区)",
            "lat": "35.492991",
            "lng": "139.568867"
        },
        {
            "index": "16",
            "id": "00102370",
            "name": "上菅田町",
            "lat": "35.491531",
            "lng": "139.570497"
        },
        {
            "index": "17",
            "id": "00102825",
            "name": "中田(横浜市保土ケ谷区)",
            "lat": "35.489619",
            "lng": "139.571649"
        },
        {
            "index": "18",
            "id": "00102761",
            "name": "寺下橋",
            "lat": "35.486089",
            "lng": "139.571357"
        },
        {
            "index": "19",
            "id": "00103007",
            "name": "富士見橋(横浜市保土ケ谷区)",
            "lat": "35.483276",
            "lng": "139.570775"
        },
        {
            "index": "20",
            "id": "00103202",
            "name": "山崎(横浜市保土ケ谷区)",
            "lat": "35.48019",
            "lng": "139.570279"
        },
        {
            "index": "21",
            "id": "00102279",
            "name": "梅の木(横浜市保土ケ谷区)",
            "lat": "35.477671",
            "lng": "139.570441"
        },
        {
            "index": "22",
            "id": "00102885",
            "name": "西谷妙福寺前",
            "lat": "35.475526",
            "lng": "139.572377"
        },
        {
            "index": "23",
            "id": "00102379",
            "name": "川島町(横浜市保土ケ谷区)",
            "lat": "35.473507",
            "lng": "139.574182"
        },
        {
            "index": "24",
            "id": "00102655",
            "name": "杉山神社前(横浜市保土ケ谷区)",
            "lat": "35.470773",
            "lng": "139.576789"
        },
        {
            "index": "25",
            "id": "00102369",
            "name": "上星川",
            "lat": "35.468222",
            "lng": "139.580329"
        },
        {
            "index": "26",
            "id": "00103040",
            "name": "保土ヶ谷中学校前",
            "lat": "35.4663",
            "lng": "139.582837"
        },
        {
            "index": "27",
            "id": "00103260",
            "name": "和田町(横浜市保土ケ谷区)",
            "lat": "35.464494",
            "lng": "139.590437"
        },
        {
            "index": "28",
            "id": "00102799",
            "name": "常盤園下",
            "lat": "35.463191",
            "lng": "139.592899"
        },
        {
            "index": "29",
            "id": "00103136",
            "name": "峰岡町",
            "lat": "35.461694",
            "lng": "139.595774"
        },
        {
            "index": "30",
            "id": "00103135",
            "name": "峯小学校前",
            "lat": "35.460104",
            "lng": "139.598768"
        },
        {
            "index": "31",
            "id": "00103140",
            "name": "宮田町(横浜市保土ケ谷区)",
            "lat": "35.45801",
            "lng": "139.603289"
        },
        {
            "index": "32",
            "id": "00102504",
            "name": "洪福寺",
            "lat": "35.457723",
            "lng": "139.606831"
        },
        {
            "index": "33",
            "id": "00102672",
            "name": "浅間町車庫前",
            "lat": "35.459571",
            "lng": "139.607689"
        },
        {
            "index": "34",
            "id": "00102205",
            "name": "浅岡橋",
            "lat": "35.462153",
            "lng": "139.609169"
        },
        {
            "index": "35",
            "id": "00102673",
            "name": "浅間下(横浜市西区)",
            "lat": "35.466044",
            "lng": "139.612577"
        },
        {
            "index": "36",
            "id": "00102459",
            "name": "楠町",
            "lat": "35.467671",
            "lng": "139.613714"
        },
        {
            "index": "37",
            "id": "00019685",
            "name": "鶴屋町三丁目",
            "lat": "35.468603",
            "lng": "139.619064"
        },
        {
            "index": "38",
            "id": "00042735",
            "name": "横浜駅西口",
            "lat": "35.46722",
            "lng": "139.621282"
        }
    ],
    "route_url": "https://www.kanachu.co.jp/dia/route/index/cid:0000802268/"
}
