{
    "system": "間12",
    "busstops": [
        {
            "index": "1",
            "id": "00128608",
            "name": "鶴間駅",
            "lat": "35.489971",
            "lng": "139.450854"
        },
        {
            "index": "2",
            "id": "00129625",
            "name": "水道局前(大和市)",
            "lat": "35.48733",
            "lng": "139.448907"
        },
        {
            "index": "3",
            "id": "00129626",
            "name": "慰霊塔公園",
            "lat": "35.484094",
            "lng": "139.450599"
        },
        {
            "index": "4",
            "id": "00129627",
            "name": "笹山入口",
            "lat": "35.482013",
            "lng": "139.451622"
        },
        {
            "index": "5",
            "id": "00129628",
            "name": "上草柳",
            "lat": "35.479559",
            "lng": "139.452869"
        },
        {
            "index": "6",
            "id": "00129629",
            "name": "東原(大和市)",
            "lat": "35.47743",
            "lng": "139.453996"
        },
        {
            "index": "7",
            "id": "00129630",
            "name": "大東(大和市)",
            "lat": "35.475637",
            "lng": "139.454922"
        },
        {
            "index": "8",
            "id": "00129631",
            "name": "下草柳",
            "lat": "35.472719",
            "lng": "139.456126"
        },
        {
            "index": "9",
            "id": "00129632",
            "name": "学校前(大和市中央)",
            "lat": "35.471799",
            "lng": "139.456089"
        },
        {
            "index": "10",
            "id": "00129616",
            "name": "大和駅西口",
            "lat": "35.470241",
            "lng": "139.460967"
        }
    ],
    "route_url": "https://www.kanachu.co.jp/dia/route/index/cid:0000803754/"
}
