{
    "system": "小02",
    "busstops": [
        {
            "index": "1",
            "id": "00129690",
            "name": "小田急相模原駅",
            "lat": "35.515671",
            "lng": "139.422055"
        },
        {
            "index": "2",
            "id": "00129675",
            "name": "相模台",
            "lat": "35.512383",
            "lng": "139.422488"
        },
        {
            "index": "3",
            "id": "00129676",
            "name": "小田急住宅前(座間市)",
            "lat": "35.5075",
            "lng": "139.425227"
        },
        {
            "index": "4",
            "id": "00129677",
            "name": "マルマン工場前",
            "lat": "35.506281",
            "lng": "139.425919"
        },
        {
            "index": "5",
            "id": "00129678",
            "name": "相模が丘",
            "lat": "35.504716",
            "lng": "139.426815"
        },
        {
            "index": "6",
            "id": "00129679",
            "name": "小松原入口",
            "lat": "35.502513",
            "lng": "139.428084"
        },
        {
            "index": "7",
            "id": "00129680",
            "name": "小松原(座間市)",
            "lat": "35.495841",
            "lng": "139.429449"
        },
        {
            "index": "8",
            "id": "00129681",
            "name": "小松原二丁目",
            "lat": "35.491535",
            "lng": "139.431385"
        },
        {
            "index": "9",
            "id": "00129682",
            "name": "ひばりが丘一丁目(座間市)",
            "lat": "35.490404",
            "lng": "139.432559"
        },
        {
            "index": "10",
            "id": "00129683",
            "name": "十一条",
            "lat": "35.491375",
            "lng": "139.437621"
        },
        {
            "index": "11",
            "id": "00129684",
            "name": "九条",
            "lat": "35.492221",
            "lng": "139.439995"
        },
        {
            "index": "12",
            "id": "00129667",
            "name": "南林間駅前通り",
            "lat": "35.49456",
            "lng": "139.444761"
        },
        {
            "index": "13",
            "id": "00129666",
            "name": "南林間駅",
            "lat": "35.495922",
            "lng": "139.447458"
        }
    ],
    "route_url": "https://www.kanachu.co.jp/dia/route/index/cid:0000804013/"
}
