{
    "system": "藤51",
    "busstops": [
        {
            "index": "1",
            "id": "00126881",
            "name": "湘南台駅東口",
            "lat": "35.396665",
            "lng": "139.466859"
        },
        {
            "index": "2",
            "id": "00129882",
            "name": "今田(藤沢市)",
            "lat": "35.393731",
            "lng": "139.472786"
        },
        {
            "index": "3",
            "id": "00129883",
            "name": "六会",
            "lat": "35.38882",
            "lng": "139.475839"
        },
        {
            "index": "4",
            "id": "00129884",
            "name": "雲昌寺",
            "lat": "35.386115",
            "lng": "139.477236"
        },
        {
            "index": "5",
            "id": "00129885",
            "name": "亀井野三丁目",
            "lat": "35.384334",
            "lng": "139.478951"
        },
        {
            "index": "6",
            "id": "00129888",
            "name": "亀井野",
            "lat": "35.381663",
            "lng": "139.480905"
        },
        {
            "index": "7",
            "id": "00129889",
            "name": "下屋敷(藤沢市)",
            "lat": "35.379324",
            "lng": "139.48281"
        },
        {
            "index": "8",
            "id": "00127018",
            "name": "俣野原",
            "lat": "35.37616",
            "lng": "139.484199"
        },
        {
            "index": "9",
            "id": "00127017",
            "name": "新田(藤沢市)",
            "lat": "35.369197",
            "lng": "139.483111"
        },
        {
            "index": "10",
            "id": "00127016",
            "name": "亀井野団地入口",
            "lat": "35.365434",
            "lng": "139.481636"
        },
        {
            "index": "11",
            "id": "00127015",
            "name": "藤沢翔陵高校前",
            "lat": "35.360134",
            "lng": "139.478836"
        },
        {
            "index": "12",
            "id": "00127014",
            "name": "聖園女学院前",
            "lat": "35.355535",
            "lng": "139.478148"
        },
        {
            "index": "13",
            "id": "00127013",
            "name": "白旗神社前",
            "lat": "35.349955",
            "lng": "139.479503"
        },
        {
            "index": "14",
            "id": "00127108",
            "name": "藤沢市民病院",
            "lat": "35.350578",
            "lng": "139.481867"
        },
        {
            "index": "15",
            "id": "00127011",
            "name": "本町消防出張所前",
            "lat": "35.347902",
            "lng": "139.481537"
        },
        {
            "index": "16",
            "id": "00127010",
            "name": "藤沢公民館前",
            "lat": "35.347449",
            "lng": "139.483566"
        },
        {
            "index": "17",
            "id": "00127009",
            "name": "遊行寺前",
            "lat": "35.346401",
            "lng": "139.486098"
        },
        {
            "index": "18",
            "id": "00127019",
            "name": "遊行通り四丁目",
            "lat": "35.342114",
            "lng": "139.488784"
        },
        {
            "index": "19",
            "id": "00126970",
            "name": "藤沢駅北口",
            "lat": "35.339374",
            "lng": "139.488059"
        }
    ],
    "route_url": "https://www.kanachu.co.jp/dia/route/index/cid:0000800575/"
}
