{
    "system": "橋41",
    "busstops": [
        {
            "index": "1",
            "id": "00130514",
            "name": "相模原協同病院",
            "lat": "35.589006",
            "lng": "139.325204"
        },
        {
            "index": "2",
            "id": "00129220",
            "name": "峡の原車庫",
            "lat": "35.592125",
            "lng": "139.327529"
        },
        {
            "index": "3",
            "id": "00128972",
            "name": "西橋本三丁目",
            "lat": "35.595211",
            "lng": "139.331808"
        },
        {
            "index": "4",
            "id": "00129042",
            "name": "北警察署前(相模原市緑区)",
            "lat": "35.595202",
            "lng": "139.334555"
        },
        {
            "index": "5",
            "id": "00129000",
            "name": "緑区合同庁舎前(相模原市緑区)",
            "lat": "35.595297",
            "lng": "139.336692"
        },
        {
            "index": "6",
            "id": "00128971",
            "name": "橋本二丁目",
            "lat": "35.595384",
            "lng": "139.340769"
        },
        {
            "index": "7",
            "id": "00128970",
            "name": "橋本駅南口",
            "lat": "35.594627",
            "lng": "139.344271"
        }
    ],
    "route_url": "https://www.kanachu.co.jp/dia/route/index/cid:0000803764/"
}
