{
    "system": "東08",
    "busstops": [
        {
            "index": "1",
            "id": "00126647",
            "name": "東戸塚駅東口",
            "lat": "35.430069",
            "lng": "139.558065"
        },
        {
            "index": "2",
            "id": "00126642",
            "name": "品濃町(横浜市戸塚区)",
            "lat": "35.429046",
            "lng": "139.559705"
        },
        {
            "index": "3",
            "id": "00126641",
            "name": "坂下(横浜市戸塚区)",
            "lat": "35.425859",
            "lng": "139.560158"
        },
        {
            "index": "4",
            "id": "00126617",
            "name": "品濃口",
            "lat": "35.420834",
            "lng": "139.558865"
        },
        {
            "index": "5",
            "id": "00126618",
            "name": "国道平戸",
            "lat": "35.420486",
            "lng": "139.56063"
        },
        {
            "index": "6",
            "id": "00126619",
            "name": "坂下口",
            "lat": "35.423179",
            "lng": "139.565705"
        },
        {
            "index": "7",
            "id": "00126620",
            "name": "山谷(横浜市戸塚区)",
            "lat": "35.425481",
            "lng": "139.56869"
        },
        {
            "index": "8",
            "id": "00126622",
            "name": "六ツ川四丁目",
            "lat": "35.424167",
            "lng": "139.574103"
        },
        {
            "index": "9",
            "id": "00126624",
            "name": "引越坂",
            "lat": "35.426308",
            "lng": "139.578676"
        },
        {
            "index": "10",
            "id": "00130201",
            "name": "横浜パークタウン第一降車場",
            "lat": "35.428628",
            "lng": "139.579145"
        }
    ],
    "route_url": "https://www.kanachu.co.jp/dia/route/index/cid:0000801887/"
}
