{
    "system": "相02",
    "busstops": [
        {
            "index": "1",
            "id": "00114298",
            "name": "相模大野駅北口",
            "lat": "35.531252",
            "lng": "139.436477"
        },
        {
            "index": "2",
            "id": "00129307",
            "name": "グリーンホール前",
            "lat": "35.533824",
            "lng": "139.435147"
        },
        {
            "index": "3",
            "id": "00129278",
            "name": "谷口(相模原市南区)",
            "lat": "35.536564",
            "lng": "139.435519"
        },
        {
            "index": "4",
            "id": "00129076",
            "name": "鵜野森",
            "lat": "35.541213",
            "lng": "139.43127"
        },
        {
            "index": "5",
            "id": "00129149",
            "name": "相模病院入口",
            "lat": "35.5429",
            "lng": "139.429494"
        },
        {
            "index": "6",
            "id": "00129271",
            "name": "南警察署前(相模原市南区)",
            "lat": "35.546115",
            "lng": "139.425726"
        },
        {
            "index": "7",
            "id": "00129127",
            "name": "市営斎場入口",
            "lat": "35.547992",
            "lng": "139.423449"
        },
        {
            "index": "8",
            "id": "00129098",
            "name": "大野小学校入口",
            "lat": "35.549836",
            "lng": "139.421027"
        },
        {
            "index": "9",
            "id": "00129314",
            "name": "古淵駅入口",
            "lat": "35.552911",
            "lng": "139.4162"
        },
        {
            "index": "10",
            "id": "00129298",
            "name": "老人ホーム入口(相模原市南区)",
            "lat": "35.554249",
            "lng": "139.413727"
        },
        {
            "index": "11",
            "id": "00129191",
            "name": "嶽の内入口",
            "lat": "35.557482",
            "lng": "139.406875"
        },
        {
            "index": "12",
            "id": "00129123",
            "name": "共和(相模原市中央区)",
            "lat": "35.559492",
            "lng": "139.40257"
        },
        {
            "index": "13",
            "id": "00129075",
            "name": "宇宙科学研究本部",
            "lat": "35.561865",
            "lng": "139.397521"
        },
        {
            "index": "14",
            "id": "00129248",
            "name": "淵野辺十字路",
            "lat": "35.564667",
            "lng": "139.391388"
        },
        {
            "index": "15",
            "id": "00129102",
            "name": "鹿沼公園南入口",
            "lat": "35.565603",
            "lng": "139.389395"
        },
        {
            "index": "16",
            "id": "00129101",
            "name": "鹿沼台",
            "lat": "35.567215",
            "lng": "139.38604"
        },
        {
            "index": "17",
            "id": "00129282",
            "name": "矢部駅入口",
            "lat": "35.568656",
            "lng": "139.382738"
        },
        {
            "index": "18",
            "id": "00129302",
            "name": "中央小学校北",
            "lat": "35.57119",
            "lng": "139.377491"
        },
        {
            "index": "19",
            "id": "00129132",
            "name": "相模原警察署前",
            "lat": "35.572019",
            "lng": "139.37571"
        },
        {
            "index": "20",
            "id": "00129080",
            "name": "さがみ夢大通り",
            "lat": "35.577995",
            "lng": "139.368831"
        },
        {
            "index": "21",
            "id": "00129335",
            "name": "相模原駅南口",
            "lat": "35.580691",
            "lng": "139.371167"
        }
    ],
    "route_url": "https://www.kanachu.co.jp/dia/route/index/cid:0000802986/"
}
