{
    "system": "町78",
    "busstops": [
        {
            "index": "1",
            "id": "00025625",
            "name": "町田バスセンター",
            "lat": "35.543379",
            "lng": "139.444411"
        },
        {
            "index": "2",
            "id": "00129356",
            "name": "町田市役所市民ホール前",
            "lat": "35.547266",
            "lng": "139.438906"
        },
        {
            "index": "3",
            "id": "00129375",
            "name": "妙延寺(町田市)",
            "lat": "35.54863",
            "lng": "139.436298"
        },
        {
            "index": "4",
            "id": "00129376",
            "name": "森野五丁目",
            "lat": "35.549978",
            "lng": "139.433682"
        },
        {
            "index": "5",
            "id": "00129377",
            "name": "森野六丁目",
            "lat": "35.551345",
            "lng": "139.431057"
        },
        {
            "index": "6",
            "id": "00129378",
            "name": "桧台入口",
            "lat": "35.552983",
            "lng": "139.428506"
        },
        {
            "index": "7",
            "id": "00129379",
            "name": "木曽都営入口",
            "lat": "35.554423",
            "lng": "139.427704"
        },
        {
            "index": "8",
            "id": "00129380",
            "name": "境川団地入口",
            "lat": "35.55721",
            "lng": "139.425674"
        },
        {
            "index": "9",
            "id": "00129381",
            "name": "境川団地中央",
            "lat": "35.559444",
            "lng": "139.4238"
        },
        {
            "index": "10",
            "id": "00129382",
            "name": "境川団地",
            "lat": "35.561869",
            "lng": "139.421858"
        },
        {
            "index": "11",
            "id": "00129383",
            "name": "横町(町田市)",
            "lat": "35.565101",
            "lng": "139.419662"
        },
        {
            "index": "12",
            "id": "00129384",
            "name": "木曽南団地",
            "lat": "35.567544",
            "lng": "139.417933"
        },
        {
            "index": "13",
            "id": "00129495",
            "name": "町田総合高校前",
            "lat": "35.570326",
            "lng": "139.415917"
        },
        {
            "index": "14",
            "id": "00129496",
            "name": "上の原(町田市)",
            "lat": "35.573059",
            "lng": "139.415333"
        },
        {
            "index": "15",
            "id": "00129497",
            "name": "忠生",
            "lat": "35.574742",
            "lng": "139.417214"
        },
        {
            "index": "16",
            "id": "00129498",
            "name": "JA忠生支店前",
            "lat": "35.576942",
            "lng": "139.419716"
        },
        {
            "index": "17",
            "id": "00129396",
            "name": "忠生三丁目",
            "lat": "35.578029",
            "lng": "139.420068"
        },
        {
            "index": "18",
            "id": "00129368",
            "name": "馬駈",
            "lat": "35.581523",
            "lng": "139.417805"
        },
        {
            "index": "19",
            "id": "00129369",
            "name": "図師大橋",
            "lat": "35.582917",
            "lng": "139.42443"
        },
        {
            "index": "20",
            "id": "00129370",
            "name": "図師",
            "lat": "35.583116",
            "lng": "139.425669"
        },
        {
            "index": "21",
            "id": "00129371",
            "name": "並木(町田市)",
            "lat": "35.585369",
            "lng": "139.43315"
        },
        {
            "index": "22",
            "id": "00129372",
            "name": "神学校(町田市)",
            "lat": "35.585944",
            "lng": "139.436981"
        },
        {
            "index": "23",
            "id": "00129373",
            "name": "野津田車庫",
            "lat": "35.587205",
            "lng": "139.441257"
        }
    ],
    "route_url": "https://www.kanachu.co.jp/dia/route/index/cid:0000800826/"
}
