{
    "system": "戸39",
    "busstops": [
        {
            "index": "1",
            "id": "00126775",
            "name": "戸塚バスセンター",
            "lat": "35.400346",
            "lng": "139.532444"
        },
        {
            "index": "2",
            "id": "00126611",
            "name": "元町(横浜市戸塚区)",
            "lat": "35.407364",
            "lng": "139.5381"
        },
        {
            "index": "3",
            "id": "00126612",
            "name": "ブリヂストン前",
            "lat": "35.410558",
            "lng": "139.539749"
        },
        {
            "index": "4",
            "id": "00126613",
            "name": "不動坂(横浜市戸塚区)",
            "lat": "35.412648",
            "lng": "139.540862"
        },
        {
            "index": "5",
            "id": "00126668",
            "name": "富士橋",
            "lat": "35.416846",
            "lng": "139.539276"
        },
        {
            "index": "6",
            "id": "00126669",
            "name": "上矢部インター",
            "lat": "35.418887",
            "lng": "139.53695"
        },
        {
            "index": "7",
            "id": "00126670",
            "name": "上矢部",
            "lat": "35.421523",
            "lng": "139.534005"
        },
        {
            "index": "8",
            "id": "00126671",
            "name": "日の森",
            "lat": "35.422865",
            "lng": "139.532243"
        },
        {
            "index": "9",
            "id": "00126672",
            "name": "下岡津",
            "lat": "35.426472",
            "lng": "139.528003"
        },
        {
            "index": "10",
            "id": "00126673",
            "name": "岡津",
            "lat": "35.426786",
            "lng": "139.524985"
        },
        {
            "index": "11",
            "id": "00126690",
            "name": "西林寺入口",
            "lat": "35.424884",
            "lng": "139.523372"
        },
        {
            "index": "12",
            "id": "00126691",
            "name": "領家谷",
            "lat": "35.422488",
            "lng": "139.520989"
        },
        {
            "index": "13",
            "id": "00126692",
            "name": "金堀谷",
            "lat": "35.420062",
            "lng": "139.519397"
        },
        {
            "index": "14",
            "id": "00126693",
            "name": "白百合台団地",
            "lat": "35.418393",
            "lng": "139.51855"
        },
        {
            "index": "15",
            "id": "00126694",
            "name": "西が岡三丁目",
            "lat": "35.419193",
            "lng": "139.51648"
        },
        {
            "index": "16",
            "id": "00126695",
            "name": "福祉センター前(横浜市泉区)",
            "lat": "35.420916",
            "lng": "139.514291"
        },
        {
            "index": "17",
            "id": "00126696",
            "name": "西が岡一丁目",
            "lat": "35.423102",
            "lng": "139.51177"
        },
        {
            "index": "18",
            "id": "00126697",
            "name": "親善病院前",
            "lat": "35.426277",
            "lng": "139.509366"
        },
        {
            "index": "19",
            "id": "00126698",
            "name": "弥生台駅",
            "lat": "35.429629",
            "lng": "139.506695"
        }
    ],
    "route_url": "https://www.kanachu.co.jp/dia/route/index/cid:0000803546/"
}
