{
    "system": "橋04",
    "busstops": [
        {
            "index": "1",
            "id": "00128750",
            "name": "三ヶ木",
            "lat": "35.588242",
            "lng": "139.233295"
        },
        {
            "index": "2",
            "id": "00128751",
            "name": "津久井高校前",
            "lat": "35.587896",
            "lng": "139.232353"
        },
        {
            "index": "3",
            "id": "00128752",
            "name": "三ヶ木新宿",
            "lat": "35.585517",
            "lng": "139.231074"
        },
        {
            "index": "4",
            "id": "00128753",
            "name": "青山(相模原市緑区)",
            "lat": "35.581908",
            "lng": "139.231084"
        },
        {
            "index": "5",
            "id": "00128825",
            "name": "小沢(相模原市緑区)",
            "lat": "35.577562",
            "lng": "139.233943"
        },
        {
            "index": "6",
            "id": "00128826",
            "name": "新屋敷(相模原市緑区)",
            "lat": "35.570993",
            "lng": "139.238249"
        },
        {
            "index": "7",
            "id": "00129003",
            "name": "関・宮原",
            "lat": "35.568398",
            "lng": "139.242076"
        },
        {
            "index": "8",
            "id": "00128827",
            "name": "関(相模原市緑区)",
            "lat": "35.566373",
            "lng": "139.2475"
        },
        {
            "index": "9",
            "id": "00128837",
            "name": "上長竹",
            "lat": "35.566366",
            "lng": "139.250759"
        },
        {
            "index": "10",
            "id": "00128838",
            "name": "長竹クラブ前",
            "lat": "35.566353",
            "lng": "139.253698"
        },
        {
            "index": "11",
            "id": "00129013",
            "name": "串川グラウンド前",
            "lat": "35.567118",
            "lng": "139.258451"
        },
        {
            "index": "12",
            "id": "00128859",
            "name": "沼(相模原市緑区)",
            "lat": "35.568393",
            "lng": "139.261624"
        },
        {
            "index": "13",
            "id": "00129014",
            "name": "長尾(相模原市緑区)",
            "lat": "35.569766",
            "lng": "139.264926"
        },
        {
            "index": "14",
            "id": "00129015",
            "name": "金原準工前",
            "lat": "35.570919",
            "lng": "139.267528"
        },
        {
            "index": "15",
            "id": "00129016",
            "name": "富士塚前(相模原市緑区)",
            "lat": "35.572295",
            "lng": "139.269582"
        },
        {
            "index": "16",
            "id": "00129017",
            "name": "ひがし会館",
            "lat": "35.573678",
            "lng": "139.272149"
        },
        {
            "index": "17",
            "id": "00129019",
            "name": "東金原",
            "lat": "35.574351",
            "lng": "139.274633"
        },
        {
            "index": "18",
            "id": "00130514",
            "name": "相模原協同病院",
            "lat": "35.589006",
            "lng": "139.325204"
        },
        {
            "index": "19",
            "id": "00129220",
            "name": "峡の原車庫",
            "lat": "35.592125",
            "lng": "139.327529"
        },
        {
            "index": "20",
            "id": "00128972",
            "name": "西橋本三丁目",
            "lat": "35.595211",
            "lng": "139.331808"
        },
        {
            "index": "21",
            "id": "00129042",
            "name": "北警察署前(相模原市緑区)",
            "lat": "35.595202",
            "lng": "139.334555"
        },
        {
            "index": "22",
            "id": "00129000",
            "name": "緑区合同庁舎前(相模原市緑区)",
            "lat": "35.595297",
            "lng": "139.336692"
        },
        {
            "index": "23",
            "id": "00128971",
            "name": "橋本二丁目",
            "lat": "35.595384",
            "lng": "139.340769"
        },
        {
            "index": "24",
            "id": "00128970",
            "name": "橋本駅南口",
            "lat": "35.594627",
            "lng": "139.344271"
        }
    ],
    "route_url": "https://www.kanachu.co.jp/dia/route/index/cid:0000802997/"
}
