{
    "system": "境30",
    "busstops": [
        {
            "index": "1",
            "id": "00129664",
            "name": "三ツ境駅北口",
            "lat": "35.46856",
            "lng": "139.502921"
        },
        {
            "index": "2",
            "id": "00129663",
            "name": "瀬谷警察入口",
            "lat": "35.468823",
            "lng": "139.50013"
        },
        {
            "index": "3",
            "id": "00129662",
            "name": "中丸(横浜市瀬谷区)",
            "lat": "35.469987",
            "lng": "139.497208"
        },
        {
            "index": "4",
            "id": "00129661",
            "name": "上橋(横浜市瀬谷区)",
            "lat": "35.468998",
            "lng": "139.494702"
        },
        {
            "index": "5",
            "id": "00126688",
            "name": "相沢原",
            "lat": "35.46923",
            "lng": "139.492408"
        },
        {
            "index": "6",
            "id": "00126689",
            "name": "相沢",
            "lat": "35.473097",
            "lng": "139.488456"
        },
        {
            "index": "7",
            "id": "00129785",
            "name": "幼稚園前(横浜市瀬谷区)",
            "lat": "35.475277",
            "lng": "139.488131"
        },
        {
            "index": "8",
            "id": "00129786",
            "name": "東台(横浜市瀬谷区)",
            "lat": "35.476949",
            "lng": "139.48856"
        },
        {
            "index": "9",
            "id": "00129787",
            "name": "細谷戸第1",
            "lat": "35.479643",
            "lng": "139.489581"
        },
        {
            "index": "10",
            "id": "00129788",
            "name": "細谷戸第2",
            "lat": "35.481528",
            "lng": "139.488888"
        },
        {
            "index": "11",
            "id": "00129789",
            "name": "細谷戸第3",
            "lat": "35.482747",
            "lng": "139.488888"
        },
        {
            "index": "12",
            "id": "00129790",
            "name": "細谷戸第4",
            "lat": "35.482719",
            "lng": "139.486434"
        },
        {
            "index": "13",
            "id": "00129791",
            "name": "細谷戸第5",
            "lat": "35.481842",
            "lng": "139.486615"
        }
    ],
    "route_url": "https://www.kanachu.co.jp/dia/route/index/cid:0000800869/"
}
