{
    "system": "湘20",
    "busstops": [
        {
            "index": "1",
            "id": "00129845",
            "name": "綾瀬車庫(綾瀬市)",
            "lat": "35.425988",
            "lng": "139.427836"
        },
        {
            "index": "2",
            "id": "00129844",
            "name": "吉岡芝原",
            "lat": "35.424592",
            "lng": "139.428559"
        },
        {
            "index": "3",
            "id": "00129843",
            "name": "山根(綾瀬市)",
            "lat": "35.42052",
            "lng": "139.423691"
        },
        {
            "index": "4",
            "id": "00129842",
            "name": "女坂",
            "lat": "35.41791",
            "lng": "139.419339"
        },
        {
            "index": "5",
            "id": "00129841",
            "name": "松葉(藤沢市)",
            "lat": "35.413693",
            "lng": "139.417539"
        },
        {
            "index": "6",
            "id": "00129840",
            "name": "用田神社入口",
            "lat": "35.408766",
            "lng": "139.414652"
        },
        {
            "index": "7",
            "id": "00129827",
            "name": "用田辻",
            "lat": "35.40428",
            "lng": "139.413295"
        },
        {
            "index": "8",
            "id": "00129826",
            "name": "用田(藤沢市)",
            "lat": "35.403941",
            "lng": "139.415519"
        },
        {
            "index": "9",
            "id": "00129825",
            "name": "御所見市民センター前",
            "lat": "35.403985",
            "lng": "139.417634"
        },
        {
            "index": "10",
            "id": "00129824",
            "name": "御所見中学校前",
            "lat": "35.402839",
            "lng": "139.421624"
        },
        {
            "index": "11",
            "id": "00129917",
            "name": "西菖蒲沢",
            "lat": "35.400373",
            "lng": "139.426062"
        },
        {
            "index": "12",
            "id": "00129916",
            "name": "菖蒲沢(藤沢市)",
            "lat": "35.398336",
            "lng": "139.430713"
        },
        {
            "index": "13",
            "id": "00129915",
            "name": "笹久保(藤沢市)",
            "lat": "35.39874",
            "lng": "139.435018"
        },
        {
            "index": "14",
            "id": "00129914",
            "name": "仲之桜",
            "lat": "35.398096",
            "lng": "139.439694"
        },
        {
            "index": "15",
            "id": "00129913",
            "name": "六地蔵(藤沢市)",
            "lat": "35.397287",
            "lng": "139.440327"
        },
        {
            "index": "16",
            "id": "00129912",
            "name": "大下(藤沢市)",
            "lat": "35.395913",
            "lng": "139.443705"
        },
        {
            "index": "17",
            "id": "00129911",
            "name": "大山(藤沢市)",
            "lat": "35.395111",
            "lng": "139.448694"
        },
        {
            "index": "18",
            "id": "00129910",
            "name": "加温処理場前",
            "lat": "35.395539",
            "lng": "139.451771"
        },
        {
            "index": "19",
            "id": "00129895",
            "name": "北警察署前(藤沢市)",
            "lat": "35.395948",
            "lng": "139.457964"
        },
        {
            "index": "20",
            "id": "00129893",
            "name": "湘南台駅西口",
            "lat": "35.396197",
            "lng": "139.465719"
        }
    ],
    "route_url": "https://www.kanachu.co.jp/dia/route/index/cid:0000804286/"
}
