{
    "system": "船27",
    "busstops": [
        {
            "index": "1",
            "id": "00126855",
            "name": "大船駅西口",
            "lat": "35.352416",
            "lng": "139.529024"
        },
        {
            "index": "2",
            "id": "00126854",
            "name": "坂本(鎌倉市)",
            "lat": "35.355961",
            "lng": "139.530029"
        },
        {
            "index": "3",
            "id": "00126853",
            "name": "長尾台(横浜市栄区)",
            "lat": "35.359935",
            "lng": "139.528635"
        },
        {
            "index": "4",
            "id": "00126852",
            "name": "宮ノ前(横浜市栄区)",
            "lat": "35.362366",
            "lng": "139.528592"
        },
        {
            "index": "5",
            "id": "00126851",
            "name": "小蓋山",
            "lat": "35.363893",
            "lng": "139.525028"
        },
        {
            "index": "6",
            "id": "00126850",
            "name": "田谷(横浜市栄区)",
            "lat": "35.364457",
            "lng": "139.521133"
        },
        {
            "index": "7",
            "id": "00126849",
            "name": "洞窟前",
            "lat": "35.367281",
            "lng": "139.522619"
        },
        {
            "index": "8",
            "id": "00126848",
            "name": "山王(横浜市栄区)",
            "lat": "35.370108",
            "lng": "139.521863"
        },
        {
            "index": "9",
            "id": "00126931",
            "name": "住友電工入口",
            "lat": "35.371714",
            "lng": "139.523252"
        },
        {
            "index": "10",
            "id": "00126930",
            "name": "住友電工",
            "lat": "35.370714",
            "lng": "139.524529"
        },
        {
            "index": "11",
            "id": "00126929",
            "name": "住友電工南門",
            "lat": "35.365918",
            "lng": "139.529249"
        },
        {
            "index": "12",
            "id": "00126928",
            "name": "ニコン前",
            "lat": "35.363669",
            "lng": "139.528983"
        },
        {
            "index": "13",
            "id": "00126852",
            "name": "宮ノ前(横浜市栄区)",
            "lat": "35.362286",
            "lng": "139.528654"
        },
        {
            "index": "14",
            "id": "00126853",
            "name": "長尾台(横浜市栄区)",
            "lat": "35.360104",
            "lng": "139.528719"
        },
        {
            "index": "15",
            "id": "00126854",
            "name": "坂本(鎌倉市)",
            "lat": "35.35606",
            "lng": "139.530106"
        },
        {
            "index": "16",
            "id": "00126855",
            "name": "大船駅西口",
            "lat": "35.352543",
            "lng": "139.530136"
        }
    ],
    "route_url": "https://www.kanachu.co.jp/dia/route/index/cid:0000802992/"
}
