{
    "system": "町33",
    "busstops": [
        {
            "index": "1",
            "id": "00025625",
            "name": "町田バスセンター",
            "lat": "35.543333",
            "lng": "139.444497"
        },
        {
            "index": "2",
            "id": "00129356",
            "name": "町田市役所市民ホール前",
            "lat": "35.547266",
            "lng": "139.438906"
        },
        {
            "index": "3",
            "id": "00129375",
            "name": "妙延寺(町田市)",
            "lat": "35.54863",
            "lng": "139.436298"
        },
        {
            "index": "4",
            "id": "00129376",
            "name": "森野五丁目",
            "lat": "35.549978",
            "lng": "139.433682"
        },
        {
            "index": "5",
            "id": "00129377",
            "name": "森野六丁目",
            "lat": "35.551345",
            "lng": "139.431057"
        },
        {
            "index": "6",
            "id": "00129378",
            "name": "桧台入口",
            "lat": "35.552983",
            "lng": "139.428506"
        },
        {
            "index": "7",
            "id": "00129379",
            "name": "木曽都営入口",
            "lat": "35.554423",
            "lng": "139.427704"
        },
        {
            "index": "8",
            "id": "00129380",
            "name": "境川団地入口",
            "lat": "35.55721",
            "lng": "139.425674"
        },
        {
            "index": "9",
            "id": "00129381",
            "name": "境川団地中央",
            "lat": "35.559444",
            "lng": "139.4238"
        },
        {
            "index": "10",
            "id": "00129382",
            "name": "境川団地",
            "lat": "35.561869",
            "lng": "139.421858"
        },
        {
            "index": "11",
            "id": "00129383",
            "name": "横町(町田市)",
            "lat": "35.565101",
            "lng": "139.419662"
        },
        {
            "index": "12",
            "id": "00129384",
            "name": "木曽南団地",
            "lat": "35.567544",
            "lng": "139.417933"
        },
        {
            "index": "13",
            "id": "00129495",
            "name": "町田総合高校前",
            "lat": "35.570741",
            "lng": "139.417719"
        },
        {
            "index": "14",
            "id": "00130493",
            "name": "秋葉神社入口",
            "lat": "35.571977",
            "lng": "139.419335"
        },
        {
            "index": "15",
            "id": "00129393",
            "name": "忠生公園前",
            "lat": "35.573226",
            "lng": "139.421383"
        },
        {
            "index": "16",
            "id": "00130494",
            "name": "山崎小学校前(東京都)",
            "lat": "35.575385",
            "lng": "139.424972"
        },
        {
            "index": "17",
            "id": "00129395",
            "name": "上山崎",
            "lat": "35.577893",
            "lng": "139.429241"
        },
        {
            "index": "18",
            "id": "00129397",
            "name": "山崎高校入口",
            "lat": "35.578201",
            "lng": "139.433473"
        },
        {
            "index": "19",
            "id": "00129398",
            "name": "下山崎(町田市)",
            "lat": "35.577333",
            "lng": "139.436112"
        }
    ],
    "route_url": "https://www.kanachu.co.jp/dia/route/index/cid:0000802682/"
}
