{
    "system": "鶴66",
    "busstops": [
        {
            "index": "1",
            "id": "00049296",
            "name": "鶴川駅",
            "lat": "35.583469",
            "lng": "139.480262"
        },
        {
            "index": "2",
            "id": "00129439",
            "name": "上能ヶ谷",
            "lat": "35.583536",
            "lng": "139.475986"
        },
        {
            "index": "3",
            "id": "00129438",
            "name": "金井入口",
            "lat": "35.58492",
            "lng": "139.472259"
        },
        {
            "index": "4",
            "id": "00129437",
            "name": "下大蔵",
            "lat": "35.586771",
            "lng": "139.470134"
        },
        {
            "index": "5",
            "id": "00129436",
            "name": "鶴川市民センター入口",
            "lat": "35.588125",
            "lng": "139.46581"
        },
        {
            "index": "6",
            "id": "00129435",
            "name": "大蔵(鶴川郵便局前/町田市)",
            "lat": "35.588407",
            "lng": "139.463364"
        },
        {
            "index": "7",
            "id": "00130307",
            "name": "春日台",
            "lat": "35.586938",
            "lng": "139.459411"
        },
        {
            "index": "8",
            "id": "00130306",
            "name": "山王ガーデン入口",
            "lat": "35.585284",
            "lng": "139.457989"
        },
        {
            "index": "9",
            "id": "00130305",
            "name": "山王ガーデン",
            "lat": "35.584977",
            "lng": "139.456069"
        },
        {
            "index": "10",
            "id": "00129433",
            "name": "綾部入口",
            "lat": "35.588633",
            "lng": "139.454695"
        },
        {
            "index": "11",
            "id": "00129430",
            "name": "袋橋",
            "lat": "35.58802",
            "lng": "139.44962"
        },
        {
            "index": "12",
            "id": "00129431",
            "name": "田中入口",
            "lat": "35.587666",
            "lng": "139.446308"
        },
        {
            "index": "13",
            "id": "00129373",
            "name": "野津田車庫",
            "lat": "35.587136",
            "lng": "139.442338"
        }
    ],
    "route_url": "https://www.kanachu.co.jp/dia/route/index/cid:0000804196/"
}
