{
    "system": "厚89",
    "busstops": [
        {
            "index": "1",
            "id": "00128303",
            "name": "鳶尾団地",
            "lat": "35.491318",
            "lng": "139.327172"
        },
        {
            "index": "2",
            "id": "00128658",
            "name": "鳶尾小学校入口",
            "lat": "35.491507",
            "lng": "139.331504"
        },
        {
            "index": "3",
            "id": "00128657",
            "name": "鳶尾一丁目",
            "lat": "35.491748",
            "lng": "139.33381"
        },
        {
            "index": "4",
            "id": "00128656",
            "name": "鳶尾団地東",
            "lat": "35.489817",
            "lng": "139.335536"
        },
        {
            "index": "5",
            "id": "00128655",
            "name": "西四ッ谷",
            "lat": "35.490711",
            "lng": "139.339179"
        },
        {
            "index": "6",
            "id": "00128306",
            "name": "リコー前",
            "lat": "35.488218",
            "lng": "139.340349"
        },
        {
            "index": "7",
            "id": "00128305",
            "name": "神奈川工科大学前",
            "lat": "35.485364",
            "lng": "139.340927"
        },
        {
            "index": "8",
            "id": "00128304",
            "name": "子中",
            "lat": "35.481254",
            "lng": "139.34153"
        },
        {
            "index": "9",
            "id": "00128268",
            "name": "荻野新宿",
            "lat": "35.478912",
            "lng": "139.341519"
        },
        {
            "index": "10",
            "id": "00128267",
            "name": "宿原入口",
            "lat": "35.474574",
            "lng": "139.344987"
        },
        {
            "index": "11",
            "id": "00128266",
            "name": "糀屋前(厚木市)",
            "lat": "35.472994",
            "lng": "139.346533"
        },
        {
            "index": "12",
            "id": "00128265",
            "name": "松蓮寺",
            "lat": "35.469138",
            "lng": "139.349959"
        },
        {
            "index": "13",
            "id": "00128264",
            "name": "妻田薬師",
            "lat": "35.464717",
            "lng": "139.355991"
        },
        {
            "index": "14",
            "id": "00128263",
            "name": "中村入口(厚木市)",
            "lat": "35.461193",
            "lng": "139.357702"
        },
        {
            "index": "15",
            "id": "00128262",
            "name": "妻田",
            "lat": "35.458099",
            "lng": "139.359472"
        },
        {
            "index": "16",
            "id": "00128261",
            "name": "三家入口(厚木市)",
            "lat": "35.454084",
            "lng": "139.359576"
        },
        {
            "index": "17",
            "id": "00128260",
            "name": "木売場",
            "lat": "35.452468",
            "lng": "139.359907"
        },
        {
            "index": "18",
            "id": "00128259",
            "name": "市立病院前(厚木市)",
            "lat": "35.447478",
            "lng": "139.361283"
        },
        {
            "index": "19",
            "id": "00128258",
            "name": "税務署入口(厚木市)",
            "lat": "35.446455",
            "lng": "139.361174"
        },
        {
            "index": "20",
            "id": "00128396",
            "name": "市役所入口(厚木市)",
            "lat": "35.442124",
            "lng": "139.361848"
        },
        {
            "index": "21",
            "id": "00025684",
            "name": "本厚木駅",
            "lat": "35.440542",
            "lng": "139.363859"
        },
        {
            "index": "22",
            "id": "00128256",
            "name": "厚木バスセンター",
            "lat": "35.441107",
            "lng": "139.36685"
        }
    ],
    "route_url": "https://www.kanachu.co.jp/dia/route/index/cid:0000800416/"
}
