{
    "system": "小04",
    "busstops": [
        {
            "index": "1",
            "id": "00129119",
            "name": "北里大学病院・北里大学",
            "lat": "35.537629",
            "lng": "139.394415"
        },
        {
            "index": "2",
            "id": "00129064",
            "name": "麻溝台高校",
            "lat": "35.537472",
            "lng": "139.400357"
        },
        {
            "index": "3",
            "id": "00129121",
            "name": "麻溝台入口",
            "lat": "35.537813",
            "lng": "139.404059"
        },
        {
            "index": "4",
            "id": "00129698",
            "name": "さがみ緑風園前",
            "lat": "35.533437",
            "lng": "139.405581"
        },
        {
            "index": "5",
            "id": "00129697",
            "name": "麻溝台中学校入口",
            "lat": "35.530641",
            "lng": "139.405999"
        },
        {
            "index": "6",
            "id": "00129696",
            "name": "麻溝台",
            "lat": "35.527114",
            "lng": "139.406533"
        },
        {
            "index": "7",
            "id": "00129695",
            "name": "水道路(相模原市南区)",
            "lat": "35.524689",
            "lng": "139.407451"
        },
        {
            "index": "8",
            "id": "00129693",
            "name": "第一住宅(相模原市南区)",
            "lat": "35.522708",
            "lng": "139.412187"
        },
        {
            "index": "9",
            "id": "00129692",
            "name": "国立相模原病院",
            "lat": "35.520223",
            "lng": "139.412525"
        },
        {
            "index": "10",
            "id": "00129691",
            "name": "相模台まちづくりセンター前",
            "lat": "35.519087",
            "lng": "139.415468"
        },
        {
            "index": "11",
            "id": "00129699",
            "name": "ハウス南門前",
            "lat": "35.519107",
            "lng": "139.41789"
        },
        {
            "index": "12",
            "id": "00129700",
            "name": "鶴ヶ丘団地前",
            "lat": "35.519259",
            "lng": "139.42165"
        },
        {
            "index": "13",
            "id": "00129689",
            "name": "二宮神社前(相模原市南区)",
            "lat": "35.517404",
            "lng": "139.42261"
        },
        {
            "index": "14",
            "id": "00129690",
            "name": "小田急相模原駅",
            "lat": "35.515644",
            "lng": "139.422479"
        }
    ],
    "route_url": "https://www.kanachu.co.jp/dia/route/index/cid:0000801917/"
}
