{
    "system": "町18",
    "busstops": [
        {
            "index": "1",
            "id": "00025625",
            "name": "町田バスセンター",
            "lat": "35.543497",
            "lng": "139.444468"
        },
        {
            "index": "2",
            "id": "00129356",
            "name": "町田市役所市民ホール前",
            "lat": "35.547227",
            "lng": "139.439002"
        },
        {
            "index": "3",
            "id": "00129357",
            "name": "第四小学校前(町田市)",
            "lat": "35.550343",
            "lng": "139.438207"
        },
        {
            "index": "4",
            "id": "00130353",
            "name": "中町二丁目",
            "lat": "35.552443",
            "lng": "139.44047"
        },
        {
            "index": "5",
            "id": "00130506",
            "name": "旭町(町田市)",
            "lat": "35.554529",
            "lng": "139.442022"
        },
        {
            "index": "6",
            "id": "00130288",
            "name": "町田市民病院",
            "lat": "35.557123",
            "lng": "139.438156"
        },
        {
            "index": "7",
            "id": "00129482",
            "name": "五間道路",
            "lat": "35.553317",
            "lng": "139.443277"
        },
        {
            "index": "8",
            "id": "00129483",
            "name": "図書館前(町田市)",
            "lat": "35.551615",
            "lng": "139.444787"
        },
        {
            "index": "9",
            "id": "00129484",
            "name": "中町一丁目(町田市)",
            "lat": "35.548859",
            "lng": "139.447249"
        },
        {
            "index": "10",
            "id": "00129464",
            "name": "原町田五丁目",
            "lat": "35.545842",
            "lng": "139.449909"
        },
        {
            "index": "11",
            "id": "00129465",
            "name": "原町田四丁目",
            "lat": "35.54358",
            "lng": "139.451946"
        },
        {
            "index": "12",
            "id": "00129545",
            "name": "町田ターミナル前",
            "lat": "35.540847",
            "lng": "139.448655"
        },
        {
            "index": "13",
            "id": "00025625",
            "name": "町田バスセンター",
            "lat": "35.542707",
            "lng": "139.445092"
        }
    ],
    "route_url": "https://www.kanachu.co.jp/dia/route/index/cid:0000804256/"
}
