{
    "system": "伊58",
    "busstops": [
        {
            "index": "1",
            "id": "00127856",
            "name": "善波",
            "lat": "35.386025",
            "lng": "139.258341"
        },
        {
            "index": "2",
            "id": "00127857",
            "name": "善波西玉",
            "lat": "35.388005",
            "lng": "139.262375"
        },
        {
            "index": "3",
            "id": "00127858",
            "name": "笠谷戸",
            "lat": "35.389598",
            "lng": "139.268771"
        },
        {
            "index": "4",
            "id": "00127859",
            "name": "坪ノ内",
            "lat": "35.389603",
            "lng": "139.273439"
        },
        {
            "index": "5",
            "id": "00127981",
            "name": "大住台",
            "lat": "35.388897",
            "lng": "139.276138"
        },
        {
            "index": "6",
            "id": "00127982",
            "name": "谷戸岡",
            "lat": "35.389583",
            "lng": "139.27934"
        },
        {
            "index": "7",
            "id": "00127860",
            "name": "桜坂(伊勢原市)",
            "lat": "35.3911",
            "lng": "139.281977"
        },
        {
            "index": "8",
            "id": "00128135",
            "name": "串橋入口",
            "lat": "35.393358",
            "lng": "139.285941"
        },
        {
            "index": "9",
            "id": "00128134",
            "name": "神戸(伊勢原市)",
            "lat": "35.395265",
            "lng": "139.289436"
        },
        {
            "index": "10",
            "id": "00128133",
            "name": "白根公民館前",
            "lat": "35.397788",
            "lng": "139.294181"
        },
        {
            "index": "11",
            "id": "00128132",
            "name": "白根",
            "lat": "35.39842",
            "lng": "139.297059"
        },
        {
            "index": "12",
            "id": "00128131",
            "name": "八雲神社前(伊勢原市)",
            "lat": "35.399087",
            "lng": "139.299387"
        },
        {
            "index": "13",
            "id": "00128130",
            "name": "板戸",
            "lat": "35.400027",
            "lng": "139.302165"
        },
        {
            "index": "14",
            "id": "00128129",
            "name": "大神宮前",
            "lat": "35.399561",
            "lng": "139.305091"
        },
        {
            "index": "15",
            "id": "00128128",
            "name": "本町(伊勢原市)",
            "lat": "35.397447",
            "lng": "139.309145"
        },
        {
            "index": "16",
            "id": "00128127",
            "name": "伊勢原駅北口",
            "lat": "35.39652",
            "lng": "139.313281"
        }
    ],
    "route_url": "https://www.kanachu.co.jp/dia/route/index/cid:0000801374/"
}
