{
    "system": "平33",
    "busstops": [
        {
            "index": "1",
            "id": "00127464",
            "name": "平塚駅北口",
            "lat": "35.329255",
            "lng": "139.350287"
        },
        {
            "index": "2",
            "id": "00127465",
            "name": "銀座通り(平塚市)",
            "lat": "35.329601",
            "lng": "139.348024"
        },
        {
            "index": "3",
            "id": "00127466",
            "name": "平塚文化芸術ホール前",
            "lat": "35.328853",
            "lng": "139.344531"
        },
        {
            "index": "4",
            "id": "00127467",
            "name": "八間通り",
            "lat": "35.327918",
            "lng": "139.340189"
        },
        {
            "index": "5",
            "id": "00127468",
            "name": "豊田道",
            "lat": "35.327492",
            "lng": "139.338433"
        },
        {
            "index": "6",
            "id": "00127469",
            "name": "柳町(平塚市)",
            "lat": "35.326218",
            "lng": "139.334583"
        },
        {
            "index": "7",
            "id": "00127470",
            "name": "古花水",
            "lat": "35.325518",
            "lng": "139.332584"
        },
        {
            "index": "8",
            "id": "00127529",
            "name": "花水橋",
            "lat": "35.324026",
            "lng": "139.327877"
        },
        {
            "index": "9",
            "id": "00127530",
            "name": "高麗清水",
            "lat": "35.325785",
            "lng": "139.324466"
        },
        {
            "index": "10",
            "id": "00127531",
            "name": "高根(平塚市)",
            "lat": "35.326078",
            "lng": "139.322958"
        },
        {
            "index": "11",
            "id": "00127532",
            "name": "山下(平塚市)",
            "lat": "35.326713",
            "lng": "139.319267"
        },
        {
            "index": "12",
            "id": "00127533",
            "name": "上山下(平塚市)",
            "lat": "35.328225",
            "lng": "139.314289"
        },
        {
            "index": "13",
            "id": "00127534",
            "name": "下万田",
            "lat": "35.328624",
            "lng": "139.310729"
        },
        {
            "index": "14",
            "id": "00127535",
            "name": "上万田",
            "lat": "35.326695",
            "lng": "139.30753"
        },
        {
            "index": "15",
            "id": "00127538",
            "name": "万田自治会館前",
            "lat": "35.325365",
            "lng": "139.305495"
        },
        {
            "index": "16",
            "id": "00127539",
            "name": "小向(平塚市)",
            "lat": "35.326404",
            "lng": "139.302073"
        },
        {
            "index": "17",
            "id": "00127540",
            "name": "下出縄",
            "lat": "35.329882",
            "lng": "139.302195"
        },
        {
            "index": "18",
            "id": "00127541",
            "name": "上出縄",
            "lat": "35.330932",
            "lng": "139.297786"
        },
        {
            "index": "19",
            "id": "00127542",
            "name": "上寺坂",
            "lat": "35.327466",
            "lng": "139.290479"
        },
        {
            "index": "20",
            "id": "00127550",
            "name": "境橋(中郡大磯町)",
            "lat": "35.330374",
            "lng": "139.293078"
        },
        {
            "index": "21",
            "id": "00127551",
            "name": "弁天通り(平塚市)",
            "lat": "35.335711",
            "lng": "139.293009"
        },
        {
            "index": "22",
            "id": "00127552",
            "name": "松岩寺",
            "lat": "35.338293",
            "lng": "139.292757"
        }
    ],
    "route_url": "https://www.kanachu.co.jp/dia/route/index/cid:0000800592/"
}
