{
    "system": "湘11",
    "busstops": [
        {
            "index": "1",
            "id": "00127126",
            "name": "茅ヶ崎駅",
            "lat": "35.331008",
            "lng": "139.405916"
        },
        {
            "index": "2",
            "id": "00127135",
            "name": "中央公園前(茅ケ崎市)",
            "lat": "35.334628",
            "lng": "139.407764"
        },
        {
            "index": "3",
            "id": "00127136",
            "name": "前の田",
            "lat": "35.337476",
            "lng": "139.409841"
        },
        {
            "index": "4",
            "id": "00127137",
            "name": "神奈中営業所前",
            "lat": "35.341599",
            "lng": "139.411337"
        },
        {
            "index": "5",
            "id": "00127138",
            "name": "ニュータウン入口(茅ケ崎市)",
            "lat": "35.343848",
            "lng": "139.412199"
        },
        {
            "index": "6",
            "id": "00127139",
            "name": "鶴が台入口",
            "lat": "35.346425",
            "lng": "139.413098"
        },
        {
            "index": "7",
            "id": "00127140",
            "name": "高田(茅ケ崎市)",
            "lat": "35.348902",
            "lng": "139.414014"
        },
        {
            "index": "8",
            "id": "00127141",
            "name": "甘沼",
            "lat": "35.35075",
            "lng": "139.414877"
        },
        {
            "index": "9",
            "id": "00127267",
            "name": "八幡神社前(茅ケ崎市)",
            "lat": "35.352286",
            "lng": "139.417514"
        },
        {
            "index": "10",
            "id": "00127142",
            "name": "殿山公園前",
            "lat": "35.354267",
            "lng": "139.420242"
        },
        {
            "index": "11",
            "id": "00127143",
            "name": "南長谷戸",
            "lat": "35.357617",
            "lng": "139.420145"
        },
        {
            "index": "12",
            "id": "00127144",
            "name": "長谷戸",
            "lat": "35.359765",
            "lng": "139.420891"
        },
        {
            "index": "13",
            "id": "00127145",
            "name": "堤坂下",
            "lat": "35.364616",
            "lng": "139.421641"
        },
        {
            "index": "14",
            "id": "00127146",
            "name": "小出二本松",
            "lat": "35.370205",
            "lng": "139.42396"
        },
        {
            "index": "15",
            "id": "00129958",
            "name": "大辻(藤沢市)",
            "lat": "35.370999",
            "lng": "139.428424"
        },
        {
            "index": "16",
            "id": "00129957",
            "name": "小出一本松",
            "lat": "35.373482",
            "lng": "139.430407"
        },
        {
            "index": "17",
            "id": "00129948",
            "name": "湘南ライフタウン",
            "lat": "35.374737",
            "lng": "139.432189"
        },
        {
            "index": "18",
            "id": "00129924",
            "name": "遠藤中原",
            "lat": "35.378897",
            "lng": "139.43586"
        },
        {
            "index": "19",
            "id": "00129923",
            "name": "遠藤松原",
            "lat": "35.382721",
            "lng": "139.437942"
        },
        {
            "index": "20",
            "id": "00129922",
            "name": "市営住宅前(藤沢市)",
            "lat": "35.383958",
            "lng": "139.438456"
        },
        {
            "index": "21",
            "id": "00129921",
            "name": "遠藤北原",
            "lat": "35.387589",
            "lng": "139.43951"
        },
        {
            "index": "22",
            "id": "00129920",
            "name": "秋葉台小学校",
            "lat": "35.38959",
            "lng": "139.439862"
        },
        {
            "index": "23",
            "id": "00129919",
            "name": "遠藤(藤沢市)",
            "lat": "35.391977",
            "lng": "139.44182"
        },
        {
            "index": "24",
            "id": "00129918",
            "name": "南大山",
            "lat": "35.393316",
            "lng": "139.447382"
        },
        {
            "index": "25",
            "id": "00129909",
            "name": "工業団地入口(藤沢市)",
            "lat": "35.394452",
            "lng": "139.451869"
        },
        {
            "index": "26",
            "id": "00129895",
            "name": "北警察署前(藤沢市)",
            "lat": "35.395948",
            "lng": "139.457964"
        },
        {
            "index": "27",
            "id": "00129893",
            "name": "湘南台駅西口",
            "lat": "35.396025",
            "lng": "139.46595"
        }
    ],
    "route_url": "https://www.kanachu.co.jp/dia/route/index/cid:0000800506/"
}
