{
    "system": "東01",
    "busstops": [
        {
            "index": "1",
            "id": "00102234",
            "name": "井土ヶ谷下町",
            "lat": "35.431441",
            "lng": "139.607236"
        },
        {
            "index": "2",
            "id": "00102744",
            "name": "鶴巻(横浜市南区)",
            "lat": "35.430881",
            "lng": "139.603653"
        },
        {
            "index": "3",
            "id": "00126630",
            "name": "住宅前(横浜市南区)",
            "lat": "35.431675",
            "lng": "139.59938"
        },
        {
            "index": "4",
            "id": "00126629",
            "name": "南永田",
            "lat": "35.429152",
            "lng": "139.596926"
        },
        {
            "index": "5",
            "id": "00126628",
            "name": "弘明寺口",
            "lat": "35.42592",
            "lng": "139.594946"
        },
        {
            "index": "6",
            "id": "00126627",
            "name": "六ツ川町",
            "lat": "35.424257",
            "lng": "139.590062"
        },
        {
            "index": "7",
            "id": "00126626",
            "name": "上六ツ川",
            "lat": "35.424313",
            "lng": "139.584435"
        },
        {
            "index": "8",
            "id": "00126625",
            "name": "大池(横浜市南区)",
            "lat": "35.426156",
            "lng": "139.582753"
        },
        {
            "index": "9",
            "id": "00126624",
            "name": "引越坂",
            "lat": "35.425976",
            "lng": "139.57907"
        },
        {
            "index": "10",
            "id": "00126623",
            "name": "こども医療センター",
            "lat": "35.421862",
            "lng": "139.578235"
        },
        {
            "index": "11",
            "id": "00126622",
            "name": "六ツ川四丁目",
            "lat": "35.424233",
            "lng": "139.573668"
        },
        {
            "index": "12",
            "id": "00126620",
            "name": "山谷(横浜市戸塚区)",
            "lat": "35.425433",
            "lng": "139.568921"
        },
        {
            "index": "13",
            "id": "00126619",
            "name": "坂下口",
            "lat": "35.422381",
            "lng": "139.565142"
        },
        {
            "index": "14",
            "id": "00126618",
            "name": "国道平戸",
            "lat": "35.420252",
            "lng": "139.560743"
        },
        {
            "index": "15",
            "id": "00126617",
            "name": "品濃口",
            "lat": "35.422447",
            "lng": "139.557983"
        },
        {
            "index": "16",
            "id": "00126641",
            "name": "坂下(横浜市戸塚区)",
            "lat": "35.425594",
            "lng": "139.559021"
        },
        {
            "index": "17",
            "id": "00126642",
            "name": "品濃町(横浜市戸塚区)",
            "lat": "35.42754",
            "lng": "139.55915"
        },
        {
            "index": "18",
            "id": "00126647",
            "name": "東戸塚駅東口",
            "lat": "35.429912",
            "lng": "139.55729"
        }
    ],
    "route_url": "https://www.kanachu.co.jp/dia/route/index/cid:0000803835/"
}
