{
    "system": "舞01",
    "busstops": [
        {
            "index": "1",
            "id": "00126646",
            "name": "舞岡",
            "lat": "35.409213",
            "lng": "139.551129"
        },
        {
            "index": "2",
            "id": "00130219",
            "name": "リサーチパーク入口",
            "lat": "35.405709",
            "lng": "139.552979"
        },
        {
            "index": "3",
            "id": "00130220",
            "name": "舞岡地区センター前",
            "lat": "35.403654",
            "lng": "139.553701"
        },
        {
            "index": "4",
            "id": "00130221",
            "name": "スポーツ公園前",
            "lat": "35.40021",
            "lng": "139.558236"
        },
        {
            "index": "5",
            "id": "00102959",
            "name": "日限山",
            "lat": "35.397978",
            "lng": "139.561482"
        },
        {
            "index": "6",
            "id": "00103094",
            "name": "丸山台中学校前",
            "lat": "35.39636",
            "lng": "139.565457"
        },
        {
            "index": "7",
            "id": "00103100",
            "name": "丸山台(横浜市港南区)",
            "lat": "35.398698",
            "lng": "139.568423"
        },
        {
            "index": "8",
            "id": "00102365",
            "name": "上永谷駅",
            "lat": "35.400921",
            "lng": "139.571281"
        }
    ],
    "route_url": "https://www.kanachu.co.jp/dia/route/index/cid:0000800662/"
}
