{
    "system": "相12",
    "busstops": [
        {
            "index": "1",
            "id": "00129347",
            "name": "上溝",
            "lat": "35.557313",
            "lng": "139.363331"
        },
        {
            "index": "2",
            "id": "00129294",
            "name": "横山六丁目",
            "lat": "35.560036",
            "lng": "139.365891"
        },
        {
            "index": "3",
            "id": "00129254",
            "name": "星が丘住宅前",
            "lat": "35.563248",
            "lng": "139.368275"
        },
        {
            "index": "4",
            "id": "00129140",
            "name": "高校入口(相模原市中央区)",
            "lat": "35.565641",
            "lng": "139.370036"
        },
        {
            "index": "5",
            "id": "00129103",
            "name": "JA相模原市前",
            "lat": "35.567442",
            "lng": "139.371371"
        },
        {
            "index": "6",
            "id": "00129153",
            "name": "市民会館前(相模原市中央区)",
            "lat": "35.570019",
            "lng": "139.373264"
        },
        {
            "index": "7",
            "id": "00128537",
            "name": "市役所前(相模原市中央区)",
            "lat": "35.571324",
            "lng": "139.374246"
        },
        {
            "index": "8",
            "id": "00128538",
            "name": "グリーンプラザ(相模原市中央区)",
            "lat": "35.574154",
            "lng": "139.376289"
        },
        {
            "index": "9",
            "id": "00128539",
            "name": "西門前(相模原市中央区)",
            "lat": "35.57683",
            "lng": "139.376765"
        },
        {
            "index": "10",
            "id": "00128540",
            "name": "相模原五丁目",
            "lat": "35.578232",
            "lng": "139.3741"
        },
        {
            "index": "11",
            "id": "00129335",
            "name": "相模原駅南口",
            "lat": "35.580691",
            "lng": "139.371167"
        }
    ],
    "route_url": "https://www.kanachu.co.jp/dia/route/index/cid:0000802384/"
}
