{
    "system": "本21",
    "busstops": [
        {
            "index": "1",
            "id": "00126595",
            "name": "本郷台駅",
            "lat": "35.367099",
            "lng": "139.551179"
        },
        {
            "index": "2",
            "id": "00126545",
            "name": "栄区役所前",
            "lat": "35.364372",
            "lng": "139.552107"
        },
        {
            "index": "3",
            "id": "00126609",
            "name": "栄警察署前",
            "lat": "35.362583",
            "lng": "139.553207"
        },
        {
            "index": "4",
            "id": "00126507",
            "name": "天神橋(横浜市栄区)",
            "lat": "35.363475",
            "lng": "139.555167"
        },
        {
            "index": "5",
            "id": "00126539",
            "name": "団地入口(横浜市栄区)",
            "lat": "35.362736",
            "lng": "139.556962"
        },
        {
            "index": "6",
            "id": "00126540",
            "name": "団地下(横浜市栄区)",
            "lat": "35.360012",
            "lng": "139.556766"
        },
        {
            "index": "7",
            "id": "00126541",
            "name": "公田団地",
            "lat": "35.358766",
            "lng": "139.556966"
        }
    ],
    "route_url": "https://www.kanachu.co.jp/dia/route/index/cid:0000801372/"
}
