{
    "system": "相02",
    "busstops": [
        {
            "index": "1",
            "id": "00129335",
            "name": "相模原駅南口",
            "lat": "35.580649",
            "lng": "139.371324"
        },
        {
            "index": "2",
            "id": "00129080",
            "name": "さがみ夢大通り",
            "lat": "35.576848",
            "lng": "139.368148"
        },
        {
            "index": "3",
            "id": "00129132",
            "name": "相模原警察署前",
            "lat": "35.571923",
            "lng": "139.376519"
        },
        {
            "index": "4",
            "id": "00129302",
            "name": "中央小学校北",
            "lat": "35.570345",
            "lng": "139.379792"
        },
        {
            "index": "5",
            "id": "00129282",
            "name": "矢部駅入口",
            "lat": "35.568689",
            "lng": "139.383252"
        },
        {
            "index": "6",
            "id": "00129101",
            "name": "鹿沼台",
            "lat": "35.566621",
            "lng": "139.387779"
        },
        {
            "index": "7",
            "id": "00129102",
            "name": "鹿沼公園南入口",
            "lat": "35.5656",
            "lng": "139.389984"
        },
        {
            "index": "8",
            "id": "00129248",
            "name": "淵野辺十字路",
            "lat": "35.563998",
            "lng": "139.393374"
        },
        {
            "index": "9",
            "id": "00129075",
            "name": "宇宙科学研究本部",
            "lat": "35.561648",
            "lng": "139.398436"
        },
        {
            "index": "10",
            "id": "00129123",
            "name": "共和(相模原市中央区)",
            "lat": "35.559303",
            "lng": "139.403427"
        },
        {
            "index": "11",
            "id": "00129191",
            "name": "嶽の内入口",
            "lat": "35.557047",
            "lng": "139.408293"
        },
        {
            "index": "12",
            "id": "00129298",
            "name": "老人ホーム入口(相模原市南区)",
            "lat": "35.554358",
            "lng": "139.414006"
        },
        {
            "index": "13",
            "id": "00129314",
            "name": "古淵駅入口",
            "lat": "35.551717",
            "lng": "139.418674"
        },
        {
            "index": "14",
            "id": "00129098",
            "name": "大野小学校入口",
            "lat": "35.549908",
            "lng": "139.421323"
        },
        {
            "index": "15",
            "id": "00129127",
            "name": "市営斎場入口",
            "lat": "35.548226",
            "lng": "139.423587"
        },
        {
            "index": "16",
            "id": "00129271",
            "name": "南警察署前(相模原市南区)",
            "lat": "35.545411",
            "lng": "139.42695"
        },
        {
            "index": "17",
            "id": "00129149",
            "name": "相模病院入口",
            "lat": "35.543318",
            "lng": "139.429433"
        },
        {
            "index": "18",
            "id": "00129076",
            "name": "鵜野森",
            "lat": "35.540758",
            "lng": "139.432057"
        },
        {
            "index": "19",
            "id": "00129278",
            "name": "谷口(相模原市南区)",
            "lat": "35.537658",
            "lng": "139.434932"
        },
        {
            "index": "20",
            "id": "00114298",
            "name": "相模大野駅北口",
            "lat": "35.531961",
            "lng": "139.436873"
        }
    ],
    "route_url": "https://www.kanachu.co.jp/dia/route/index/cid:0000802392/"
}
