{
    "system": "秦38",
    "busstops": [
        {
            "index": "1",
            "id": "00127824",
            "name": "神奈川大学",
            "lat": "35.348527",
            "lng": "139.261466"
        },
        {
            "index": "2",
            "id": "00128015",
            "name": "自治会館前(平塚市)",
            "lat": "35.348772",
            "lng": "139.255174"
        },
        {
            "index": "3",
            "id": "00128014",
            "name": "遠藤原",
            "lat": "35.351138",
            "lng": "139.252679"
        },
        {
            "index": "4",
            "id": "00128013",
            "name": "小熊天神前",
            "lat": "35.354259",
            "lng": "139.259382"
        },
        {
            "index": "5",
            "id": "00128012",
            "name": "湘南老人ホーム前",
            "lat": "35.355111",
            "lng": "139.257534"
        },
        {
            "index": "6",
            "id": "00128011",
            "name": "下大槻南平",
            "lat": "35.355576",
            "lng": "139.254967"
        },
        {
            "index": "7",
            "id": "00127725",
            "name": "南平橋",
            "lat": "35.358109",
            "lng": "139.253293"
        },
        {
            "index": "8",
            "id": "00127724",
            "name": "下大槻",
            "lat": "35.361254",
            "lng": "139.248962"
        },
        {
            "index": "9",
            "id": "00127723",
            "name": "秦才橋",
            "lat": "35.363628",
            "lng": "139.245739"
        },
        {
            "index": "10",
            "id": "00127722",
            "name": "なでしこ広場前",
            "lat": "35.36665",
            "lng": "139.241696"
        },
        {
            "index": "11",
            "id": "00127721",
            "name": "室川橋",
            "lat": "35.367774",
            "lng": "139.2393"
        },
        {
            "index": "12",
            "id": "00127715",
            "name": "秦野駅",
            "lat": "35.370293",
            "lng": "139.226956"
        }
    ],
    "route_url": "https://www.kanachu.co.jp/dia/route/index/cid:0000803384/"
}
