{
    "system": "秦12",
    "busstops": [
        {
            "index": "1",
            "id": "00127899",
            "name": "渋沢駅北口",
            "lat": "35.374414",
            "lng": "139.184623"
        },
        {
            "index": "2",
            "id": "00127898",
            "name": "柳町(秦野市)",
            "lat": "35.37553",
            "lng": "139.182212"
        },
        {
            "index": "3",
            "id": "00127897",
            "name": "西中学校前(秦野市)",
            "lat": "35.376635",
            "lng": "139.181504"
        },
        {
            "index": "4",
            "id": "00127896",
            "name": "西小学校前(秦野市)",
            "lat": "35.379483",
            "lng": "139.179844"
        },
        {
            "index": "5",
            "id": "00127895",
            "name": "中道(秦野市)",
            "lat": "35.382556",
            "lng": "139.179036"
        },
        {
            "index": "6",
            "id": "00128052",
            "name": "堀西駐在所前",
            "lat": "35.384407",
            "lng": "139.178248"
        },
        {
            "index": "7",
            "id": "00127894",
            "name": "堀川",
            "lat": "35.387268",
            "lng": "139.177212"
        },
        {
            "index": "8",
            "id": "00127893",
            "name": "関(秦野市)",
            "lat": "35.388951",
            "lng": "139.178521"
        },
        {
            "index": "9",
            "id": "00127892",
            "name": "大倉入口",
            "lat": "35.391699",
            "lng": "139.180761"
        },
        {
            "index": "10",
            "id": "00127891",
            "name": "平和橋(秦野市)",
            "lat": "35.39286",
            "lng": "139.1824"
        },
        {
            "index": "11",
            "id": "00127922",
            "name": "上河原(秦野市)",
            "lat": "35.390616",
            "lng": "139.185663"
        },
        {
            "index": "12",
            "id": "00127991",
            "name": "古墳公園前",
            "lat": "35.387111",
            "lng": "139.190184"
        },
        {
            "index": "13",
            "id": "00127921",
            "name": "塚原橋(秦野市)",
            "lat": "35.385677",
            "lng": "139.193687"
        },
        {
            "index": "14",
            "id": "00127920",
            "name": "三屋出口",
            "lat": "35.384267",
            "lng": "139.196367"
        },
        {
            "index": "15",
            "id": "00127919",
            "name": "水無瀬橋(秦野市)",
            "lat": "35.383332",
            "lng": "139.199668"
        },
        {
            "index": "16",
            "id": "00127918",
            "name": "カルチャーパーク前",
            "lat": "35.381089",
            "lng": "139.203828"
        },
        {
            "index": "17",
            "id": "00127917",
            "name": "浄屋入口",
            "lat": "35.380208",
            "lng": "139.205112"
        },
        {
            "index": "18",
            "id": "00127915",
            "name": "富士見橋・警察署入口",
            "lat": "35.377623",
            "lng": "139.209782"
        },
        {
            "index": "19",
            "id": "00127914",
            "name": "富士見町入口",
            "lat": "35.376125",
            "lng": "139.213025"
        },
        {
            "index": "20",
            "id": "00127913",
            "name": "本町中学校前",
            "lat": "35.375361",
            "lng": "139.215522"
        },
        {
            "index": "21",
            "id": "00127912",
            "name": "桜橋(秦野市)",
            "lat": "35.37458",
            "lng": "139.218803"
        },
        {
            "index": "22",
            "id": "00127911",
            "name": "市役所前(秦野市)",
            "lat": "35.374166",
            "lng": "139.220648"
        },
        {
            "index": "23",
            "id": "00130496",
            "name": "大川橋・本町小学校前",
            "lat": "35.373289",
            "lng": "139.223706"
        },
        {
            "index": "24",
            "id": "00128033",
            "name": "まほろば大橋",
            "lat": "35.371621",
            "lng": "139.226445"
        },
        {
            "index": "25",
            "id": "00127715",
            "name": "秦野駅",
            "lat": "35.370293",
            "lng": "139.226956"
        }
    ],
    "route_url": "https://www.kanachu.co.jp/dia/route/index/cid:0000802736/"
}
