{
    "system": "原19",
    "busstops": [
        {
            "index": "1",
            "id": "00021279",
            "name": "法政大学(町田市)",
            "lat": "35.613626",
            "lng": "139.296581"
        },
        {
            "index": "2",
            "id": "00128894",
            "name": "公会堂前(町田市)",
            "lat": "35.610597",
            "lng": "139.296487"
        },
        {
            "index": "3",
            "id": "00128893",
            "name": "水の口(町田市)",
            "lat": "35.609824",
            "lng": "139.298652"
        },
        {
            "index": "4",
            "id": "00128892",
            "name": "円林寺前",
            "lat": "35.60751",
            "lng": "139.301525"
        },
        {
            "index": "5",
            "id": "00128891",
            "name": "境橋(町田市)",
            "lat": "35.605843",
            "lng": "139.30484"
        },
        {
            "index": "6",
            "id": "00128890",
            "name": "根岸(相原町/町田市)",
            "lat": "35.605352",
            "lng": "139.309341"
        },
        {
            "index": "7",
            "id": "00128889",
            "name": "相原十字路",
            "lat": "35.605823",
            "lng": "139.31628"
        },
        {
            "index": "8",
            "id": "00128888",
            "name": "開都",
            "lat": "35.606641",
            "lng": "139.320004"
        },
        {
            "index": "9",
            "id": "00128887",
            "name": "相原小学校前",
            "lat": "35.605788",
            "lng": "139.323307"
        },
        {
            "index": "10",
            "id": "00128886",
            "name": "諏訪神社前(町田市)",
            "lat": "35.604699",
            "lng": "139.327354"
        },
        {
            "index": "11",
            "id": "00130397",
            "name": "相原駅西口",
            "lat": "35.606451",
            "lng": "139.330992"
        }
    ],
    "route_url": "https://www.kanachu.co.jp/dia/route/index/cid:0000802289/"
}
