{
    "system": "橋58",
    "busstops": [
        {
            "index": "1",
            "id": "00129162",
            "name": "下九沢団地",
            "lat": "35.57333",
            "lng": "139.348149"
        },
        {
            "index": "2",
            "id": "00129318",
            "name": "下九沢団地入口",
            "lat": "35.573994",
            "lng": "139.349119"
        },
        {
            "index": "3",
            "id": "00130363",
            "name": "あじさい通り中央",
            "lat": "35.576387",
            "lng": "139.346763"
        },
        {
            "index": "4",
            "id": "00130362",
            "name": "宮の上(相模原市)",
            "lat": "35.576976",
            "lng": "139.343487"
        },
        {
            "index": "5",
            "id": "00129199",
            "name": "塚場坂上",
            "lat": "35.578946",
            "lng": "139.341553"
        },
        {
            "index": "6",
            "id": "00129266",
            "name": "南町(相模原市緑区)",
            "lat": "35.582938",
            "lng": "139.342808"
        },
        {
            "index": "7",
            "id": "00129066",
            "name": "旭中学校(相模原市緑区)",
            "lat": "35.588562",
            "lng": "139.341794"
        },
        {
            "index": "8",
            "id": "00128971",
            "name": "橋本二丁目",
            "lat": "35.595384",
            "lng": "139.340769"
        },
        {
            "index": "9",
            "id": "00128970",
            "name": "橋本駅南口",
            "lat": "35.594627",
            "lng": "139.344271"
        }
    ],
    "route_url": "https://www.kanachu.co.jp/dia/route/index/cid:0000804248/"
}
