{
    "system": "井11",
    "busstops": [
        {
            "index": "1",
            "id": "00126639",
            "name": "南永田団地",
            "lat": "35.433056",
            "lng": "139.589967"
        },
        {
            "index": "2",
            "id": "00126638",
            "name": "南永田中央",
            "lat": "35.43205",
            "lng": "139.586386"
        },
        {
            "index": "3",
            "id": "00126637",
            "name": "南永田入口",
            "lat": "35.431078",
            "lng": "139.58446"
        },
        {
            "index": "4",
            "id": "00126636",
            "name": "大池通り",
            "lat": "35.43032",
            "lng": "139.582073"
        },
        {
            "index": "5",
            "id": "00126625",
            "name": "大池(横浜市南区)",
            "lat": "35.425756",
            "lng": "139.583456"
        },
        {
            "index": "6",
            "id": "00126626",
            "name": "上六ツ川",
            "lat": "35.423765",
            "lng": "139.584998"
        },
        {
            "index": "7",
            "id": "00126627",
            "name": "六ツ川町",
            "lat": "35.424473",
            "lng": "139.590287"
        },
        {
            "index": "8",
            "id": "00126628",
            "name": "弘明寺口",
            "lat": "35.426836",
            "lng": "139.596175"
        },
        {
            "index": "9",
            "id": "00126629",
            "name": "南永田",
            "lat": "35.429587",
            "lng": "139.596885"
        },
        {
            "index": "10",
            "id": "00126630",
            "name": "住宅前(横浜市南区)",
            "lat": "35.431393",
            "lng": "139.598538"
        },
        {
            "index": "11",
            "id": "00102233",
            "name": "井土ヶ谷",
            "lat": "35.432964",
            "lng": "139.603838"
        },
        {
            "index": "12",
            "id": "00102234",
            "name": "井土ヶ谷下町",
            "lat": "35.433362",
            "lng": "139.607118"
        }
    ],
    "route_url": "https://www.kanachu.co.jp/dia/route/index/cid:0000801221/"
}
