{
    "system": "港83",
    "busstops": [
        {
            "index": "1",
            "id": "00126537",
            "name": "桂台中央",
            "lat": "35.352938",
            "lng": "139.564392"
        },
        {
            "index": "2",
            "id": "00126536",
            "name": "桂山公園",
            "lat": "35.352906",
            "lng": "139.566764"
        },
        {
            "index": "3",
            "id": "00126535",
            "name": "矢沢(横浜市栄区)",
            "lat": "35.352856",
            "lng": "139.569232"
        },
        {
            "index": "4",
            "id": "00126534",
            "name": "犬山",
            "lat": "35.353094",
            "lng": "139.572799"
        },
        {
            "index": "5",
            "id": "00126533",
            "name": "犬山南",
            "lat": "35.353711",
            "lng": "139.57535"
        },
        {
            "index": "6",
            "id": "00126532",
            "name": "上之中央",
            "lat": "35.356158",
            "lng": "139.575083"
        },
        {
            "index": "7",
            "id": "00126531",
            "name": "上之",
            "lat": "35.358587",
            "lng": "139.577345"
        },
        {
            "index": "8",
            "id": "00126514",
            "name": "紅葉橋(横浜市栄区)",
            "lat": "35.360541",
            "lng": "139.577308"
        },
        {
            "index": "9",
            "id": "00126608",
            "name": "横浜栄高校前",
            "lat": "35.365389",
            "lng": "139.577441"
        },
        {
            "index": "10",
            "id": "00102293",
            "name": "榎戸(横浜市港南区)",
            "lat": "35.367694",
            "lng": "139.58093"
        },
        {
            "index": "11",
            "id": "00103234",
            "name": "横浜女子短期大学前",
            "lat": "35.371048",
            "lng": "139.577525"
        },
        {
            "index": "12",
            "id": "00025554",
            "name": "港南台駅",
            "lat": "35.375136",
            "lng": "139.576877"
        }
    ],
    "route_url": "https://www.kanachu.co.jp/dia/route/index/cid:0000801087/"
}
