{
    "system": "",
    "busstops": [
        {
            "index": "1",
            "id": "00025554",
            "name": "港南台駅",
            "lat": "35.374776",
            "lng": "139.576776"
        },
        {
            "index": "2",
            "id": "00103234",
            "name": "横浜女子短期大学前",
            "lat": "35.370747",
            "lng": "139.577669"
        },
        {
            "index": "3",
            "id": "00126549",
            "name": "港南台西公園",
            "lat": "35.37162",
            "lng": "139.573643"
        },
        {
            "index": "4",
            "id": "00126553",
            "name": "日野南中学校前",
            "lat": "35.373902",
            "lng": "139.569128"
        },
        {
            "index": "5",
            "id": "00126554",
            "name": "原(横浜市港南区)",
            "lat": "35.375182",
            "lng": "139.567721"
        },
        {
            "index": "6",
            "id": "00126555",
            "name": "野村港南台",
            "lat": "35.376624",
            "lng": "139.565843"
        },
        {
            "index": "7",
            "id": "00126556",
            "name": "つつじヶ丘(横浜市港南区)",
            "lat": "35.377417",
            "lng": "139.562125"
        },
        {
            "index": "8",
            "id": "00126557",
            "name": "小山台(横浜市栄区)",
            "lat": "35.377992",
            "lng": "139.55793"
        },
        {
            "index": "9",
            "id": "00126607",
            "name": "小菅ヶ谷橋",
            "lat": "35.378532",
            "lng": "139.553834"
        },
        {
            "index": "10",
            "id": "00126599",
            "name": "西谷戸(横浜市栄区)",
            "lat": "35.376904",
            "lng": "139.552424"
        },
        {
            "index": "11",
            "id": "00126600",
            "name": "渡戸(横浜市栄区)",
            "lat": "35.375078",
            "lng": "139.551855"
        },
        {
            "index": "12",
            "id": "00126601",
            "name": "滝ノ分",
            "lat": "35.372703",
            "lng": "139.551112"
        },
        {
            "index": "13",
            "id": "00126602",
            "name": "地球市民プラザ",
            "lat": "35.367448",
            "lng": "139.551826"
        },
        {
            "index": "14",
            "id": "00126595",
            "name": "本郷台駅",
            "lat": "35.367319",
            "lng": "139.550863"
        }
    ],
    "route_url": "https://www.kanachu.co.jp/dia/route/index/cid:0000800841/"
}
