{
    "system": "",
    "busstops": [
        {
            "index": "1",
            "id": "00128631",
            "name": "大神(平塚市)",
            "lat": "35.393513",
            "lng": "139.370463"
        },
        {
            "index": "2",
            "id": "00127667",
            "name": "真芳寺",
            "lat": "35.388778",
            "lng": "139.369449"
        },
        {
            "index": "3",
            "id": "00127666",
            "name": "寄木神社前",
            "lat": "35.386492",
            "lng": "139.366598"
        },
        {
            "index": "4",
            "id": "00127665",
            "name": "柳の内",
            "lat": "35.382879",
            "lng": "139.365127"
        },
        {
            "index": "5",
            "id": "00127664",
            "name": "農協神田支所前",
            "lat": "35.379482",
            "lng": "139.364932"
        },
        {
            "index": "6",
            "id": "00127663",
            "name": "相模神田",
            "lat": "35.37559",
            "lng": "139.365037"
        },
        {
            "index": "7",
            "id": "00127654",
            "name": "神田小学校前(平塚市)",
            "lat": "35.375863",
            "lng": "139.362529"
        },
        {
            "index": "8",
            "id": "00114295",
            "name": "田村車庫",
            "lat": "35.376016",
            "lng": "139.358556"
        },
        {
            "index": "9",
            "id": "00127616",
            "name": "横内四ツ角",
            "lat": "35.375729",
            "lng": "139.35277"
        },
        {
            "index": "10",
            "id": "00127615",
            "name": "横内公民館入口",
            "lat": "35.373137",
            "lng": "139.350886"
        },
        {
            "index": "11",
            "id": "00127614",
            "name": "横内下",
            "lat": "35.370646",
            "lng": "139.350394"
        },
        {
            "index": "12",
            "id": "00127613",
            "name": "横内団地前",
            "lat": "35.365954",
            "lng": "139.350011"
        },
        {
            "index": "13",
            "id": "00127612",
            "name": "今里(平塚市)",
            "lat": "35.362164",
            "lng": "139.351129"
        },
        {
            "index": "14",
            "id": "00127611",
            "name": "坂口(平塚市)",
            "lat": "35.360413",
            "lng": "139.351043"
        },
        {
            "index": "15",
            "id": "00127610",
            "name": "市場前(平塚市)",
            "lat": "35.357929",
            "lng": "139.350746"
        },
        {
            "index": "16",
            "id": "00127609",
            "name": "大野農協前",
            "lat": "35.355259",
            "lng": "139.349464"
        },
        {
            "index": "17",
            "id": "00127608",
            "name": "西真土",
            "lat": "35.353214",
            "lng": "139.344647"
        },
        {
            "index": "18",
            "id": "00127607",
            "name": "大野中学校前",
            "lat": "35.352432",
            "lng": "139.341748"
        },
        {
            "index": "19",
            "id": "00130491",
            "name": "東中原住宅",
            "lat": "35.352416",
            "lng": "139.338435"
        },
        {
            "index": "20",
            "id": "00127605",
            "name": "伊勢山(平塚市)",
            "lat": "35.350682",
            "lng": "139.335816"
        },
        {
            "index": "21",
            "id": "00127604",
            "name": "中原中宿",
            "lat": "35.348568",
            "lng": "139.336707"
        },
        {
            "index": "22",
            "id": "00127603",
            "name": "中原東(平塚市)",
            "lat": "35.34544",
            "lng": "139.337988"
        },
        {
            "index": "23",
            "id": "00127713",
            "name": "総合公園前(平塚市)",
            "lat": "35.342264",
            "lng": "139.33752"
        },
        {
            "index": "24",
            "id": "00128222",
            "name": "共済病院前総合公園西",
            "lat": "35.338752",
            "lng": "139.337086"
        },
        {
            "index": "25",
            "id": "00127583",
            "name": "市民病院前(平塚市)",
            "lat": "35.336488",
            "lng": "139.325469"
        }
    ],
    "route_url": "https://www.kanachu.co.jp/dia/route/index/cid:0000802666/"
}
