{
    "system": "三56",
    "busstops": [
        {
            "index": "1",
            "id": "00128750",
            "name": "三ヶ木",
            "lat": "35.588216",
            "lng": "139.233547"
        },
        {
            "index": "2",
            "id": "00128751",
            "name": "津久井高校前",
            "lat": "35.587896",
            "lng": "139.232353"
        },
        {
            "index": "3",
            "id": "00128752",
            "name": "三ヶ木新宿",
            "lat": "35.585517",
            "lng": "139.231074"
        },
        {
            "index": "4",
            "id": "00128753",
            "name": "青山(相模原市緑区)",
            "lat": "35.581908",
            "lng": "139.231084"
        },
        {
            "index": "5",
            "id": "00128754",
            "name": "津久井クリーンセンター前",
            "lat": "35.57989",
            "lng": "139.229206"
        },
        {
            "index": "6",
            "id": "00128755",
            "name": "鮑子取入口",
            "lat": "35.571828",
            "lng": "139.221742"
        },
        {
            "index": "7",
            "id": "00128756",
            "name": "地蔵前(相模原市緑区)",
            "lat": "35.569932",
            "lng": "139.220905"
        },
        {
            "index": "8",
            "id": "00128757",
            "name": "橋野沢",
            "lat": "35.565478",
            "lng": "139.215871"
        },
        {
            "index": "9",
            "id": "00128758",
            "name": "前戸",
            "lat": "35.564346",
            "lng": "139.210349"
        },
        {
            "index": "10",
            "id": "00128759",
            "name": "牧馬入口",
            "lat": "35.562921",
            "lng": "139.206814"
        },
        {
            "index": "11",
            "id": "00128760",
            "name": "梶野",
            "lat": "35.563482",
            "lng": "139.204842"
        },
        {
            "index": "12",
            "id": "00128761",
            "name": "青野原",
            "lat": "35.563156",
            "lng": "139.200283"
        },
        {
            "index": "13",
            "id": "00128762",
            "name": "上原(相模原市緑区)",
            "lat": "35.562949",
            "lng": "139.197846"
        },
        {
            "index": "14",
            "id": "00128763",
            "name": "青和学園前",
            "lat": "35.562074",
            "lng": "139.19234"
        },
        {
            "index": "15",
            "id": "00128764",
            "name": "青野原診療所前",
            "lat": "35.561829",
            "lng": "139.189764"
        },
        {
            "index": "16",
            "id": "00128765",
            "name": "東開戸",
            "lat": "35.559795",
            "lng": "139.184173"
        },
        {
            "index": "17",
            "id": "00128766",
            "name": "焼山登山口",
            "lat": "35.559613",
            "lng": "139.180554"
        },
        {
            "index": "18",
            "id": "00128767",
            "name": "西野々(相模原市緑区)",
            "lat": "35.558193",
            "lng": "139.175761"
        },
        {
            "index": "19",
            "id": "00128768",
            "name": "伏馬田入口",
            "lat": "35.557063",
            "lng": "139.172822"
        },
        {
            "index": "20",
            "id": "00128769",
            "name": "夫婦園",
            "lat": "35.552127",
            "lng": "139.155851"
        },
        {
            "index": "21",
            "id": "00128770",
            "name": "荒井(相模原市緑区)",
            "lat": "35.54907",
            "lng": "139.14715"
        },
        {
            "index": "22",
            "id": "00128771",
            "name": "平丸",
            "lat": "35.548346",
            "lng": "139.144471"
        },
        {
            "index": "23",
            "id": "00128772",
            "name": "橋津原",
            "lat": "35.543561",
            "lng": "139.133297"
        },
        {
            "index": "24",
            "id": "00128773",
            "name": "青根公民館前",
            "lat": "35.544877",
            "lng": "139.128941"
        },
        {
            "index": "25",
            "id": "00128774",
            "name": "東野(相模原市緑区)",
            "lat": "35.543991",
            "lng": "139.128339"
        },
        {
            "index": "26",
            "id": "00128775",
            "name": "青根諏訪神社前",
            "lat": "35.543388",
            "lng": "139.127759"
        },
        {
            "index": "27",
            "id": "00128776",
            "name": "上野田(相模原市緑区)",
            "lat": "35.544225",
            "lng": "139.126414"
        },
        {
            "index": "28",
            "id": "00128777",
            "name": "大川原入口",
            "lat": "35.542688",
            "lng": "139.123623"
        },
        {
            "index": "29",
            "id": "00128778",
            "name": "音久和",
            "lat": "35.541836",
            "lng": "139.118609"
        },
        {
            "index": "30",
            "id": "00128779",
            "name": "神の川入口",
            "lat": "35.541584",
            "lng": "139.116254"
        },
        {
            "index": "31",
            "id": "00128780",
            "name": "月夜野",
            "lat": "35.539159",
            "lng": "139.112523"
        }
    ],
    "route_url": "https://www.kanachu.co.jp/dia/route/index/cid:0000803759/"
}
