{
    "system": "秦14",
    "busstops": [
        {
            "index": "1",
            "id": "00127933",
            "name": "畑中(秦野市)",
            "lat": "35.3681",
            "lng": "139.211376"
        },
        {
            "index": "2",
            "id": "00127932",
            "name": "白笹稲荷神社入口",
            "lat": "35.367164",
            "lng": "139.216754"
        },
        {
            "index": "3",
            "id": "00127931",
            "name": "南公民館前(秦野市)",
            "lat": "35.368178",
            "lng": "139.217743"
        },
        {
            "index": "4",
            "id": "00127930",
            "name": "諏訪町(秦野市)",
            "lat": "35.369501",
            "lng": "139.218779"
        },
        {
            "index": "5",
            "id": "00130134",
            "name": "今川町",
            "lat": "35.372892",
            "lng": "139.220664"
        },
        {
            "index": "6",
            "id": "00127929",
            "name": "今泉(秦野市)",
            "lat": "35.372409",
            "lng": "139.22369"
        },
        {
            "index": "7",
            "id": "00127715",
            "name": "秦野駅",
            "lat": "35.370293",
            "lng": "139.226956"
        }
    ],
    "route_url": "https://www.kanachu.co.jp/dia/route/index/cid:0000802076/"
}
