{
    "system": "秦51",
    "busstops": [
        {
            "index": "1",
            "id": "00127899",
            "name": "渋沢駅北口",
            "lat": "35.374414",
            "lng": "139.184623"
        },
        {
            "index": "2",
            "id": "00127898",
            "name": "柳町(秦野市)",
            "lat": "35.37553",
            "lng": "139.182212"
        },
        {
            "index": "3",
            "id": "00127897",
            "name": "西中学校前(秦野市)",
            "lat": "35.376635",
            "lng": "139.181504"
        },
        {
            "index": "4",
            "id": "00127896",
            "name": "西小学校前(秦野市)",
            "lat": "35.379483",
            "lng": "139.179844"
        },
        {
            "index": "5",
            "id": "00127895",
            "name": "中道(秦野市)",
            "lat": "35.382556",
            "lng": "139.179036"
        },
        {
            "index": "6",
            "id": "00128052",
            "name": "堀西駐在所前",
            "lat": "35.384407",
            "lng": "139.178248"
        },
        {
            "index": "7",
            "id": "00127894",
            "name": "堀川",
            "lat": "35.387268",
            "lng": "139.177212"
        },
        {
            "index": "8",
            "id": "00127893",
            "name": "関(秦野市)",
            "lat": "35.388951",
            "lng": "139.178521"
        },
        {
            "index": "9",
            "id": "00127892",
            "name": "大倉入口",
            "lat": "35.391699",
            "lng": "139.180761"
        },
        {
            "index": "10",
            "id": "00127891",
            "name": "平和橋(秦野市)",
            "lat": "35.393323",
            "lng": "139.181777"
        },
        {
            "index": "11",
            "id": "00127890",
            "name": "戸川",
            "lat": "35.395455",
            "lng": "139.182939"
        },
        {
            "index": "12",
            "id": "00127889",
            "name": "戸沢入口",
            "lat": "35.39758",
            "lng": "139.184438"
        },
        {
            "index": "13",
            "id": "00127888",
            "name": "横野入口",
            "lat": "35.400873",
            "lng": "139.189336"
        },
        {
            "index": "14",
            "id": "00127887",
            "name": "菩提(秦野市)",
            "lat": "35.398973",
            "lng": "139.194043"
        },
        {
            "index": "15",
            "id": "00127886",
            "name": "菩提原",
            "lat": "35.398011",
            "lng": "139.195816"
        },
        {
            "index": "16",
            "id": "00127885",
            "name": "戸川入口",
            "lat": "35.394838",
            "lng": "139.197506"
        },
        {
            "index": "17",
            "id": "00127884",
            "name": "三屋入口",
            "lat": "35.391333",
            "lng": "139.202385"
        },
        {
            "index": "18",
            "id": "00127883",
            "name": "羽根入口",
            "lat": "35.389232",
            "lng": "139.205416"
        },
        {
            "index": "19",
            "id": "00127882",
            "name": "田原入口",
            "lat": "35.386174",
            "lng": "139.209792"
        },
        {
            "index": "20",
            "id": "00127881",
            "name": "六反地",
            "lat": "35.383602",
            "lng": "139.212719"
        },
        {
            "index": "21",
            "id": "00127880",
            "name": "榎木堂",
            "lat": "35.382195",
            "lng": "139.214822"
        },
        {
            "index": "22",
            "id": "00127879",
            "name": "宮上(秦野市)",
            "lat": "35.381375",
            "lng": "139.216423"
        },
        {
            "index": "23",
            "id": "00127878",
            "name": "宮前(秦野市)",
            "lat": "35.378853",
            "lng": "139.221214"
        },
        {
            "index": "24",
            "id": "00127877",
            "name": "上大道",
            "lat": "35.377464",
            "lng": "139.224016"
        },
        {
            "index": "25",
            "id": "00127876",
            "name": "大道(秦野市)",
            "lat": "35.375766",
            "lng": "139.226297"
        },
        {
            "index": "26",
            "id": "00127717",
            "name": "上宿通り",
            "lat": "35.373824",
            "lng": "139.226745"
        },
        {
            "index": "27",
            "id": "00127716",
            "name": "大川橋(秦野市)",
            "lat": "35.37285",
            "lng": "139.225009"
        },
        {
            "index": "28",
            "id": "00128033",
            "name": "まほろば大橋",
            "lat": "35.371621",
            "lng": "139.226445"
        },
        {
            "index": "29",
            "id": "00127715",
            "name": "秦野駅",
            "lat": "35.370293",
            "lng": "139.226956"
        }
    ],
    "route_url": "https://www.kanachu.co.jp/dia/route/index/cid:0000801290/"
}
