{
    "system": "戸81",
    "busstops": [
        {
            "index": "1",
            "id": "00126970",
            "name": "藤沢駅北口",
            "lat": "35.339762",
            "lng": "139.487708"
        },
        {
            "index": "2",
            "id": "00126971",
            "name": "三富士町",
            "lat": "35.339469",
            "lng": "139.484094"
        },
        {
            "index": "3",
            "id": "00126972",
            "name": "相生町(藤沢市)",
            "lat": "35.340726",
            "lng": "139.480959"
        },
        {
            "index": "4",
            "id": "00126973",
            "name": "南仲通り",
            "lat": "35.342936",
            "lng": "139.482887"
        },
        {
            "index": "5",
            "id": "00126974",
            "name": "藤沢小学校前",
            "lat": "35.34402",
            "lng": "139.484087"
        },
        {
            "index": "6",
            "id": "00126975",
            "name": "藤沢橋",
            "lat": "35.346686",
            "lng": "139.488007"
        },
        {
            "index": "7",
            "id": "00126976",
            "name": "遊行寺坂上",
            "lat": "35.352397",
            "lng": "139.490708"
        },
        {
            "index": "8",
            "id": "00126977",
            "name": "緑ヶ丘(藤沢市)",
            "lat": "35.355735",
            "lng": "139.492336"
        },
        {
            "index": "9",
            "id": "00126978",
            "name": "鉄砲宿",
            "lat": "35.359201",
            "lng": "139.493769"
        },
        {
            "index": "10",
            "id": "00126979",
            "name": "諏訪神社前(横浜市戸塚区)",
            "lat": "35.364487",
            "lng": "139.497326"
        },
        {
            "index": "11",
            "id": "00126980",
            "name": "影取",
            "lat": "35.370138",
            "lng": "139.500534"
        },
        {
            "index": "12",
            "id": "00126981",
            "name": "聖母の園前",
            "lat": "35.374174",
            "lng": "139.50317"
        },
        {
            "index": "13",
            "id": "00126818",
            "name": "原宿(横浜市戸塚区)",
            "lat": "35.37768",
            "lng": "139.505837"
        },
        {
            "index": "14",
            "id": "00126817",
            "name": "大運寺",
            "lat": "35.379025",
            "lng": "139.508774"
        },
        {
            "index": "15",
            "id": "00126816",
            "name": "吹上(横浜市戸塚区)",
            "lat": "35.382463",
            "lng": "139.513956"
        },
        {
            "index": "16",
            "id": "00126815",
            "name": "西横浜国際総合病院前",
            "lat": "35.385148",
            "lng": "139.516231"
        },
        {
            "index": "17",
            "id": "00126814",
            "name": "新道大坂上",
            "lat": "35.387599",
            "lng": "139.518132"
        },
        {
            "index": "18",
            "id": "00126813",
            "name": "大坂上(横浜市戸塚区)",
            "lat": "35.389963",
            "lng": "139.522098"
        },
        {
            "index": "19",
            "id": "00126812",
            "name": "大坂台",
            "lat": "35.391799",
            "lng": "139.523848"
        },
        {
            "index": "20",
            "id": "00126811",
            "name": "大坂下",
            "lat": "35.392987",
            "lng": "139.527131"
        },
        {
            "index": "21",
            "id": "00126810",
            "name": "八坂神社前",
            "lat": "35.395315",
            "lng": "139.529981"
        },
        {
            "index": "22",
            "id": "00126809",
            "name": "消防署前(横浜市戸塚区)",
            "lat": "35.396715",
            "lng": "139.530481"
        },
        {
            "index": "23",
            "id": "00126969",
            "name": "戸塚駅西口",
            "lat": "35.401068",
            "lng": "139.533508"
        },
        {
            "index": "24",
            "id": "00126775",
            "name": "戸塚バスセンター",
            "lat": "35.400571",
            "lng": "139.532128"
        }
    ],
    "route_url": "https://www.kanachu.co.jp/dia/route/index/cid:0000803600/"
}
