{
    "system": "伊06",
    "busstops": [
        {
            "index": "1",
            "id": "00128056",
            "name": "伊勢原駅南口",
            "lat": "35.395336",
            "lng": "139.313321"
        },
        {
            "index": "2",
            "id": "00128057",
            "name": "下宿(伊勢原市)",
            "lat": "35.393768",
            "lng": "139.31519"
        },
        {
            "index": "3",
            "id": "00128124",
            "name": "下原公園前",
            "lat": "35.394782",
            "lng": "139.316267"
        },
        {
            "index": "4",
            "id": "00128125",
            "name": "金山(伊勢原市)",
            "lat": "35.397456",
            "lng": "139.314956"
        },
        {
            "index": "5",
            "id": "00128126",
            "name": "行政センター前(伊勢原市)",
            "lat": "35.402263",
            "lng": "139.313085"
        },
        {
            "index": "6",
            "id": "00128196",
            "name": "伊勢原市役所北口",
            "lat": "35.404149",
            "lng": "139.313436"
        },
        {
            "index": "7",
            "id": "00128197",
            "name": "東海大学病院",
            "lat": "35.407425",
            "lng": "139.314915"
        }
    ],
    "route_url": "https://www.kanachu.co.jp/dia/route/index/cid:0000800051/"
}
