{
    "system": "平15",
    "busstops": [
        {
            "index": "1",
            "id": "00127464",
            "name": "平塚駅北口",
            "lat": "35.328422",
            "lng": "139.350207"
        },
        {
            "index": "2",
            "id": "00127628",
            "name": "東真土",
            "lat": "35.354498",
            "lng": "139.356714"
        },
        {
            "index": "3",
            "id": "00127652",
            "name": "田村団地入口",
            "lat": "35.371283",
            "lng": "139.361538"
        },
        {
            "index": "4",
            "id": "00127654",
            "name": "神田小学校前(平塚市)",
            "lat": "35.376532",
            "lng": "139.361587"
        },
        {
            "index": "5",
            "id": "00127670",
            "name": "大神(新道/平塚市)",
            "lat": "35.388072",
            "lng": "139.361483"
        },
        {
            "index": "6",
            "id": "00130528",
            "name": "ツインシティ大神",
            "lat": "35.392916",
            "lng": "139.367325"
        },
        {
            "index": "7",
            "id": "00128609",
            "name": "戸田(新道/厚木市)",
            "lat": "35.407249",
            "lng": "139.36151"
        },
        {
            "index": "8",
            "id": "00128625",
            "name": "酒井(新道/厚木市)",
            "lat": "35.416474",
            "lng": "139.363838"
        },
        {
            "index": "9",
            "id": "00128632",
            "name": "岡田電話局前",
            "lat": "35.419047",
            "lng": "139.364736"
        },
        {
            "index": "10",
            "id": "00128634",
            "name": "岡田一本杉(新道/厚木市)",
            "lat": "35.428321",
            "lng": "139.365666"
        },
        {
            "index": "11",
            "id": "00128637",
            "name": "本厚木駅南口",
            "lat": "35.439159",
            "lng": "139.36474"
        }
    ],
    "route_url": "https://www.kanachu.co.jp/dia/route/index/cid:0000803316/"
}
