{
    "system": "辻01",
    "busstops": [
        {
            "index": "1",
            "id": "00127126",
            "name": "茅ヶ崎駅",
            "lat": "35.330961",
            "lng": "139.406415"
        },
        {
            "index": "2",
            "id": "00127127",
            "name": "本村(茅ケ崎市)",
            "lat": "35.336057",
            "lng": "139.413263"
        },
        {
            "index": "3",
            "id": "00127128",
            "name": "茅ヶ崎高校前",
            "lat": "35.337041",
            "lng": "139.418633"
        },
        {
            "index": "4",
            "id": "00127129",
            "name": "松林中学校前",
            "lat": "35.337735",
            "lng": "139.422825"
        },
        {
            "index": "5",
            "id": "00127130",
            "name": "菱沼",
            "lat": "35.337794",
            "lng": "139.424786"
        },
        {
            "index": "6",
            "id": "00127131",
            "name": "西小和田",
            "lat": "35.337123",
            "lng": "139.430182"
        },
        {
            "index": "7",
            "id": "00127132",
            "name": "小和田(茅ケ崎市)",
            "lat": "35.338006",
            "lng": "139.43299"
        },
        {
            "index": "8",
            "id": "00127133",
            "name": "東小和田",
            "lat": "35.341937",
            "lng": "139.438369"
        },
        {
            "index": "9",
            "id": "00127134",
            "name": "二ツ谷",
            "lat": "35.344163",
            "lng": "139.444103"
        },
        {
            "index": "10",
            "id": "00130068",
            "name": "神台公園前",
            "lat": "35.340508",
            "lng": "139.447461"
        },
        {
            "index": "11",
            "id": "00129934",
            "name": "辻堂駅北口",
            "lat": "35.337688",
            "lng": "139.448197"
        }
    ],
    "route_url": "https://www.kanachu.co.jp/dia/route/index/cid:0000801450/"
}
