{
    "system": "橋30",
    "busstops": [
        {
            "index": "1",
            "id": "00130225",
            "name": "アリオ橋本",
            "lat": "35.592497",
            "lng": "139.348745"
        },
        {
            "index": "2",
            "id": "00128970",
            "name": "橋本駅南口",
            "lat": "35.594206",
            "lng": "139.345025"
        },
        {
            "index": "3",
            "id": "00128971",
            "name": "橋本二丁目",
            "lat": "35.595246",
            "lng": "139.340036"
        },
        {
            "index": "4",
            "id": "00129000",
            "name": "緑区合同庁舎前(相模原市緑区)",
            "lat": "35.595126",
            "lng": "139.336613"
        },
        {
            "index": "5",
            "id": "00130165",
            "name": "みのり公園入口",
            "lat": "35.592288",
            "lng": "139.336623"
        },
        {
            "index": "6",
            "id": "00130174",
            "name": "ライフタウン西口",
            "lat": "35.589452",
            "lng": "139.337834"
        },
        {
            "index": "7",
            "id": "00130173",
            "name": "ライフタウン東",
            "lat": "35.588433",
            "lng": "139.339634"
        },
        {
            "index": "8",
            "id": "00130175",
            "name": "金属団地内郵便局前",
            "lat": "35.587419",
            "lng": "139.336317"
        },
        {
            "index": "9",
            "id": "00130166",
            "name": "峡の原工業団地",
            "lat": "35.587451",
            "lng": "139.333837"
        },
        {
            "index": "10",
            "id": "00130167",
            "name": "北の丘センター",
            "lat": "35.585337",
            "lng": "139.331757"
        },
        {
            "index": "11",
            "id": "00130168",
            "name": "北公園・ほねごりアリーナ前",
            "lat": "35.584179",
            "lng": "139.328616"
        },
        {
            "index": "12",
            "id": "00129104",
            "name": "北公園入口(相模原市緑区)",
            "lat": "35.583391",
            "lng": "139.327696"
        },
        {
            "index": "13",
            "id": "00129128",
            "name": "九沢自治会館前",
            "lat": "35.584462",
            "lng": "139.325308"
        },
        {
            "index": "14",
            "id": "00128978",
            "name": "内出(相模原市緑区)",
            "lat": "35.584813",
            "lng": "139.319134"
        },
        {
            "index": "15",
            "id": "00128979",
            "name": "合野原",
            "lat": "35.583083",
            "lng": "139.317202"
        },
        {
            "index": "16",
            "id": "00130176",
            "name": "上大島東",
            "lat": "35.579303",
            "lng": "139.315537"
        },
        {
            "index": "17",
            "id": "00130169",
            "name": "上大島南",
            "lat": "35.577156",
            "lng": "139.315601"
        },
        {
            "index": "18",
            "id": "00130170",
            "name": "中の郷(相模原市緑区)",
            "lat": "35.574521",
            "lng": "139.317006"
        },
        {
            "index": "19",
            "id": "00130171",
            "name": "渓松園前",
            "lat": "35.576154",
            "lng": "139.312957"
        },
        {
            "index": "20",
            "id": "00130172",
            "name": "相模川自然の村",
            "lat": "35.578536",
            "lng": "139.307306"
        }
    ],
    "route_url": "https://www.kanachu.co.jp/dia/route/index/cid:0000803634/"
}
