{
    "system": "渋02",
    "busstops": [
        {
            "index": "1",
            "id": "00127899",
            "name": "渋沢駅北口",
            "lat": "35.374414",
            "lng": "139.184623"
        },
        {
            "index": "2",
            "id": "00127898",
            "name": "柳町(秦野市)",
            "lat": "35.37553",
            "lng": "139.182212"
        },
        {
            "index": "3",
            "id": "00127897",
            "name": "西中学校前(秦野市)",
            "lat": "35.376635",
            "lng": "139.181504"
        },
        {
            "index": "4",
            "id": "00127896",
            "name": "西小学校前(秦野市)",
            "lat": "35.379483",
            "lng": "139.179844"
        },
        {
            "index": "5",
            "id": "00127895",
            "name": "中道(秦野市)",
            "lat": "35.382556",
            "lng": "139.179036"
        },
        {
            "index": "6",
            "id": "00128052",
            "name": "堀西駐在所前",
            "lat": "35.384407",
            "lng": "139.178248"
        },
        {
            "index": "7",
            "id": "00127894",
            "name": "堀川",
            "lat": "35.387268",
            "lng": "139.177212"
        },
        {
            "index": "8",
            "id": "00127893",
            "name": "関(秦野市)",
            "lat": "35.388951",
            "lng": "139.178521"
        },
        {
            "index": "9",
            "id": "00127892",
            "name": "大倉入口",
            "lat": "35.391323",
            "lng": "139.180275"
        },
        {
            "index": "10",
            "id": "00127905",
            "name": "北(秦野市)",
            "lat": "35.392995",
            "lng": "139.177255"
        },
        {
            "index": "11",
            "id": "00127906",
            "name": "久保庭",
            "lat": "35.394952",
            "lng": "139.175268"
        },
        {
            "index": "12",
            "id": "00127907",
            "name": "八幡宮前(秦野市)",
            "lat": "35.39666",
            "lng": "139.173323"
        },
        {
            "index": "13",
            "id": "00127908",
            "name": "蔵林寺",
            "lat": "35.399231",
            "lng": "139.172797"
        },
        {
            "index": "14",
            "id": "00127909",
            "name": "鍛冶ヶ谷戸",
            "lat": "35.40131",
            "lng": "139.171137"
        },
        {
            "index": "15",
            "id": "00127910",
            "name": "大倉(秦野市)",
            "lat": "35.404693",
            "lng": "139.16901"
        }
    ],
    "route_url": "https://www.kanachu.co.jp/dia/route/index/cid:0000800350/"
}
