{
    "system": "藤58",
    "busstops": [
        {
            "index": "1",
            "id": "00126970",
            "name": "藤沢駅北口",
            "lat": "35.339374",
            "lng": "139.488059"
        },
        {
            "index": "2",
            "id": "00127019",
            "name": "遊行通り四丁目",
            "lat": "35.341392",
            "lng": "139.489165"
        },
        {
            "index": "3",
            "id": "00127009",
            "name": "遊行寺前",
            "lat": "35.346723",
            "lng": "139.48517"
        },
        {
            "index": "4",
            "id": "00127010",
            "name": "藤沢公民館前",
            "lat": "35.347552",
            "lng": "139.482737"
        },
        {
            "index": "5",
            "id": "00127011",
            "name": "本町消防出張所前",
            "lat": "35.347769",
            "lng": "139.481337"
        },
        {
            "index": "6",
            "id": "00127108",
            "name": "藤沢市民病院",
            "lat": "35.350418",
            "lng": "139.481887"
        },
        {
            "index": "7",
            "id": "00127013",
            "name": "白旗神社前",
            "lat": "35.351619",
            "lng": "139.478437"
        },
        {
            "index": "8",
            "id": "00127014",
            "name": "聖園女学院前",
            "lat": "35.355638",
            "lng": "139.477898"
        },
        {
            "index": "9",
            "id": "00127015",
            "name": "藤沢翔陵高校前",
            "lat": "35.359068",
            "lng": "139.478436"
        },
        {
            "index": "10",
            "id": "00127016",
            "name": "亀井野団地入口",
            "lat": "35.366422",
            "lng": "139.482289"
        },
        {
            "index": "11",
            "id": "00127017",
            "name": "新田(藤沢市)",
            "lat": "35.369583",
            "lng": "139.483111"
        },
        {
            "index": "12",
            "id": "00127018",
            "name": "俣野原",
            "lat": "35.376361",
            "lng": "139.484049"
        },
        {
            "index": "13",
            "id": "00129889",
            "name": "下屋敷(藤沢市)",
            "lat": "35.380095",
            "lng": "139.482058"
        },
        {
            "index": "14",
            "id": "00129888",
            "name": "亀井野",
            "lat": "35.381593",
            "lng": "139.480833"
        },
        {
            "index": "15",
            "id": "00129885",
            "name": "亀井野三丁目",
            "lat": "35.38393",
            "lng": "139.479157"
        },
        {
            "index": "16",
            "id": "00129886",
            "name": "六会市民センター入口",
            "lat": "35.383498",
            "lng": "139.473636"
        },
        {
            "index": "17",
            "id": "00129887",
            "name": "六会日大前駅",
            "lat": "35.383562",
            "lng": "139.471185"
        }
    ],
    "route_url": "https://www.kanachu.co.jp/dia/route/index/cid:0000802717/"
}
