{
    "system": "藤09",
    "busstops": [
        {
            "index": "1",
            "id": "00129934",
            "name": "辻堂駅北口",
            "lat": "35.337834",
            "lng": "139.446962"
        },
        {
            "index": "2",
            "id": "00130068",
            "name": "神台公園前",
            "lat": "35.340321",
            "lng": "139.447244"
        },
        {
            "index": "3",
            "id": "00127086",
            "name": "羽鳥郵便局前",
            "lat": "35.341603",
            "lng": "139.452173"
        },
        {
            "index": "4",
            "id": "00127085",
            "name": "明治中学校前",
            "lat": "35.341796",
            "lng": "139.454118"
        },
        {
            "index": "5",
            "id": "00127084",
            "name": "汲田",
            "lat": "35.341752",
            "lng": "139.457122"
        },
        {
            "index": "6",
            "id": "00130195",
            "name": "住宅前(藤沢市明治)",
            "lat": "35.341486",
            "lng": "139.458856"
        },
        {
            "index": "7",
            "id": "00127088",
            "name": "梅ヶ枝通り",
            "lat": "35.342874",
            "lng": "139.462125"
        },
        {
            "index": "8",
            "id": "00127087",
            "name": "湘南台",
            "lat": "35.345017",
            "lng": "139.464324"
        },
        {
            "index": "9",
            "id": "00127052",
            "name": "引地橋",
            "lat": "35.347519",
            "lng": "139.467788"
        },
        {
            "index": "10",
            "id": "00127051",
            "name": "一中入口(藤沢市)",
            "lat": "35.347202",
            "lng": "139.469854"
        },
        {
            "index": "11",
            "id": "00127050",
            "name": "湘南高校前",
            "lat": "35.346677",
            "lng": "139.4731"
        },
        {
            "index": "12",
            "id": "00127049",
            "name": "台町(藤沢市)",
            "lat": "35.347419",
            "lng": "139.476887"
        },
        {
            "index": "13",
            "id": "00127012",
            "name": "白旗交差点",
            "lat": "35.347414",
            "lng": "139.478581"
        },
        {
            "index": "14",
            "id": "00127109",
            "name": "本町小学校前(藤沢市)",
            "lat": "35.345294",
            "lng": "139.479986"
        },
        {
            "index": "15",
            "id": "00127110",
            "name": "南仲通り二丁目",
            "lat": "35.343964",
            "lng": "139.481279"
        },
        {
            "index": "16",
            "id": "00126973",
            "name": "南仲通り",
            "lat": "35.341886",
            "lng": "139.48157"
        },
        {
            "index": "17",
            "id": "00126972",
            "name": "相生町(藤沢市)",
            "lat": "35.340664",
            "lng": "139.481523"
        },
        {
            "index": "18",
            "id": "00126971",
            "name": "三富士町",
            "lat": "35.339451",
            "lng": "139.484576"
        },
        {
            "index": "19",
            "id": "00126970",
            "name": "藤沢駅北口",
            "lat": "35.339374",
            "lng": "139.488059"
        }
    ],
    "route_url": "https://www.kanachu.co.jp/dia/route/index/cid:0000801502/"
}
