{
    "system": "淵53",
    "busstops": [
        {
            "index": "1",
            "id": "00129168",
            "name": "水郷田名",
            "lat": "35.546213",
            "lng": "139.330991"
        },
        {
            "index": "2",
            "id": "00130345",
            "name": "ふれあい科学館前",
            "lat": "35.547316",
            "lng": "139.329872"
        },
        {
            "index": "3",
            "id": "00129182",
            "name": "田名坂上",
            "lat": "35.549196",
            "lng": "139.331429"
        },
        {
            "index": "4",
            "id": "00129077",
            "name": "田名バスターミナル",
            "lat": "35.550915",
            "lng": "139.335077"
        },
        {
            "index": "5",
            "id": "00129289",
            "name": "四ツ谷(相模原市中央区)",
            "lat": "35.552581",
            "lng": "139.339405"
        },
        {
            "index": "6",
            "id": "00129184",
            "name": "田名工業団地入口",
            "lat": "35.554689",
            "lng": "139.344142"
        },
        {
            "index": "7",
            "id": "00129072",
            "name": "石橋(相模原市中央区)",
            "lat": "35.556142",
            "lng": "139.350523"
        },
        {
            "index": "8",
            "id": "00129219",
            "name": "鳩川住宅前",
            "lat": "35.556897",
            "lng": "139.354104"
        },
        {
            "index": "9",
            "id": "00129179",
            "name": "上溝高校入口",
            "lat": "35.557563",
            "lng": "139.357005"
        },
        {
            "index": "10",
            "id": "00129348",
            "name": "上溝中央",
            "lat": "35.557198",
            "lng": "139.359942"
        },
        {
            "index": "11",
            "id": "00129347",
            "name": "上溝",
            "lat": "35.557736",
            "lng": "139.363458"
        },
        {
            "index": "12",
            "id": "00128532",
            "name": "横山坂上",
            "lat": "35.557725",
            "lng": "139.369166"
        },
        {
            "index": "13",
            "id": "00129253",
            "name": "星が丘(相模原市中央区)",
            "lat": "35.557884",
            "lng": "139.372615"
        },
        {
            "index": "14",
            "id": "00129195",
            "name": "千代田(相模原市中央区)",
            "lat": "35.559753",
            "lng": "139.3799"
        },
        {
            "index": "15",
            "id": "00129143",
            "name": "栄公園前",
            "lat": "35.560703",
            "lng": "139.383352"
        },
        {
            "index": "16",
            "id": "00129280",
            "name": "弥栄(相模原市中央区)",
            "lat": "35.562281",
            "lng": "139.388293"
        },
        {
            "index": "17",
            "id": "00129248",
            "name": "淵野辺十字路",
            "lat": "35.564826",
            "lng": "139.393102"
        },
        {
            "index": "18",
            "id": "00129125",
            "name": "淵野辺駅入口",
            "lat": "35.56683",
            "lng": "139.395197"
        },
        {
            "index": "19",
            "id": "00129245",
            "name": "淵野辺駅南口",
            "lat": "35.568464",
            "lng": "139.394505"
        }
    ],
    "route_url": "https://www.kanachu.co.jp/dia/route/index/cid:0000802407/"
}
