{
    "system": "ー",
    "busstops": [
        {
            "index": "1",
            "id": "00130538",
            "name": "保健センター",
            "lat": "35.359178",
            "lng": "139.341927"
        },
        {
            "index": "2",
            "id": "00127636",
            "name": "下島(平塚市)",
            "lat": "35.36948",
            "lng": "139.342114"
        },
        {
            "index": "3",
            "id": "00127613",
            "name": "横内団地前",
            "lat": "35.365887",
            "lng": "139.349995"
        },
        {
            "index": "4",
            "id": "00127612",
            "name": "今里(平塚市)",
            "lat": "35.362052",
            "lng": "139.35114"
        },
        {
            "index": "5",
            "id": "00127611",
            "name": "坂口(平塚市)",
            "lat": "35.360413",
            "lng": "139.351043"
        },
        {
            "index": "6",
            "id": "00127610",
            "name": "市場前(平塚市)",
            "lat": "35.357929",
            "lng": "139.350746"
        },
        {
            "index": "7",
            "id": "00127609",
            "name": "大野農協前",
            "lat": "35.355259",
            "lng": "139.349464"
        },
        {
            "index": "8",
            "id": "00127608",
            "name": "西真土",
            "lat": "35.353214",
            "lng": "139.344647"
        },
        {
            "index": "9",
            "id": "00127607",
            "name": "大野中学校前",
            "lat": "35.352432",
            "lng": "139.341748"
        },
        {
            "index": "10",
            "id": "00130491",
            "name": "東中原住宅",
            "lat": "35.352416",
            "lng": "139.338435"
        },
        {
            "index": "11",
            "id": "00127605",
            "name": "伊勢山(平塚市)",
            "lat": "35.350682",
            "lng": "139.335816"
        },
        {
            "index": "12",
            "id": "00127604",
            "name": "中原中宿",
            "lat": "35.348568",
            "lng": "139.336707"
        },
        {
            "index": "13",
            "id": "00127603",
            "name": "中原東(平塚市)",
            "lat": "35.34544",
            "lng": "139.337988"
        },
        {
            "index": "14",
            "id": "00127713",
            "name": "総合公園前(平塚市)",
            "lat": "35.342264",
            "lng": "139.33752"
        },
        {
            "index": "15",
            "id": "00128222",
            "name": "共済病院前総合公園西",
            "lat": "35.338752",
            "lng": "139.337086"
        },
        {
            "index": "16",
            "id": "00127557",
            "name": "江南高校前",
            "lat": "35.337222",
            "lng": "139.33376"
        },
        {
            "index": "17",
            "id": "00127560",
            "name": "南原土手",
            "lat": "35.339983",
            "lng": "139.323446"
        },
        {
            "index": "18",
            "id": "00127583",
            "name": "市民病院前(平塚市)",
            "lat": "35.336142",
            "lng": "139.325203"
        }
    ],
    "route_url": "https://www.kanachu.co.jp/dia/route/index/cid:0000803938/"
}
