{
    "system": "間10",
    "busstops": [
        {
            "index": "1",
            "id": "00129616",
            "name": "大和駅西口",
            "lat": "35.470188",
            "lng": "139.460789"
        },
        {
            "index": "2",
            "id": "00129651",
            "name": "四ツ角(大和市)",
            "lat": "35.47134",
            "lng": "139.465383"
        },
        {
            "index": "3",
            "id": "00129650",
            "name": "遊園地前(大和市)",
            "lat": "35.472564",
            "lng": "139.465619"
        },
        {
            "index": "4",
            "id": "00129649",
            "name": "深見(大和市)",
            "lat": "35.479187",
            "lng": "139.464633"
        },
        {
            "index": "5",
            "id": "00129648",
            "name": "島津入口",
            "lat": "35.482174",
            "lng": "139.464316"
        },
        {
            "index": "6",
            "id": "00129647",
            "name": "大和小学校前",
            "lat": "35.486149",
            "lng": "139.463916"
        },
        {
            "index": "7",
            "id": "00129646",
            "name": "一の関",
            "lat": "35.490586",
            "lng": "139.463216"
        },
        {
            "index": "8",
            "id": "00129645",
            "name": "長堀(大和市)",
            "lat": "35.492419",
            "lng": "139.462899"
        },
        {
            "index": "9",
            "id": "00130537",
            "name": "長堀公園前",
            "lat": "35.492347",
            "lng": "139.45994"
        },
        {
            "index": "10",
            "id": "00129524",
            "name": "鶴間二丁目",
            "lat": "35.491613",
            "lng": "139.455034"
        },
        {
            "index": "11",
            "id": "00129523",
            "name": "鶴間駅東口",
            "lat": "35.490353",
            "lng": "139.452167"
        }
    ],
    "route_url": "https://www.kanachu.co.jp/dia/route/index/cid:0000803921/"
}
