{
    "system": "湘12",
    "busstops": [
        {
            "index": "1",
            "id": "00129948",
            "name": "湘南ライフタウン",
            "lat": "35.375629",
            "lng": "139.433962"
        },
        {
            "index": "2",
            "id": "00129949",
            "name": "南原(藤沢市)",
            "lat": "35.376765",
            "lng": "139.436306"
        },
        {
            "index": "3",
            "id": "00129950",
            "name": "矢尻(藤沢市)",
            "lat": "35.37785",
            "lng": "139.439038"
        },
        {
            "index": "4",
            "id": "00130502",
            "name": "遠藤永山",
            "lat": "35.375553",
            "lng": "139.443057"
        },
        {
            "index": "5",
            "id": "00130501",
            "name": "駒寄住宅北",
            "lat": "35.373152",
            "lng": "139.446547"
        },
        {
            "index": "6",
            "id": "00130500",
            "name": "一ノ坪",
            "lat": "35.37243",
            "lng": "139.449881"
        },
        {
            "index": "7",
            "id": "00127062",
            "name": "石川橋",
            "lat": "35.374031",
            "lng": "139.452988"
        },
        {
            "index": "8",
            "id": "00130499",
            "name": "鍛冶山",
            "lat": "35.378766",
            "lng": "139.454703"
        },
        {
            "index": "9",
            "id": "00130498",
            "name": "石川中村",
            "lat": "35.38106",
            "lng": "139.455422"
        },
        {
            "index": "10",
            "id": "00129954",
            "name": "石川山田",
            "lat": "35.384731",
            "lng": "139.456654"
        },
        {
            "index": "11",
            "id": "00129955",
            "name": "南桐原",
            "lat": "35.388173",
            "lng": "139.45717"
        },
        {
            "index": "12",
            "id": "00129895",
            "name": "北警察署前(藤沢市)",
            "lat": "35.395948",
            "lng": "139.457964"
        },
        {
            "index": "13",
            "id": "00126881",
            "name": "湘南台駅東口",
            "lat": "35.396047",
            "lng": "139.467169"
        }
    ],
    "route_url": "https://www.kanachu.co.jp/dia/route/index/cid:0000802774/"
}
