{
    "system": "戸33",
    "busstops": [
        {
            "index": "1",
            "id": "00126647",
            "name": "東戸塚駅東口",
            "lat": "35.430434",
            "lng": "139.557276"
        },
        {
            "index": "2",
            "id": "00126648",
            "name": "天王山橋",
            "lat": "35.427273",
            "lng": "139.554084"
        },
        {
            "index": "3",
            "id": "00126649",
            "name": "前田ハイツ前",
            "lat": "35.427233",
            "lng": "139.549422"
        },
        {
            "index": "4",
            "id": "00126650",
            "name": "川上小学校前(横浜市戸塚区)",
            "lat": "35.427317",
            "lng": "139.545182"
        },
        {
            "index": "5",
            "id": "00126651",
            "name": "公園前(横浜市戸塚区)",
            "lat": "35.427884",
            "lng": "139.542076"
        },
        {
            "index": "6",
            "id": "00126663",
            "name": "富士山下",
            "lat": "35.425958",
            "lng": "139.541537"
        },
        {
            "index": "7",
            "id": "00126662",
            "name": "秋葉",
            "lat": "35.423782",
            "lng": "139.544541"
        },
        {
            "index": "8",
            "id": "00126661",
            "name": "秋葉三叉路",
            "lat": "35.421112",
            "lng": "139.54813"
        },
        {
            "index": "9",
            "id": "00126615",
            "name": "柏尾(横浜市戸塚区)",
            "lat": "35.417918",
            "lng": "139.548279"
        },
        {
            "index": "10",
            "id": "00126614",
            "name": "ポーラ前(横浜市戸塚区)",
            "lat": "35.416766",
            "lng": "139.54639"
        },
        {
            "index": "11",
            "id": "00126613",
            "name": "不動坂(横浜市戸塚区)",
            "lat": "35.413425",
            "lng": "139.541594"
        },
        {
            "index": "12",
            "id": "00126612",
            "name": "ブリヂストン前",
            "lat": "35.409557",
            "lng": "139.5396"
        },
        {
            "index": "13",
            "id": "00126611",
            "name": "元町(横浜市戸塚区)",
            "lat": "35.40689",
            "lng": "139.538133"
        },
        {
            "index": "14",
            "id": "00126610",
            "name": "矢部町",
            "lat": "35.403663",
            "lng": "139.537012"
        },
        {
            "index": "15",
            "id": "00080742",
            "name": "戸塚駅東口",
            "lat": "35.400883",
            "lng": "139.534505"
        }
    ],
    "route_url": "https://www.kanachu.co.jp/dia/route/index/cid:0000800198/"
}
