{
    "system": "善04",
    "busstops": [
        {
            "index": "1",
            "id": "00127073",
            "name": "善行駅",
            "lat": "35.362941",
            "lng": "139.473041"
        },
        {
            "index": "2",
            "id": "00127124",
            "name": "善行駅入口",
            "lat": "35.364848",
            "lng": "139.472726"
        },
        {
            "index": "3",
            "id": "00127118",
            "name": "善行台",
            "lat": "35.36865",
            "lng": "139.470837"
        },
        {
            "index": "4",
            "id": "00127119",
            "name": "富士見台(藤沢市)",
            "lat": "35.369816",
            "lng": "139.468137"
        },
        {
            "index": "5",
            "id": "00127120",
            "name": "2街区グラウンド前",
            "lat": "35.368113",
            "lng": "139.466093"
        },
        {
            "index": "6",
            "id": "00127075",
            "name": "マーケット前",
            "lat": "35.36695",
            "lng": "139.463988"
        },
        {
            "index": "7",
            "id": "00127076",
            "name": "善行団地",
            "lat": "35.366744",
            "lng": "139.462156"
        }
    ],
    "route_url": "https://www.kanachu.co.jp/dia/route/index/cid:0000801275/"
}
