{
    "system": "橋36",
    "busstops": [
        {
            "index": "1",
            "id": "00128970",
            "name": "橋本駅南口",
            "lat": "35.594206",
            "lng": "139.345025"
        },
        {
            "index": "2",
            "id": "00128971",
            "name": "橋本二丁目",
            "lat": "35.595232",
            "lng": "139.340162"
        },
        {
            "index": "3",
            "id": "00129066",
            "name": "旭中学校(相模原市緑区)",
            "lat": "35.588156",
            "lng": "139.341703"
        },
        {
            "index": "4",
            "id": "00129264",
            "name": "緑ヶ丘(相模原市緑区)",
            "lat": "35.58609",
            "lng": "139.340652"
        },
        {
            "index": "5",
            "id": "00129073",
            "name": "石宮",
            "lat": "35.583603",
            "lng": "139.339345"
        },
        {
            "index": "6",
            "id": "00129115",
            "name": "上中の原団地",
            "lat": "35.580521",
            "lng": "139.336038"
        },
        {
            "index": "7",
            "id": "00129297",
            "name": "六地蔵(相模原市緑区)",
            "lat": "35.580406",
            "lng": "139.332174"
        },
        {
            "index": "8",
            "id": "00129206",
            "name": "中村(相模原市緑区)",
            "lat": "35.581914",
            "lng": "139.330042"
        },
        {
            "index": "9",
            "id": "00129104",
            "name": "北公園入口(相模原市緑区)",
            "lat": "35.583268",
            "lng": "139.327875"
        },
        {
            "index": "10",
            "id": "00129128",
            "name": "九沢自治会館前",
            "lat": "35.584462",
            "lng": "139.325297"
        },
        {
            "index": "11",
            "id": "00128978",
            "name": "内出(相模原市緑区)",
            "lat": "35.585856",
            "lng": "139.31849"
        },
        {
            "index": "12",
            "id": "00129105",
            "name": "上九沢団地北",
            "lat": "35.587088",
            "lng": "139.315908"
        },
        {
            "index": "13",
            "id": "00129106",
            "name": "上九沢団地",
            "lat": "35.586221",
            "lng": "139.314558"
        },
        {
            "index": "14",
            "id": "00129107",
            "name": "上大島北",
            "lat": "35.583264",
            "lng": "139.312637"
        },
        {
            "index": "15",
            "id": "00128980",
            "name": "上大島",
            "lat": "35.581593",
            "lng": "139.313909"
        }
    ],
    "route_url": "https://www.kanachu.co.jp/dia/route/index/cid:0000803813/"
}
