{
    "system": "長37",
    "busstops": [
        {
            "index": "1",
            "id": "00129845",
            "name": "綾瀬車庫(綾瀬市)",
            "lat": "35.425988",
            "lng": "139.427836"
        },
        {
            "index": "2",
            "id": "00129851",
            "name": "大法寺(綾瀬市)",
            "lat": "35.429689",
            "lng": "139.436648"
        },
        {
            "index": "3",
            "id": "00129990",
            "name": "上落合(綾瀬市)",
            "lat": "35.424696",
            "lng": "139.438351"
        },
        {
            "index": "4",
            "id": "00129850",
            "name": "落合(綾瀬市)",
            "lat": "35.423781",
            "lng": "139.439272"
        },
        {
            "index": "5",
            "id": "00129849",
            "name": "中川橋",
            "lat": "35.42149",
            "lng": "139.443958"
        },
        {
            "index": "6",
            "id": "00129848",
            "name": "上土棚",
            "lat": "35.420007",
            "lng": "139.448639"
        },
        {
            "index": "7",
            "id": "00129847",
            "name": "並塚",
            "lat": "35.419716",
            "lng": "139.452997"
        },
        {
            "index": "8",
            "id": "00129846",
            "name": "上谷台",
            "lat": "35.417633",
            "lng": "139.458494"
        },
        {
            "index": "9",
            "id": "00129812",
            "name": "長後駅西口",
            "lat": "35.412472",
            "lng": "139.465116"
        }
    ],
    "route_url": "https://www.kanachu.co.jp/dia/route/index/cid:0000803979/"
}
