{
    "system": "",
    "busstops": [
        {
            "index": "1",
            "id": "00126595",
            "name": "本郷台駅",
            "lat": "35.367099",
            "lng": "139.551179"
        },
        {
            "index": "2",
            "id": "00126601",
            "name": "滝ノ分",
            "lat": "35.372831",
            "lng": "139.550927"
        },
        {
            "index": "3",
            "id": "00126600",
            "name": "渡戸(横浜市栄区)",
            "lat": "35.37607",
            "lng": "139.551936"
        },
        {
            "index": "4",
            "id": "00126599",
            "name": "西谷戸(横浜市栄区)",
            "lat": "35.378426",
            "lng": "139.552637"
        },
        {
            "index": "5",
            "id": "00126607",
            "name": "小菅ヶ谷橋",
            "lat": "35.378528",
            "lng": "139.555181"
        },
        {
            "index": "6",
            "id": "00126557",
            "name": "小山台(横浜市栄区)",
            "lat": "35.37806",
            "lng": "139.558727"
        },
        {
            "index": "7",
            "id": "00126556",
            "name": "つつじヶ丘(横浜市港南区)",
            "lat": "35.377572",
            "lng": "139.562305"
        },
        {
            "index": "8",
            "id": "00126555",
            "name": "野村港南台",
            "lat": "35.376715",
            "lng": "139.56609"
        },
        {
            "index": "9",
            "id": "00126554",
            "name": "原(横浜市港南区)",
            "lat": "35.375296",
            "lng": "139.567855"
        },
        {
            "index": "10",
            "id": "00126553",
            "name": "日野南中学校前",
            "lat": "35.374113",
            "lng": "139.569209"
        },
        {
            "index": "11",
            "id": "00126549",
            "name": "港南台西公園",
            "lat": "35.371586",
            "lng": "139.574193"
        },
        {
            "index": "12",
            "id": "00103234",
            "name": "横浜女子短期大学前",
            "lat": "35.371048",
            "lng": "139.577525"
        },
        {
            "index": "13",
            "id": "00025554",
            "name": "港南台駅",
            "lat": "35.375136",
            "lng": "139.576877"
        }
    ],
    "route_url": "https://www.kanachu.co.jp/dia/route/index/cid:0000800905/"
}
