{
    "system": "厚64",
    "busstops": [
        {
            "index": "1",
            "id": "00128256",
            "name": "厚木バスセンター",
            "lat": "35.441206",
            "lng": "139.366499"
        },
        {
            "index": "2",
            "id": "00128340",
            "name": "小田急通り",
            "lat": "35.442431",
            "lng": "139.366093"
        },
        {
            "index": "3",
            "id": "00128343",
            "name": "元町(厚木市)",
            "lat": "35.448015",
            "lng": "139.366051"
        },
        {
            "index": "4",
            "id": "00128344",
            "name": "鮎津橋",
            "lat": "35.45164",
            "lng": "139.365726"
        },
        {
            "index": "5",
            "id": "00128345",
            "name": "積水ソフランウイズ前",
            "lat": "35.45426",
            "lng": "139.368982"
        },
        {
            "index": "6",
            "id": "00128346",
            "name": "金田下宿",
            "lat": "35.459944",
            "lng": "139.367718"
        },
        {
            "index": "7",
            "id": "00128347",
            "name": "金田(厚木市)",
            "lat": "35.463912",
            "lng": "139.368015"
        },
        {
            "index": "8",
            "id": "00128348",
            "name": "金田神社前",
            "lat": "35.466463",
            "lng": "139.367995"
        },
        {
            "index": "9",
            "id": "00128349",
            "name": "下依知入口",
            "lat": "35.470753",
            "lng": "139.367705"
        },
        {
            "index": "10",
            "id": "00128350",
            "name": "追分(厚木市)",
            "lat": "35.475786",
            "lng": "139.366837"
        },
        {
            "index": "11",
            "id": "00128351",
            "name": "蓮生寺(厚木市)",
            "lat": "35.480945",
            "lng": "139.365683"
        },
        {
            "index": "12",
            "id": "00128352",
            "name": "関口(厚木市)",
            "lat": "35.484805",
            "lng": "139.3651"
        },
        {
            "index": "13",
            "id": "00128353",
            "name": "依知小学校前",
            "lat": "35.491105",
            "lng": "139.36402"
        },
        {
            "index": "14",
            "id": "00128354",
            "name": "中平(厚木市)",
            "lat": "35.496727",
            "lng": "139.3627"
        },
        {
            "index": "15",
            "id": "00128362",
            "name": "中荻原",
            "lat": "35.501478",
            "lng": "139.357062"
        },
        {
            "index": "16",
            "id": "00128363",
            "name": "六本松(厚木市)",
            "lat": "35.503413",
            "lng": "139.352422"
        },
        {
            "index": "17",
            "id": "00128364",
            "name": "坂本入口",
            "lat": "35.505522",
            "lng": "139.345298"
        },
        {
            "index": "18",
            "id": "00128320",
            "name": "桜台(愛甲郡愛川町)",
            "lat": "35.506837",
            "lng": "139.339902"
        },
        {
            "index": "19",
            "id": "00128321",
            "name": "運輸支局入口(愛甲郡愛川町)",
            "lat": "35.510666",
            "lng": "139.338512"
        },
        {
            "index": "20",
            "id": "00128322",
            "name": "一本松(愛甲郡愛川町)",
            "lat": "35.513954",
            "lng": "139.336619"
        },
        {
            "index": "21",
            "id": "00128323",
            "name": "局前(愛甲郡愛川町)",
            "lat": "35.51705",
            "lng": "139.333298"
        },
        {
            "index": "22",
            "id": "00128324",
            "name": "中津(愛甲郡愛川町)",
            "lat": "35.519491",
            "lng": "139.331013"
        },
        {
            "index": "23",
            "id": "00128325",
            "name": "東中学校前(愛甲郡愛川町)",
            "lat": "35.522979",
            "lng": "139.327721"
        },
        {
            "index": "24",
            "id": "00128326",
            "name": "箕輪(愛甲郡愛川町)",
            "lat": "35.526175",
            "lng": "139.323417"
        },
        {
            "index": "25",
            "id": "00128520",
            "name": "愛川町役場",
            "lat": "35.528508",
            "lng": "139.321159"
        },
        {
            "index": "26",
            "id": "00128700",
            "name": "愛川バスセンター",
            "lat": "35.529744",
            "lng": "139.320114"
        }
    ],
    "route_url": "https://www.kanachu.co.jp/dia/route/index/cid:0000802983/"
}
