{
    "system": "善06",
    "busstops": [
        {
            "index": "1",
            "id": "00127073",
            "name": "善行駅",
            "lat": "35.362941",
            "lng": "139.473041"
        },
        {
            "index": "2",
            "id": "00130304",
            "name": "善行二丁目坂上",
            "lat": "35.366505",
            "lng": "139.469375"
        },
        {
            "index": "3",
            "id": "00127074",
            "name": "団地入口(藤沢市)",
            "lat": "35.367297",
            "lng": "139.468195"
        },
        {
            "index": "4",
            "id": "00127075",
            "name": "マーケット前",
            "lat": "35.36695",
            "lng": "139.463988"
        },
        {
            "index": "5",
            "id": "00127076",
            "name": "善行団地",
            "lat": "35.366744",
            "lng": "139.462156"
        },
        {
            "index": "6",
            "id": "00130303",
            "name": "善行団地西",
            "lat": "35.36516",
            "lng": "139.46102"
        },
        {
            "index": "7",
            "id": "00130302",
            "name": "善行坂北",
            "lat": "35.363333",
            "lng": "139.461894"
        },
        {
            "index": "8",
            "id": "00130301",
            "name": "善行坂南",
            "lat": "35.361815",
            "lng": "139.463906"
        },
        {
            "index": "9",
            "id": "00127101",
            "name": "茅山(藤沢市)",
            "lat": "35.361567",
            "lng": "139.467887"
        },
        {
            "index": "10",
            "id": "00127072",
            "name": "善行二丁目",
            "lat": "35.364106",
            "lng": "139.469466"
        },
        {
            "index": "11",
            "id": "00127073",
            "name": "善行駅",
            "lat": "35.363136",
            "lng": "139.47303"
        }
    ],
    "route_url": "https://www.kanachu.co.jp/dia/route/index/cid:0000801709/"
}
