{
    "system": "平75",
    "busstops": [
        {
            "index": "1",
            "id": "00128054",
            "name": "秦野駅南口",
            "lat": "35.369918",
            "lng": "139.225675"
        },
        {
            "index": "2",
            "id": "00127764",
            "name": "秦野郵便局前",
            "lat": "35.368",
            "lng": "139.230835"
        },
        {
            "index": "3",
            "id": "00127765",
            "name": "養泉院",
            "lat": "35.365554",
            "lng": "139.233499"
        },
        {
            "index": "4",
            "id": "00127766",
            "name": "西大竹",
            "lat": "35.36193",
            "lng": "139.234663"
        },
        {
            "index": "5",
            "id": "00127767",
            "name": "大竹(秦野市)",
            "lat": "35.35825",
            "lng": "139.235515"
        },
        {
            "index": "6",
            "id": "00026081",
            "name": "東名秦野",
            "lat": "35.351672",
            "lng": "139.235942"
        },
        {
            "index": "7",
            "id": "00127775",
            "name": "猪分",
            "lat": "35.348113",
            "lng": "139.234687"
        },
        {
            "index": "8",
            "id": "00127776",
            "name": "原(足柄上郡中井町)",
            "lat": "35.345919",
            "lng": "139.233928"
        },
        {
            "index": "9",
            "id": "00127777",
            "name": "上井ノ口",
            "lat": "35.341531",
            "lng": "139.23241"
        },
        {
            "index": "10",
            "id": "00127778",
            "name": "井ノ口小学校前",
            "lat": "35.33909",
            "lng": "139.232629"
        },
        {
            "index": "11",
            "id": "00127814",
            "name": "七国峠",
            "lat": "35.33655",
            "lng": "139.243307"
        },
        {
            "index": "12",
            "id": "00127815",
            "name": "七国荘",
            "lat": "35.338351",
            "lng": "139.246526"
        },
        {
            "index": "13",
            "id": "00127816",
            "name": "矢沢(平塚市)",
            "lat": "35.337882",
            "lng": "139.248916"
        },
        {
            "index": "14",
            "id": "00127817",
            "name": "矢沢下",
            "lat": "35.341302",
            "lng": "139.250662"
        },
        {
            "index": "15",
            "id": "00127818",
            "name": "土屋霊園入口",
            "lat": "35.343101",
            "lng": "139.251185"
        },
        {
            "index": "16",
            "id": "00127819",
            "name": "琵琶入口",
            "lat": "35.34419",
            "lng": "139.253755"
        },
        {
            "index": "17",
            "id": "00127820",
            "name": "土屋幼稚園前",
            "lat": "35.347601",
            "lng": "139.257016"
        },
        {
            "index": "18",
            "id": "00127821",
            "name": "中庶子分",
            "lat": "35.349493",
            "lng": "139.259975"
        },
        {
            "index": "19",
            "id": "00127822",
            "name": "庶子分",
            "lat": "35.351852",
            "lng": "139.262582"
        },
        {
            "index": "20",
            "id": "00127823",
            "name": "寺分(平塚市)",
            "lat": "35.353842",
            "lng": "139.267764"
        },
        {
            "index": "21",
            "id": "00127727",
            "name": "土屋橋",
            "lat": "35.355621",
            "lng": "139.269534"
        },
        {
            "index": "22",
            "id": "00127728",
            "name": "東海大学正門前",
            "lat": "35.356859",
            "lng": "139.272484"
        },
        {
            "index": "23",
            "id": "00127729",
            "name": "青柳(平塚市)",
            "lat": "35.358205",
            "lng": "139.276513"
        },
        {
            "index": "24",
            "id": "00127730",
            "name": "北金目入口",
            "lat": "35.359929",
            "lng": "139.285619"
        },
        {
            "index": "25",
            "id": "00127731",
            "name": "金目駅",
            "lat": "35.359313",
            "lng": "139.288253"
        },
        {
            "index": "26",
            "id": "00127732",
            "name": "南金目",
            "lat": "35.359195",
            "lng": "139.292322"
        },
        {
            "index": "27",
            "id": "00127733",
            "name": "片岡(平塚市)",
            "lat": "35.359411",
            "lng": "139.298762"
        },
        {
            "index": "28",
            "id": "00127734",
            "name": "飯島(平塚市)",
            "lat": "35.356844",
            "lng": "139.305094"
        },
        {
            "index": "29",
            "id": "00127735",
            "name": "平塚支援学校前",
            "lat": "35.35598",
            "lng": "139.308777"
        },
        {
            "index": "30",
            "id": "00127736",
            "name": "水神橋(平塚市)",
            "lat": "35.353958",
            "lng": "139.31044"
        },
        {
            "index": "31",
            "id": "00127737",
            "name": "長持",
            "lat": "35.348509",
            "lng": "139.316025"
        },
        {
            "index": "32",
            "id": "00127738",
            "name": "長瀬(平塚市)",
            "lat": "35.343106",
            "lng": "139.321134"
        },
        {
            "index": "33",
            "id": "00127560",
            "name": "南原土手",
            "lat": "35.340368",
            "lng": "139.322255"
        },
        {
            "index": "34",
            "id": "00127559",
            "name": "南原(平塚市)",
            "lat": "35.33909",
            "lng": "139.328274"
        },
        {
            "index": "35",
            "id": "00127558",
            "name": "向原(平塚市)",
            "lat": "35.338081",
            "lng": "139.33083"
        },
        {
            "index": "36",
            "id": "00127557",
            "name": "江南高校前",
            "lat": "35.337154",
            "lng": "139.334505"
        },
        {
            "index": "37",
            "id": "00127556",
            "name": "追分(平塚市)",
            "lat": "35.33592",
            "lng": "139.338303"
        },
        {
            "index": "38",
            "id": "00127739",
            "name": "営林署前(平塚市)",
            "lat": "35.333075",
            "lng": "139.339312"
        },
        {
            "index": "39",
            "id": "00127740",
            "name": "旭通り(平塚市)",
            "lat": "35.331125",
            "lng": "139.339977"
        },
        {
            "index": "40",
            "id": "00127467",
            "name": "八間通り",
            "lat": "35.328369",
            "lng": "139.341444"
        },
        {
            "index": "41",
            "id": "00127466",
            "name": "平塚文化芸術ホール前",
            "lat": "35.32904",
            "lng": "139.344531"
        },
        {
            "index": "42",
            "id": "00127465",
            "name": "銀座通り(平塚市)",
            "lat": "35.329517",
            "lng": "139.346771"
        },
        {
            "index": "43",
            "id": "00127464",
            "name": "平塚駅北口",
            "lat": "35.329337",
            "lng": "139.350596"
        }
    ],
    "route_url": "https://www.kanachu.co.jp/dia/route/index/cid:0000801004/"
}
