{
    "system": "平77",
    "busstops": [
        {
            "index": "1",
            "id": "00127464",
            "name": "平塚駅北口",
            "lat": "35.329255",
            "lng": "139.350287"
        },
        {
            "index": "2",
            "id": "00127465",
            "name": "銀座通り(平塚市)",
            "lat": "35.329601",
            "lng": "139.348024"
        },
        {
            "index": "3",
            "id": "00127466",
            "name": "平塚文化芸術ホール前",
            "lat": "35.328853",
            "lng": "139.344531"
        },
        {
            "index": "4",
            "id": "00127467",
            "name": "八間通り",
            "lat": "35.327918",
            "lng": "139.340189"
        },
        {
            "index": "5",
            "id": "00127468",
            "name": "豊田道",
            "lat": "35.327492",
            "lng": "139.338433"
        },
        {
            "index": "6",
            "id": "00127585",
            "name": "新豊田道",
            "lat": "35.327649",
            "lng": "139.337021"
        },
        {
            "index": "7",
            "id": "00127586",
            "name": "桧扇町",
            "lat": "35.329651",
            "lng": "139.336418"
        },
        {
            "index": "8",
            "id": "00127587",
            "name": "富士見小学校前(平塚市)",
            "lat": "35.331305",
            "lng": "139.335945"
        },
        {
            "index": "9",
            "id": "00127588",
            "name": "豊原町",
            "lat": "35.334858",
            "lng": "139.334867"
        },
        {
            "index": "10",
            "id": "00127589",
            "name": "諏訪町(平塚市)",
            "lat": "35.335698",
            "lng": "139.334179"
        },
        {
            "index": "11",
            "id": "00127590",
            "name": "大久保公園(平塚市)",
            "lat": "35.334817",
            "lng": "139.331319"
        },
        {
            "index": "12",
            "id": "00127591",
            "name": "貴峯荘前",
            "lat": "35.333283",
            "lng": "139.330884"
        },
        {
            "index": "13",
            "id": "00127592",
            "name": "平塚農商高校",
            "lat": "35.33287",
            "lng": "139.328521"
        },
        {
            "index": "14",
            "id": "00127572",
            "name": "上平塚",
            "lat": "35.333821",
            "lng": "139.325115"
        },
        {
            "index": "15",
            "id": "00127583",
            "name": "市民病院前(平塚市)",
            "lat": "35.336142",
            "lng": "139.325203"
        },
        {
            "index": "16",
            "id": "00127584",
            "name": "達上ヶ丘",
            "lat": "35.335552",
            "lng": "139.323916"
        },
        {
            "index": "17",
            "id": "00127560",
            "name": "南原土手",
            "lat": "35.340468",
            "lng": "139.32206"
        },
        {
            "index": "18",
            "id": "00127738",
            "name": "長瀬(平塚市)",
            "lat": "35.343418",
            "lng": "139.320732"
        },
        {
            "index": "19",
            "id": "00127737",
            "name": "長持",
            "lat": "35.347948",
            "lng": "139.316367"
        },
        {
            "index": "20",
            "id": "00127736",
            "name": "水神橋(平塚市)",
            "lat": "35.353576",
            "lng": "139.310703"
        },
        {
            "index": "21",
            "id": "00127735",
            "name": "平塚支援学校前",
            "lat": "35.35559",
            "lng": "139.309019"
        },
        {
            "index": "22",
            "id": "00127734",
            "name": "飯島(平塚市)",
            "lat": "35.356854",
            "lng": "139.304862"
        },
        {
            "index": "23",
            "id": "00127733",
            "name": "片岡(平塚市)",
            "lat": "35.359383",
            "lng": "139.29829"
        },
        {
            "index": "24",
            "id": "00127732",
            "name": "南金目",
            "lat": "35.359114",
            "lng": "139.291855"
        },
        {
            "index": "25",
            "id": "00127731",
            "name": "金目駅",
            "lat": "35.359193",
            "lng": "139.289047"
        },
        {
            "index": "26",
            "id": "00128236",
            "name": "堀町(平塚市)",
            "lat": "35.360757",
            "lng": "139.286322"
        },
        {
            "index": "27",
            "id": "00128235",
            "name": "みずほ小学校",
            "lat": "35.364393",
            "lng": "139.285968"
        },
        {
            "index": "28",
            "id": "00130347",
            "name": "塚越古墳",
            "lat": "35.366831",
            "lng": "139.285123"
        },
        {
            "index": "29",
            "id": "00130533",
            "name": "北金目",
            "lat": "35.367321",
            "lng": "139.282498"
        },
        {
            "index": "30",
            "id": "00130534",
            "name": "東海大学東",
            "lat": "35.367078",
            "lng": "139.278247"
        },
        {
            "index": "31",
            "id": "00130522",
            "name": "東海大学1号館前",
            "lat": "35.366404",
            "lng": "139.274206"
        },
        {
            "index": "32",
            "id": "00127760",
            "name": "東海大学前駅入口",
            "lat": "35.371483",
            "lng": "139.273756"
        },
        {
            "index": "33",
            "id": "00128055",
            "name": "東海大学前駅南口",
            "lat": "35.372851",
            "lng": "139.271367"
        }
    ],
    "route_url": "https://www.kanachu.co.jp/dia/route/index/cid:0000804021/"
}
