{
    "system": "海03",
    "busstops": [
        {
            "index": "1",
            "id": "00128604",
            "name": "海老名駅東口",
            "lat": "35.452595",
            "lng": "139.39158"
        },
        {
            "index": "2",
            "id": "00128613",
            "name": "中央一丁目(海老名市)",
            "lat": "35.451547",
            "lng": "139.396081"
        },
        {
            "index": "3",
            "id": "00128558",
            "name": "国分(海老名市)",
            "lat": "35.453505",
            "lng": "139.399406"
        },
        {
            "index": "4",
            "id": "00128614",
            "name": "東国分",
            "lat": "35.453026",
            "lng": "139.402685"
        },
        {
            "index": "5",
            "id": "00128615",
            "name": "望地(海老名市)",
            "lat": "35.453348",
            "lng": "139.405807"
        },
        {
            "index": "6",
            "id": "00128616",
            "name": "県営団地入口(海老名市)",
            "lat": "35.455027",
            "lng": "139.40789"
        },
        {
            "index": "7",
            "id": "00128617",
            "name": "赤坂(海老名市)",
            "lat": "35.457777",
            "lng": "139.411112"
        },
        {
            "index": "8",
            "id": "00128618",
            "name": "パブコ前",
            "lat": "35.459655",
            "lng": "139.413242"
        },
        {
            "index": "9",
            "id": "00128619",
            "name": "天野原",
            "lat": "35.461338",
            "lng": "139.414604"
        },
        {
            "index": "10",
            "id": "00128620",
            "name": "東建ハイツ前",
            "lat": "35.463219",
            "lng": "139.412794"
        },
        {
            "index": "11",
            "id": "00128621",
            "name": "かしわ台駅",
            "lat": "35.465279",
            "lng": "139.413992"
        }
    ],
    "route_url": "https://www.kanachu.co.jp/dia/route/index/cid:0000800784/"
}
