{
    "system": "二38",
    "busstops": [
        {
            "index": "1",
            "id": "00127813",
            "name": "橘団地",
            "lat": "35.309533",
            "lng": "139.231275"
        },
        {
            "index": "2",
            "id": "00127812",
            "name": "橘団地中央",
            "lat": "35.309749",
            "lng": "139.234096"
        },
        {
            "index": "3",
            "id": "00127811",
            "name": "インター入口",
            "lat": "35.308975",
            "lng": "139.235843"
        },
        {
            "index": "4",
            "id": "00127807",
            "name": "南3号前",
            "lat": "35.307354",
            "lng": "139.240042"
        },
        {
            "index": "5",
            "id": "00127794",
            "name": "南5号前",
            "lat": "35.308032",
            "lng": "139.242924"
        },
        {
            "index": "6",
            "id": "00127792",
            "name": "四ツ谷(中郡二宮町)",
            "lat": "35.308686",
            "lng": "139.245583"
        },
        {
            "index": "7",
            "id": "00127788",
            "name": "中里(中郡二宮町)",
            "lat": "35.308627",
            "lng": "139.250211"
        },
        {
            "index": "8",
            "id": "00127789",
            "name": "中島(中郡二宮町)",
            "lat": "35.307516",
            "lng": "139.25288"
        },
        {
            "index": "9",
            "id": "00127790",
            "name": "堂面(中郡二宮町)",
            "lat": "35.305482",
            "lng": "139.255251"
        },
        {
            "index": "10",
            "id": "00127791",
            "name": "元町(中郡二宮町)",
            "lat": "35.301529",
            "lng": "139.257673"
        },
        {
            "index": "11",
            "id": "00127683",
            "name": "二宮駅北口",
            "lat": "35.29915",
            "lng": "139.257459"
        }
    ],
    "route_url": "https://www.kanachu.co.jp/dia/route/index/cid:0000804007/"
}
