{
    "system": "巻02",
    "busstops": [
        {
            "index": "1",
            "id": "00127755",
            "name": "下大槻団地",
            "lat": "35.360197",
            "lng": "139.264218"
        },
        {
            "index": "2",
            "id": "00127754",
            "name": "広畑ふれあいプラザ前",
            "lat": "35.360519",
            "lng": "139.262517"
        },
        {
            "index": "3",
            "id": "00127756",
            "name": "宿矢名",
            "lat": "35.362802",
            "lng": "139.262544"
        },
        {
            "index": "4",
            "id": "00127757",
            "name": "矢名",
            "lat": "35.363825",
            "lng": "139.266218"
        },
        {
            "index": "5",
            "id": "00127758",
            "name": "学校入口(秦野市)",
            "lat": "35.365545",
            "lng": "139.270154"
        },
        {
            "index": "6",
            "id": "00127759",
            "name": "東海大学北門",
            "lat": "35.366456",
            "lng": "139.272753"
        },
        {
            "index": "7",
            "id": "00127760",
            "name": "東海大学前駅入口",
            "lat": "35.371483",
            "lng": "139.273756"
        },
        {
            "index": "8",
            "id": "00128055",
            "name": "東海大学前駅南口",
            "lat": "35.373058",
            "lng": "139.271618"
        },
        {
            "index": "9",
            "id": "00127761",
            "name": "鶴美ヶ丘",
            "lat": "35.375592",
            "lng": "139.276379"
        },
        {
            "index": "10",
            "id": "00127762",
            "name": "落幡",
            "lat": "35.377718",
            "lng": "139.277082"
        },
        {
            "index": "11",
            "id": "00130497",
            "name": "鶴巻温泉駅南口",
            "lat": "35.380727",
            "lng": "139.277841"
        }
    ],
    "route_url": "https://www.kanachu.co.jp/dia/route/index/cid:0000803664/"
}
