{
    "system": "愛02",
    "busstops": [
        {
            "index": "1",
            "id": "00128496",
            "name": "愛甲石田駅",
            "lat": "35.417729",
            "lng": "139.343689"
        },
        {
            "index": "2",
            "id": "00128202",
            "name": "道了尊入口",
            "lat": "35.415449",
            "lng": "139.339577"
        },
        {
            "index": "3",
            "id": "00128248",
            "name": "一之崎",
            "lat": "35.417421",
            "lng": "139.336897"
        },
        {
            "index": "4",
            "id": "00128203",
            "name": "大久保(伊勢原市)",
            "lat": "35.416896",
            "lng": "139.335055"
        },
        {
            "index": "5",
            "id": "00128240",
            "name": "すみだ公園",
            "lat": "35.41645",
            "lng": "139.333682"
        },
        {
            "index": "6",
            "id": "00128241",
            "name": "あかね台入口(伊勢原市)",
            "lat": "35.416291",
            "lng": "139.331263"
        },
        {
            "index": "7",
            "id": "00128242",
            "name": "高森四丁目",
            "lat": "35.416696",
            "lng": "139.328377"
        },
        {
            "index": "8",
            "id": "00128243",
            "name": "会館前(伊勢原市)",
            "lat": "35.414724",
            "lng": "139.325961"
        },
        {
            "index": "9",
            "id": "00128244",
            "name": "高森二丁目",
            "lat": "35.413509",
            "lng": "139.326393"
        },
        {
            "index": "10",
            "id": "00128245",
            "name": "18号棟前",
            "lat": "35.413174",
            "lng": "139.32953"
        },
        {
            "index": "11",
            "id": "00128246",
            "name": "22号棟前",
            "lat": "35.413408",
            "lng": "139.33113"
        },
        {
            "index": "12",
            "id": "00128247",
            "name": "5号棟前",
            "lat": "35.41485",
            "lng": "139.331304"
        },
        {
            "index": "13",
            "id": "00128240",
            "name": "すみだ公園",
            "lat": "35.41645",
            "lng": "139.333682"
        },
        {
            "index": "14",
            "id": "00128203",
            "name": "大久保(伊勢原市)",
            "lat": "35.416559",
            "lng": "139.334803"
        },
        {
            "index": "15",
            "id": "00128248",
            "name": "一之崎",
            "lat": "35.417548",
            "lng": "139.336834"
        },
        {
            "index": "16",
            "id": "00128202",
            "name": "道了尊入口",
            "lat": "35.415449",
            "lng": "139.339577"
        },
        {
            "index": "17",
            "id": "00128496",
            "name": "愛甲石田駅",
            "lat": "35.418388",
            "lng": "139.344343"
        }
    ],
    "route_url": "https://www.kanachu.co.jp/dia/route/index/cid:0000800614/"
}
