{
    "system": "愛12",
    "busstops": [
        {
            "index": "1",
            "id": "00128496",
            "name": "愛甲石田駅",
            "lat": "35.418042",
            "lng": "139.344115"
        },
        {
            "index": "2",
            "id": "00128495",
            "name": "宮前(厚木市)",
            "lat": "35.420482",
            "lng": "139.341804"
        },
        {
            "index": "3",
            "id": "00128529",
            "name": "堂山",
            "lat": "35.421563",
            "lng": "139.339575"
        },
        {
            "index": "4",
            "id": "00128528",
            "name": "愛甲橋",
            "lat": "35.42344",
            "lng": "139.335608"
        },
        {
            "index": "5",
            "id": "00128527",
            "name": "上愛甲",
            "lat": "35.42479",
            "lng": "139.332824"
        },
        {
            "index": "6",
            "id": "00128526",
            "name": "愛甲原住宅",
            "lat": "35.423832",
            "lng": "139.331303"
        },
        {
            "index": "7",
            "id": "00128525",
            "name": "大上(厚木市)",
            "lat": "35.426201",
            "lng": "139.329291"
        },
        {
            "index": "8",
            "id": "00128524",
            "name": "聖木",
            "lat": "35.428788",
            "lng": "139.32869"
        },
        {
            "index": "9",
            "id": "00128659",
            "name": "毛利台南入口",
            "lat": "35.432849",
            "lng": "139.330541"
        },
        {
            "index": "10",
            "id": "00128447",
            "name": "上長谷(厚木市)",
            "lat": "35.432797",
            "lng": "139.32641"
        },
        {
            "index": "11",
            "id": "00128448",
            "name": "愛名入口",
            "lat": "35.43444",
            "lng": "139.323219"
        },
        {
            "index": "12",
            "id": "00128449",
            "name": "小野宮前",
            "lat": "35.434018",
            "lng": "139.319281"
        },
        {
            "index": "13",
            "id": "00128450",
            "name": "小野橋(厚木市)",
            "lat": "35.434348",
            "lng": "139.315504"
        },
        {
            "index": "14",
            "id": "00128451",
            "name": "中屋橋",
            "lat": "35.435264",
            "lng": "139.3123"
        },
        {
            "index": "15",
            "id": "00128452",
            "name": "玉川農協前",
            "lat": "35.435192",
            "lng": "139.307978"
        },
        {
            "index": "16",
            "id": "00128453",
            "name": "玉川公民館前",
            "lat": "35.437678",
            "lng": "139.3033"
        },
        {
            "index": "17",
            "id": "00128454",
            "name": "日向川",
            "lat": "35.438894",
            "lng": "139.301477"
        },
        {
            "index": "18",
            "id": "00128455",
            "name": "馬場リハビリ入口",
            "lat": "35.442077",
            "lng": "139.298797"
        },
        {
            "index": "19",
            "id": "00128456",
            "name": "神奈川リハビリ",
            "lat": "35.440206",
            "lng": "139.296289"
        }
    ],
    "route_url": "https://www.kanachu.co.jp/dia/route/index/cid:0000803022/"
}
