{
    "system": "二05",
    "busstops": [
        {
            "index": "1",
            "id": "00127552",
            "name": "松岩寺",
            "lat": "35.338215",
            "lng": "139.292753"
        },
        {
            "index": "2",
            "id": "00127551",
            "name": "弁天通り(平塚市)",
            "lat": "35.335491",
            "lng": "139.293227"
        },
        {
            "index": "3",
            "id": "00127550",
            "name": "境橋(中郡大磯町)",
            "lat": "35.33003",
            "lng": "139.293012"
        },
        {
            "index": "4",
            "id": "00127542",
            "name": "上寺坂",
            "lat": "35.32715",
            "lng": "139.289837"
        },
        {
            "index": "5",
            "id": "00127543",
            "name": "王福寺",
            "lat": "35.325093",
            "lng": "139.28791"
        },
        {
            "index": "6",
            "id": "00127544",
            "name": "寺坂宮前",
            "lat": "35.324087",
            "lng": "139.285209"
        },
        {
            "index": "7",
            "id": "00127545",
            "name": "普門寺入口",
            "lat": "35.322691",
            "lng": "139.283903"
        },
        {
            "index": "8",
            "id": "00127546",
            "name": "生沢",
            "lat": "35.321056",
            "lng": "139.280006"
        },
        {
            "index": "9",
            "id": "00127547",
            "name": "西生沢",
            "lat": "35.319051",
            "lng": "139.278487"
        },
        {
            "index": "10",
            "id": "00127548",
            "name": "おおいそ学園入口",
            "lat": "35.314243",
            "lng": "139.277919"
        },
        {
            "index": "11",
            "id": "00127549",
            "name": "月京",
            "lat": "35.310741",
            "lng": "139.277806"
        },
        {
            "index": "12",
            "id": "00127505",
            "name": "天の杜",
            "lat": "35.307432",
            "lng": "139.277484"
        },
        {
            "index": "13",
            "id": "00127483",
            "name": "国府新宿",
            "lat": "35.304058",
            "lng": "139.275328"
        },
        {
            "index": "14",
            "id": "00127484",
            "name": "槇の木",
            "lat": "35.303176",
            "lng": "139.271424"
        },
        {
            "index": "15",
            "id": "00127485",
            "name": "変電所前(中郡大磯町)",
            "lat": "35.301769",
            "lng": "139.268273"
        },
        {
            "index": "16",
            "id": "00127486",
            "name": "下町(中郡二宮町)",
            "lat": "35.300702",
            "lng": "139.266057"
        },
        {
            "index": "17",
            "id": "00127487",
            "name": "塩海橋",
            "lat": "35.299777",
            "lng": "139.263472"
        },
        {
            "index": "18",
            "id": "00127488",
            "name": "秦野道",
            "lat": "35.298498",
            "lng": "139.260618"
        },
        {
            "index": "19",
            "id": "00127489",
            "name": "二宮駅南口",
            "lat": "35.298469",
            "lng": "139.258191"
        }
    ],
    "route_url": "https://www.kanachu.co.jp/dia/route/index/cid:0000800533/"
}
