{
    "system": "厚61",
    "busstops": [
        {
            "index": "1",
            "id": "00128256",
            "name": "厚木バスセンター",
            "lat": "35.441206",
            "lng": "139.366499"
        },
        {
            "index": "2",
            "id": "00128340",
            "name": "小田急通り",
            "lat": "35.442431",
            "lng": "139.366093"
        },
        {
            "index": "3",
            "id": "00128343",
            "name": "元町(厚木市)",
            "lat": "35.448015",
            "lng": "139.366051"
        },
        {
            "index": "4",
            "id": "00128344",
            "name": "鮎津橋",
            "lat": "35.45164",
            "lng": "139.365726"
        },
        {
            "index": "5",
            "id": "00128345",
            "name": "積水ソフランウイズ前",
            "lat": "35.45426",
            "lng": "139.368982"
        },
        {
            "index": "6",
            "id": "00128346",
            "name": "金田下宿",
            "lat": "35.459944",
            "lng": "139.367718"
        },
        {
            "index": "7",
            "id": "00128347",
            "name": "金田(厚木市)",
            "lat": "35.463912",
            "lng": "139.368015"
        },
        {
            "index": "8",
            "id": "00128348",
            "name": "金田神社前",
            "lat": "35.466463",
            "lng": "139.367995"
        },
        {
            "index": "9",
            "id": "00128349",
            "name": "下依知入口",
            "lat": "35.470753",
            "lng": "139.367705"
        },
        {
            "index": "10",
            "id": "00128350",
            "name": "追分(厚木市)",
            "lat": "35.475786",
            "lng": "139.366837"
        },
        {
            "index": "11",
            "id": "00128351",
            "name": "蓮生寺(厚木市)",
            "lat": "35.480945",
            "lng": "139.365683"
        },
        {
            "index": "12",
            "id": "00128352",
            "name": "関口(厚木市)",
            "lat": "35.484805",
            "lng": "139.3651"
        },
        {
            "index": "13",
            "id": "00128353",
            "name": "依知小学校前",
            "lat": "35.491105",
            "lng": "139.36402"
        },
        {
            "index": "14",
            "id": "00128354",
            "name": "中平(厚木市)",
            "lat": "35.496727",
            "lng": "139.3627"
        },
        {
            "index": "15",
            "id": "00128355",
            "name": "山際",
            "lat": "35.503976",
            "lng": "139.360858"
        },
        {
            "index": "16",
            "id": "00128356",
            "name": "藤塚(厚木市)",
            "lat": "35.509841",
            "lng": "139.358741"
        },
        {
            "index": "17",
            "id": "00128365",
            "name": "団地入口(厚木市)",
            "lat": "35.510359",
            "lng": "139.357324"
        },
        {
            "index": "18",
            "id": "00128366",
            "name": "東一丁目(厚木市)",
            "lat": "35.509711",
            "lng": "139.354611"
        },
        {
            "index": "19",
            "id": "00128367",
            "name": "南中央通り",
            "lat": "35.508651",
            "lng": "139.350164"
        },
        {
            "index": "20",
            "id": "00128368",
            "name": "西一丁目(厚木市)",
            "lat": "35.508017",
            "lng": "139.347494"
        },
        {
            "index": "21",
            "id": "00128369",
            "name": "西二丁目(愛甲郡愛川町)",
            "lat": "35.51268",
            "lng": "139.344425"
        },
        {
            "index": "22",
            "id": "00128370",
            "name": "西三丁目(愛甲郡愛川町)",
            "lat": "35.516077",
            "lng": "139.343164"
        },
        {
            "index": "23",
            "id": "00128371",
            "name": "西四丁目(愛甲郡愛川町)",
            "lat": "35.518952",
            "lng": "139.342135"
        },
        {
            "index": "24",
            "id": "00128372",
            "name": "春日台入口",
            "lat": "35.523328",
            "lng": "139.339902"
        },
        {
            "index": "25",
            "id": "00128373",
            "name": "春日台一丁目",
            "lat": "35.524691",
            "lng": "139.336533"
        },
        {
            "index": "26",
            "id": "00128374",
            "name": "春日台三丁目(愛甲郡愛川町)",
            "lat": "35.526319",
            "lng": "139.333325"
        },
        {
            "index": "27",
            "id": "00128375",
            "name": "春日台団地",
            "lat": "35.527673",
            "lng": "139.330857"
        }
    ],
    "route_url": "https://www.kanachu.co.jp/dia/route/index/cid:0000800102/"
}
