{
    "system": "厚10",
    "busstops": [
        {
            "index": "1",
            "id": "00127706",
            "name": "厚木アクスト",
            "lat": "35.423457",
            "lng": "139.360158"
        },
        {
            "index": "2",
            "id": "00128632",
            "name": "岡田電話局前",
            "lat": "35.419047",
            "lng": "139.364736"
        },
        {
            "index": "3",
            "id": "00128633",
            "name": "岡田(新道/厚木市)",
            "lat": "35.425146",
            "lng": "139.365361"
        },
        {
            "index": "4",
            "id": "00128634",
            "name": "岡田一本杉(新道/厚木市)",
            "lat": "35.428321",
            "lng": "139.365666"
        },
        {
            "index": "5",
            "id": "00128699",
            "name": "本厚木駅東口",
            "lat": "35.439786",
            "lng": "139.36589"
        },
        {
            "index": "6",
            "id": "00128256",
            "name": "厚木バスセンター",
            "lat": "35.441107",
            "lng": "139.36685"
        }
    ],
    "route_url": "https://www.kanachu.co.jp/dia/route/index/cid:0000801443/"
}
