{
    "system": "小11",
    "busstops": [
        {
            "index": "1",
            "id": "00129690",
            "name": "小田急相模原駅",
            "lat": "35.515937",
            "lng": "139.421991"
        },
        {
            "index": "2",
            "id": "00129689",
            "name": "二宮神社前(相模原市南区)",
            "lat": "35.517057",
            "lng": "139.422321"
        },
        {
            "index": "3",
            "id": "00129700",
            "name": "鶴ヶ丘団地前",
            "lat": "35.519515",
            "lng": "139.421328"
        },
        {
            "index": "4",
            "id": "00129699",
            "name": "ハウス南門前",
            "lat": "35.519043",
            "lng": "139.419118"
        },
        {
            "index": "5",
            "id": "00129691",
            "name": "相模台まちづくりセンター前",
            "lat": "35.519026",
            "lng": "139.415959"
        },
        {
            "index": "6",
            "id": "00129692",
            "name": "国立相模原病院",
            "lat": "35.520271",
            "lng": "139.412539"
        },
        {
            "index": "7",
            "id": "00129327",
            "name": "国立病院入口",
            "lat": "35.517478",
            "lng": "139.411798"
        },
        {
            "index": "8",
            "id": "00129328",
            "name": "相模台団地",
            "lat": "35.516973",
            "lng": "139.410516"
        },
        {
            "index": "9",
            "id": "00129329",
            "name": "相模台五丁目",
            "lat": "35.516402",
            "lng": "139.407798"
        },
        {
            "index": "10",
            "id": "00129330",
            "name": "新磯野",
            "lat": "35.515011",
            "lng": "139.404559"
        },
        {
            "index": "11",
            "id": "00129331",
            "name": "相武台消防分署前",
            "lat": "35.514098",
            "lng": "139.402714"
        },
        {
            "index": "12",
            "id": "00129332",
            "name": "新磯野五丁目",
            "lat": "35.511913",
            "lng": "139.403816"
        },
        {
            "index": "13",
            "id": "00128602",
            "name": "相武台グリーンパーク",
            "lat": "35.510079",
            "lng": "139.404712"
        }
    ],
    "route_url": "https://www.kanachu.co.jp/dia/route/index/cid:0000800466/"
}
