{
    "system": "139",
    "busstops": [
        {
            "index": "1",
            "id": "00102366",
            "name": "上大岡駅",
            "lat": "35.407801",
            "lng": "139.596431"
        },
        {
            "index": "2",
            "id": "00102671",
            "name": "関の下",
            "lat": "35.405298",
            "lng": "139.595117"
        },
        {
            "index": "3",
            "id": "00126558",
            "name": "笹下港南中央通り",
            "lat": "35.402548",
            "lng": "139.593365"
        },
        {
            "index": "4",
            "id": "00102499",
            "name": "港南区総合庁舎前",
            "lat": "35.400969",
            "lng": "139.590916"
        },
        {
            "index": "5",
            "id": "00103230",
            "name": "吉原(横浜市港南区)",
            "lat": "35.398472",
            "lng": "139.587939"
        },
        {
            "index": "6",
            "id": "00102633",
            "name": "新吉原橋",
            "lat": "35.394749",
            "lng": "139.585726"
        },
        {
            "index": "7",
            "id": "00102958",
            "name": "日野公園墓地入口",
            "lat": "35.393143",
            "lng": "139.58406"
        },
        {
            "index": "8",
            "id": "00102994",
            "name": "日野中央公園入口",
            "lat": "35.390789",
            "lng": "139.582776"
        },
        {
            "index": "9",
            "id": "00102955",
            "name": "日野小学校前(横浜市港南区)",
            "lat": "35.388144",
            "lng": "139.582025"
        },
        {
            "index": "10",
            "id": "00102954",
            "name": "日野(横浜市港南区)",
            "lat": "35.384724",
            "lng": "139.579954"
        },
        {
            "index": "11",
            "id": "00102574",
            "name": "清水橋(横浜市港南区)",
            "lat": "35.382787",
            "lng": "139.576019"
        },
        {
            "index": "12",
            "id": "00102359",
            "name": "金井(横浜市港南区)",
            "lat": "35.382083",
            "lng": "139.574053"
        },
        {
            "index": "13",
            "id": "00103008",
            "name": "藤ヶ沢",
            "lat": "35.380701",
            "lng": "139.572176"
        },
        {
            "index": "14",
            "id": "00102510",
            "name": "港南車庫入口",
            "lat": "35.378052",
            "lng": "139.569507"
        },
        {
            "index": "15",
            "id": "00126554",
            "name": "原(横浜市港南区)",
            "lat": "35.376156",
            "lng": "139.568002"
        },
        {
            "index": "16",
            "id": "00126555",
            "name": "野村港南台",
            "lat": "35.376624",
            "lng": "139.565843"
        },
        {
            "index": "17",
            "id": "00126556",
            "name": "つつじヶ丘(横浜市港南区)",
            "lat": "35.377417",
            "lng": "139.562125"
        },
        {
            "index": "18",
            "id": "00126557",
            "name": "小山台(横浜市栄区)",
            "lat": "35.377992",
            "lng": "139.55793"
        },
        {
            "index": "19",
            "id": "00126607",
            "name": "小菅ヶ谷橋",
            "lat": "35.378532",
            "lng": "139.553834"
        },
        {
            "index": "20",
            "id": "00126599",
            "name": "西谷戸(横浜市栄区)",
            "lat": "35.376904",
            "lng": "139.552424"
        },
        {
            "index": "21",
            "id": "00126600",
            "name": "渡戸(横浜市栄区)",
            "lat": "35.375078",
            "lng": "139.551855"
        },
        {
            "index": "22",
            "id": "00126601",
            "name": "滝ノ分",
            "lat": "35.372703",
            "lng": "139.551112"
        },
        {
            "index": "23",
            "id": "00126602",
            "name": "地球市民プラザ",
            "lat": "35.367448",
            "lng": "139.551826"
        },
        {
            "index": "24",
            "id": "00126595",
            "name": "本郷台駅",
            "lat": "35.367319",
            "lng": "139.550863"
        }
    ],
    "route_url": "https://www.kanachu.co.jp/dia/route/index/cid:0000804049/"
}
