{
    "system": "湘24",
    "busstops": [
        {
            "index": "1",
            "id": "00129893",
            "name": "湘南台駅西口",
            "lat": "35.395701",
            "lng": "139.464104"
        },
        {
            "index": "2",
            "id": "00129896",
            "name": "円行上庭",
            "lat": "35.39503",
            "lng": "139.460587"
        },
        {
            "index": "3",
            "id": "00129895",
            "name": "北警察署前(藤沢市)",
            "lat": "35.395787",
            "lng": "139.457893"
        },
        {
            "index": "4",
            "id": "00129909",
            "name": "工業団地入口(藤沢市)",
            "lat": "35.394185",
            "lng": "139.451615"
        },
        {
            "index": "5",
            "id": "00129918",
            "name": "南大山",
            "lat": "35.3929",
            "lng": "139.446391"
        },
        {
            "index": "6",
            "id": "00129919",
            "name": "遠藤(藤沢市)",
            "lat": "35.394109",
            "lng": "139.441501"
        },
        {
            "index": "7",
            "id": "00129913",
            "name": "六地蔵(藤沢市)",
            "lat": "35.396004",
            "lng": "139.44072"
        },
        {
            "index": "8",
            "id": "00129914",
            "name": "仲之桜",
            "lat": "35.398129",
            "lng": "139.438601"
        },
        {
            "index": "9",
            "id": "00129915",
            "name": "笹久保(藤沢市)",
            "lat": "35.397855",
            "lng": "139.434289"
        },
        {
            "index": "10",
            "id": "00129985",
            "name": "慶応大学",
            "lat": "35.389313",
            "lng": "139.431806"
        },
        {
            "index": "11",
            "id": "00129986",
            "name": "慶応大学本館前",
            "lat": "35.387753",
            "lng": "139.428518"
        },
        {
            "index": "12",
            "id": "00130024",
            "name": "慶応中高等部前",
            "lat": "35.386433",
            "lng": "139.42619"
        }
    ],
    "route_url": "https://www.kanachu.co.jp/dia/route/index/cid:0000804081/"
}
