{
    "system": "三51",
    "busstops": [
        {
            "index": "1",
            "id": "00128750",
            "name": "三ヶ木",
            "lat": "35.588242",
            "lng": "139.233295"
        },
        {
            "index": "2",
            "id": "00128751",
            "name": "津久井高校前",
            "lat": "35.587896",
            "lng": "139.232353"
        },
        {
            "index": "3",
            "id": "00128752",
            "name": "三ヶ木新宿",
            "lat": "35.585517",
            "lng": "139.231074"
        },
        {
            "index": "4",
            "id": "00128753",
            "name": "青山(相模原市緑区)",
            "lat": "35.581908",
            "lng": "139.231084"
        },
        {
            "index": "5",
            "id": "00128825",
            "name": "小沢(相模原市緑区)",
            "lat": "35.577562",
            "lng": "139.233943"
        },
        {
            "index": "6",
            "id": "00128826",
            "name": "新屋敷(相模原市緑区)",
            "lat": "35.570993",
            "lng": "139.238249"
        },
        {
            "index": "7",
            "id": "00129003",
            "name": "関・宮原",
            "lat": "35.568398",
            "lng": "139.242076"
        },
        {
            "index": "8",
            "id": "00128827",
            "name": "関(相模原市緑区)",
            "lat": "35.566373",
            "lng": "139.2475"
        },
        {
            "index": "9",
            "id": "00128837",
            "name": "上長竹",
            "lat": "35.566366",
            "lng": "139.250759"
        },
        {
            "index": "10",
            "id": "00128838",
            "name": "長竹クラブ前",
            "lat": "35.566353",
            "lng": "139.253698"
        },
        {
            "index": "11",
            "id": "00128839",
            "name": "長竹(相模原市緑区)",
            "lat": "35.566013",
            "lng": "139.25726"
        },
        {
            "index": "12",
            "id": "00128840",
            "name": "串川橋",
            "lat": "35.56564",
            "lng": "139.261188"
        },
        {
            "index": "13",
            "id": "00128852",
            "name": "石ヶ沢",
            "lat": "35.561104",
            "lng": "139.264595"
        },
        {
            "index": "14",
            "id": "00128853",
            "name": "韮尾根",
            "lat": "35.556283",
            "lng": "139.261285"
        },
        {
            "index": "15",
            "id": "00128854",
            "name": "清正光入口",
            "lat": "35.553685",
            "lng": "139.262621"
        },
        {
            "index": "16",
            "id": "00128855",
            "name": "石小屋入口",
            "lat": "35.545052",
            "lng": "139.261886"
        },
        {
            "index": "17",
            "id": "00128301",
            "name": "川北(愛甲郡愛川町)",
            "lat": "35.545656",
            "lng": "139.263944"
        },
        {
            "index": "18",
            "id": "00128295",
            "name": "半原",
            "lat": "35.545338",
            "lng": "139.266538"
        }
    ],
    "route_url": "https://www.kanachu.co.jp/dia/route/index/cid:0000800133/"
}
