{
    "system": "秦18",
    "busstops": [
        {
            "index": "1",
            "id": "00127715",
            "name": "秦野駅",
            "lat": "35.370115",
            "lng": "139.226798"
        },
        {
            "index": "2",
            "id": "00127929",
            "name": "今泉(秦野市)",
            "lat": "35.372364",
            "lng": "139.223537"
        },
        {
            "index": "3",
            "id": "00130134",
            "name": "今川町",
            "lat": "35.372802",
            "lng": "139.220884"
        },
        {
            "index": "4",
            "id": "00127930",
            "name": "諏訪町(秦野市)",
            "lat": "35.369392",
            "lng": "139.2188"
        },
        {
            "index": "5",
            "id": "00127931",
            "name": "南公民館前(秦野市)",
            "lat": "35.368175",
            "lng": "139.217864"
        },
        {
            "index": "6",
            "id": "00127932",
            "name": "白笹稲荷神社入口",
            "lat": "35.367087",
            "lng": "139.216713"
        },
        {
            "index": "7",
            "id": "00127933",
            "name": "畑中(秦野市)",
            "lat": "35.367946",
            "lng": "139.211451"
        },
        {
            "index": "8",
            "id": "00127983",
            "name": "南町(秦野市)",
            "lat": "35.36659",
            "lng": "139.210568"
        },
        {
            "index": "9",
            "id": "00127984",
            "name": "出雲大社入口",
            "lat": "35.368529",
            "lng": "139.207503"
        },
        {
            "index": "10",
            "id": "00127985",
            "name": "三協町入口",
            "lat": "35.369104",
            "lng": "139.205333"
        },
        {
            "index": "11",
            "id": "00127986",
            "name": "農協本所前",
            "lat": "35.373017",
            "lng": "139.202039"
        },
        {
            "index": "12",
            "id": "00127987",
            "name": "南中原",
            "lat": "35.373826",
            "lng": "139.200576"
        },
        {
            "index": "13",
            "id": "00127988",
            "name": "白山塚",
            "lat": "35.375998",
            "lng": "139.196661"
        },
        {
            "index": "14",
            "id": "00127925",
            "name": "日立製作所(秦野市)",
            "lat": "35.378574",
            "lng": "139.191957"
        },
        {
            "index": "15",
            "id": "00127989",
            "name": "堀川東",
            "lat": "35.380339",
            "lng": "139.188797"
        },
        {
            "index": "16",
            "id": "00127990",
            "name": "桜土手(秦野市)",
            "lat": "35.380991",
            "lng": "139.187294"
        },
        {
            "index": "17",
            "id": "00128008",
            "name": "堀川小学校前(秦野市)",
            "lat": "35.379402",
            "lng": "139.186724"
        },
        {
            "index": "18",
            "id": "00127899",
            "name": "渋沢駅北口",
            "lat": "35.374375",
            "lng": "139.184811"
        }
    ],
    "route_url": "https://www.kanachu.co.jp/dia/route/index/cid:0000800410/"
}
