{
    "system": "峰01",
    "busstops": [
        {
            "index": "1",
            "id": "00102756",
            "name": "鶴ヶ峰駅",
            "lat": "35.476127",
            "lng": "139.547819"
        },
        {
            "index": "2",
            "id": "00129720",
            "name": "鶴ヶ峰本町",
            "lat": "35.476406",
            "lng": "139.543471"
        },
        {
            "index": "3",
            "id": "00129719",
            "name": "薬王寺入口",
            "lat": "35.477422",
            "lng": "139.540644"
        },
        {
            "index": "4",
            "id": "00129718",
            "name": "鶴ヶ峰中学校前",
            "lat": "35.479164",
            "lng": "139.537248"
        },
        {
            "index": "5",
            "id": "00129717",
            "name": "今宿小学校入口",
            "lat": "35.481522",
            "lng": "139.532777"
        },
        {
            "index": "6",
            "id": "00129716",
            "name": "今宿(横浜市旭区)",
            "lat": "35.482589",
            "lng": "139.530439"
        },
        {
            "index": "7",
            "id": "00129715",
            "name": "筑池",
            "lat": "35.484144",
            "lng": "139.524902"
        },
        {
            "index": "8",
            "id": "00129714",
            "name": "農協前(横浜市旭区)",
            "lat": "35.485212",
            "lng": "139.523381"
        },
        {
            "index": "9",
            "id": "00129713",
            "name": "都岡町",
            "lat": "35.48654",
            "lng": "139.521512"
        },
        {
            "index": "10",
            "id": "00129712",
            "name": "下宿(横浜市旭区)",
            "lat": "35.488214",
            "lng": "139.519301"
        },
        {
            "index": "11",
            "id": "00129711",
            "name": "川井宿",
            "lat": "35.489686",
            "lng": "139.516608"
        },
        {
            "index": "12",
            "id": "00129710",
            "name": "福泉寺前(横浜市旭区)",
            "lat": "35.492072",
            "lng": "139.512296"
        },
        {
            "index": "13",
            "id": "00129709",
            "name": "宮の下(横浜市旭区)",
            "lat": "35.494053",
            "lng": "139.508462"
        },
        {
            "index": "14",
            "id": "00129708",
            "name": "長源寺前(横浜市旭区)",
            "lat": "35.495673",
            "lng": "139.505141"
        },
        {
            "index": "15",
            "id": "00129707",
            "name": "上川井町",
            "lat": "35.496981",
            "lng": "139.502149"
        },
        {
            "index": "16",
            "id": "00129706",
            "name": "大貫橋",
            "lat": "35.497739",
            "lng": "139.499632"
        },
        {
            "index": "17",
            "id": "00129705",
            "name": "亀甲山",
            "lat": "35.497449",
            "lng": "139.497208"
        },
        {
            "index": "18",
            "id": "00129704",
            "name": "桜山(横浜市旭区)",
            "lat": "35.497588",
            "lng": "139.492183"
        },
        {
            "index": "19",
            "id": "00129703",
            "name": "卸センター前",
            "lat": "35.497893",
            "lng": "139.485991"
        },
        {
            "index": "20",
            "id": "00129702",
            "name": "笹原(横浜市瀬谷区)",
            "lat": "35.498086",
            "lng": "139.480831"
        },
        {
            "index": "21",
            "id": "00129701",
            "name": "瀬谷入口",
            "lat": "35.498336",
            "lng": "139.471287"
        },
        {
            "index": "22",
            "id": "00129529",
            "name": "観音寺前(大和市)",
            "lat": "35.501151",
            "lng": "139.466298"
        },
        {
            "index": "23",
            "id": "00129528",
            "name": "下鶴間",
            "lat": "35.500888",
            "lng": "139.463702"
        },
        {
            "index": "24",
            "id": "00129527",
            "name": "諏訪神社",
            "lat": "35.498006",
            "lng": "139.461642"
        },
        {
            "index": "25",
            "id": "00129526",
            "name": "山王原(大和市)",
            "lat": "35.495285",
            "lng": "139.460635"
        },
        {
            "index": "26",
            "id": "00130537",
            "name": "長堀公園前",
            "lat": "35.492347",
            "lng": "139.45994"
        },
        {
            "index": "27",
            "id": "00129525",
            "name": "鶴間車庫",
            "lat": "35.492031",
            "lng": "139.458082"
        }
    ],
    "route_url": "https://www.kanachu.co.jp/dia/route/index/cid:0000803933/"
}
