{
    "system": "相17",
    "busstops": [
        {
            "index": "1",
            "id": "00129335",
            "name": "相模原駅南口",
            "lat": "35.580633",
            "lng": "139.371501"
        },
        {
            "index": "2",
            "id": "00129080",
            "name": "さがみ夢大通り",
            "lat": "35.576848",
            "lng": "139.368148"
        },
        {
            "index": "3",
            "id": "00129230",
            "name": "グッディプレイス前",
            "lat": "35.573637",
            "lng": "139.365509"
        },
        {
            "index": "4",
            "id": "00129176",
            "name": "清新中学校入口",
            "lat": "35.571897",
            "lng": "139.364118"
        },
        {
            "index": "5",
            "id": "00129228",
            "name": "日金沢上",
            "lat": "35.569587",
            "lng": "139.362302"
        },
        {
            "index": "6",
            "id": "00129295",
            "name": "横山小学校前(相模原市中央区)",
            "lat": "35.566949",
            "lng": "139.360956"
        },
        {
            "index": "7",
            "id": "00129152",
            "name": "グリーンプール入口",
            "lat": "35.563847",
            "lng": "139.360907"
        },
        {
            "index": "8",
            "id": "00129229",
            "name": "日金沢下",
            "lat": "35.559601",
            "lng": "139.358056"
        },
        {
            "index": "9",
            "id": "00129219",
            "name": "鳩川住宅前",
            "lat": "35.556857",
            "lng": "139.354325"
        },
        {
            "index": "10",
            "id": "00129072",
            "name": "石橋(相模原市中央区)",
            "lat": "35.556034",
            "lng": "139.350482"
        },
        {
            "index": "11",
            "id": "00129184",
            "name": "田名工業団地入口",
            "lat": "35.554437",
            "lng": "139.34354"
        },
        {
            "index": "12",
            "id": "00129289",
            "name": "四ツ谷(相模原市中央区)",
            "lat": "35.552158",
            "lng": "139.339055"
        },
        {
            "index": "13",
            "id": "00129077",
            "name": "田名バスターミナル",
            "lat": "35.551216",
            "lng": "139.33512"
        },
        {
            "index": "14",
            "id": "00129182",
            "name": "田名坂上",
            "lat": "35.549399",
            "lng": "139.331639"
        },
        {
            "index": "15",
            "id": "00130345",
            "name": "ふれあい科学館前",
            "lat": "35.547179",
            "lng": "139.330005"
        },
        {
            "index": "16",
            "id": "00129168",
            "name": "水郷田名",
            "lat": "35.546213",
            "lng": "139.330991"
        }
    ],
    "route_url": "https://www.kanachu.co.jp/dia/route/index/cid:0000803114/"
}
