{
    "system": "茅37",
    "busstops": [
        {
            "index": "1",
            "id": "00127219",
            "name": "茅ヶ崎駅南口",
            "lat": "35.330127",
            "lng": "139.407199"
        },
        {
            "index": "2",
            "id": "00127220",
            "name": "幸町(茅ケ崎市)",
            "lat": "35.327449",
            "lng": "139.407939"
        },
        {
            "index": "3",
            "id": "00127221",
            "name": "会館前(茅ケ崎市)",
            "lat": "35.325258",
            "lng": "139.408325"
        },
        {
            "index": "4",
            "id": "00127243",
            "name": "東海岸",
            "lat": "35.322653",
            "lng": "139.408277"
        },
        {
            "index": "5",
            "id": "00127244",
            "name": "東海岸南三丁目",
            "lat": "35.320707",
            "lng": "139.408259"
        },
        {
            "index": "6",
            "id": "00127245",
            "name": "茅ヶ崎駅入口",
            "lat": "35.318609",
            "lng": "139.407115"
        },
        {
            "index": "7",
            "id": "00127248",
            "name": "茅ヶ崎公園野球場",
            "lat": "35.318606",
            "lng": "139.403994"
        },
        {
            "index": "8",
            "id": "00127249",
            "name": "市営プール前(茅ケ崎市)",
            "lat": "35.318537",
            "lng": "139.401961"
        },
        {
            "index": "9",
            "id": "00127250",
            "name": "海水浴場前(茅ケ崎市)",
            "lat": "35.318387",
            "lng": "139.399128"
        },
        {
            "index": "10",
            "id": "00127251",
            "name": "西浜(茅ケ崎市)",
            "lat": "35.318002",
            "lng": "139.396001"
        },
        {
            "index": "11",
            "id": "00127254",
            "name": "南湖入口",
            "lat": "35.317271",
            "lng": "139.390153"
        },
        {
            "index": "12",
            "id": "00127255",
            "name": "西浜高校前",
            "lat": "35.318787",
            "lng": "139.386829"
        },
        {
            "index": "13",
            "id": "00127256",
            "name": "団地中央(茅ケ崎市)",
            "lat": "35.322361",
            "lng": "139.387827"
        },
        {
            "index": "14",
            "id": "00127260",
            "name": "浜見平団地",
            "lat": "35.321859",
            "lng": "139.383529"
        }
    ],
    "route_url": "https://www.kanachu.co.jp/dia/route/index/cid:0000800819/"
}
