{
    "system": "井12",
    "busstops": [
        {
            "index": "1",
            "id": "00102234",
            "name": "井土ヶ谷下町",
            "lat": "35.431441",
            "lng": "139.607236"
        },
        {
            "index": "2",
            "id": "00102744",
            "name": "鶴巻(横浜市南区)",
            "lat": "35.430881",
            "lng": "139.603653"
        },
        {
            "index": "3",
            "id": "00126630",
            "name": "住宅前(横浜市南区)",
            "lat": "35.431675",
            "lng": "139.59938"
        },
        {
            "index": "4",
            "id": "00126629",
            "name": "南永田",
            "lat": "35.429152",
            "lng": "139.596926"
        },
        {
            "index": "5",
            "id": "00126628",
            "name": "弘明寺口",
            "lat": "35.42592",
            "lng": "139.594946"
        },
        {
            "index": "6",
            "id": "00126627",
            "name": "六ツ川町",
            "lat": "35.424257",
            "lng": "139.590062"
        },
        {
            "index": "7",
            "id": "00126626",
            "name": "上六ツ川",
            "lat": "35.424313",
            "lng": "139.584435"
        },
        {
            "index": "8",
            "id": "00126625",
            "name": "大池(横浜市南区)",
            "lat": "35.426156",
            "lng": "139.582753"
        },
        {
            "index": "9",
            "id": "00126624",
            "name": "引越坂",
            "lat": "35.427397",
            "lng": "139.579376"
        },
        {
            "index": "10",
            "id": "00130201",
            "name": "横浜パークタウン第一降車場",
            "lat": "35.428628",
            "lng": "139.579145"
        },
        {
            "index": "11",
            "id": "00126635",
            "name": "横浜パークタウン",
            "lat": "35.428547",
            "lng": "139.578005"
        }
    ],
    "route_url": "https://www.kanachu.co.jp/dia/route/index/cid:0000803852/"
}
