{
    "system": "厚12",
    "busstops": [
        {
            "index": "1",
            "id": "00128256",
            "name": "厚木バスセンター",
            "lat": "35.441543",
            "lng": "139.366372"
        },
        {
            "index": "2",
            "id": "00025684",
            "name": "本厚木駅",
            "lat": "35.440071",
            "lng": "139.364621"
        },
        {
            "index": "3",
            "id": "00128257",
            "name": "あつぎ大通り",
            "lat": "35.441369",
            "lng": "139.36256"
        },
        {
            "index": "4",
            "id": "00128396",
            "name": "市役所入口(厚木市)",
            "lat": "35.442448",
            "lng": "139.361188"
        },
        {
            "index": "5",
            "id": "00128258",
            "name": "税務署入口(厚木市)",
            "lat": "35.445973",
            "lng": "139.360977"
        },
        {
            "index": "6",
            "id": "00128259",
            "name": "市立病院前(厚木市)",
            "lat": "35.447355",
            "lng": "139.361113"
        },
        {
            "index": "7",
            "id": "00128260",
            "name": "木売場",
            "lat": "35.452035",
            "lng": "139.359907"
        },
        {
            "index": "8",
            "id": "00128261",
            "name": "三家入口(厚木市)",
            "lat": "35.454534",
            "lng": "139.359389"
        },
        {
            "index": "9",
            "id": "00128262",
            "name": "妻田",
            "lat": "35.458645",
            "lng": "139.358531"
        },
        {
            "index": "10",
            "id": "00128263",
            "name": "中村入口(厚木市)",
            "lat": "35.462786",
            "lng": "139.356957"
        },
        {
            "index": "11",
            "id": "00128264",
            "name": "妻田薬師",
            "lat": "35.465147",
            "lng": "139.355093"
        },
        {
            "index": "12",
            "id": "00128265",
            "name": "松蓮寺",
            "lat": "35.47008",
            "lng": "139.349143"
        },
        {
            "index": "13",
            "id": "00128266",
            "name": "糀屋前(厚木市)",
            "lat": "35.472803",
            "lng": "139.346584"
        },
        {
            "index": "14",
            "id": "00128267",
            "name": "宿原入口",
            "lat": "35.474776",
            "lng": "139.344669"
        },
        {
            "index": "15",
            "id": "00128268",
            "name": "荻野新宿",
            "lat": "35.477993",
            "lng": "139.341996"
        },
        {
            "index": "16",
            "id": "00128269",
            "name": "子合",
            "lat": "35.480889",
            "lng": "139.336654"
        },
        {
            "index": "17",
            "id": "00128270",
            "name": "桝割",
            "lat": "35.483574",
            "lng": "139.332412"
        },
        {
            "index": "18",
            "id": "00128271",
            "name": "公所(厚木市)",
            "lat": "35.484383",
            "lng": "139.330655"
        },
        {
            "index": "19",
            "id": "00128272",
            "name": "稲荷木",
            "lat": "35.486329",
            "lng": "139.326826"
        },
        {
            "index": "20",
            "id": "00128273",
            "name": "鳶尾山前",
            "lat": "35.488517",
            "lng": "139.324696"
        },
        {
            "index": "21",
            "id": "00128675",
            "name": "鳶尾四丁目",
            "lat": "35.490277",
            "lng": "139.325114"
        },
        {
            "index": "22",
            "id": "00128303",
            "name": "鳶尾団地",
            "lat": "35.491318",
            "lng": "139.327172"
        },
        {
            "index": "23",
            "id": "00128675",
            "name": "鳶尾四丁目",
            "lat": "35.490091",
            "lng": "139.325109"
        },
        {
            "index": "24",
            "id": "00128274",
            "name": "荻野神社入口",
            "lat": "35.491279",
            "lng": "139.322011"
        },
        {
            "index": "25",
            "id": "00128275",
            "name": "東谷戸入口",
            "lat": "35.495015",
            "lng": "139.319211"
        },
        {
            "index": "26",
            "id": "00128691",
            "name": "みはる野",
            "lat": "35.497114",
            "lng": "139.321671"
        },
        {
            "index": "27",
            "id": "00128692",
            "name": "みはる野一丁目",
            "lat": "35.49929",
            "lng": "139.324012"
        },
        {
            "index": "28",
            "id": "00128693",
            "name": "みはる野中央",
            "lat": "35.501616",
            "lng": "139.321743"
        },
        {
            "index": "29",
            "id": "00128694",
            "name": "みはる野二丁目",
            "lat": "35.503109",
            "lng": "139.319112"
        },
        {
            "index": "30",
            "id": "00128302",
            "name": "まつかげ台",
            "lat": "35.503717",
            "lng": "139.316414"
        }
    ],
    "route_url": "https://www.kanachu.co.jp/dia/route/index/cid:0000800941/"
}
