{
    "system": "善01",
    "busstops": [
        {
            "index": "1",
            "id": "00127073",
            "name": "善行駅",
            "lat": "35.362941",
            "lng": "139.473041"
        },
        {
            "index": "2",
            "id": "00130304",
            "name": "善行二丁目坂上",
            "lat": "35.366505",
            "lng": "139.469375"
        },
        {
            "index": "3",
            "id": "00127074",
            "name": "団地入口(藤沢市)",
            "lat": "35.367297",
            "lng": "139.468195"
        },
        {
            "index": "4",
            "id": "00127075",
            "name": "マーケット前",
            "lat": "35.36695",
            "lng": "139.463988"
        },
        {
            "index": "5",
            "id": "00127076",
            "name": "善行団地",
            "lat": "35.366744",
            "lng": "139.462156"
        }
    ],
    "route_url": "https://www.kanachu.co.jp/dia/route/index/cid:0000802982/"
}
