{
    "system": "厚89",
    "busstops": [
        {
            "index": "1",
            "id": "00128256",
            "name": "厚木バスセンター",
            "lat": "35.441543",
            "lng": "139.366372"
        },
        {
            "index": "2",
            "id": "00025684",
            "name": "本厚木駅",
            "lat": "35.440071",
            "lng": "139.364621"
        },
        {
            "index": "3",
            "id": "00128257",
            "name": "あつぎ大通り",
            "lat": "35.441369",
            "lng": "139.36256"
        },
        {
            "index": "4",
            "id": "00128396",
            "name": "市役所入口(厚木市)",
            "lat": "35.442448",
            "lng": "139.361188"
        },
        {
            "index": "5",
            "id": "00128258",
            "name": "税務署入口(厚木市)",
            "lat": "35.445973",
            "lng": "139.360977"
        },
        {
            "index": "6",
            "id": "00128259",
            "name": "市立病院前(厚木市)",
            "lat": "35.447355",
            "lng": "139.361113"
        },
        {
            "index": "7",
            "id": "00128260",
            "name": "木売場",
            "lat": "35.452035",
            "lng": "139.359907"
        },
        {
            "index": "8",
            "id": "00128261",
            "name": "三家入口(厚木市)",
            "lat": "35.454534",
            "lng": "139.359389"
        },
        {
            "index": "9",
            "id": "00128262",
            "name": "妻田",
            "lat": "35.458645",
            "lng": "139.358531"
        },
        {
            "index": "10",
            "id": "00128263",
            "name": "中村入口(厚木市)",
            "lat": "35.462786",
            "lng": "139.356957"
        },
        {
            "index": "11",
            "id": "00128264",
            "name": "妻田薬師",
            "lat": "35.465147",
            "lng": "139.355093"
        },
        {
            "index": "12",
            "id": "00128265",
            "name": "松蓮寺",
            "lat": "35.47008",
            "lng": "139.349143"
        },
        {
            "index": "13",
            "id": "00128266",
            "name": "糀屋前(厚木市)",
            "lat": "35.472803",
            "lng": "139.346584"
        },
        {
            "index": "14",
            "id": "00128267",
            "name": "宿原入口",
            "lat": "35.474776",
            "lng": "139.344669"
        },
        {
            "index": "15",
            "id": "00128268",
            "name": "荻野新宿",
            "lat": "35.477993",
            "lng": "139.341996"
        },
        {
            "index": "16",
            "id": "00128304",
            "name": "子中",
            "lat": "35.480748",
            "lng": "139.341396"
        },
        {
            "index": "17",
            "id": "00128305",
            "name": "神奈川工科大学前",
            "lat": "35.485264",
            "lng": "139.340807"
        },
        {
            "index": "18",
            "id": "00128306",
            "name": "リコー前",
            "lat": "35.488639",
            "lng": "139.340163"
        },
        {
            "index": "19",
            "id": "00128655",
            "name": "西四ッ谷",
            "lat": "35.490592",
            "lng": "139.339014"
        },
        {
            "index": "20",
            "id": "00128656",
            "name": "鳶尾団地東",
            "lat": "35.489962",
            "lng": "139.335291"
        },
        {
            "index": "21",
            "id": "00128657",
            "name": "鳶尾一丁目",
            "lat": "35.491584",
            "lng": "139.332901"
        },
        {
            "index": "22",
            "id": "00128658",
            "name": "鳶尾小学校入口",
            "lat": "35.491211",
            "lng": "139.33065"
        },
        {
            "index": "23",
            "id": "00128303",
            "name": "鳶尾団地",
            "lat": "35.491318",
            "lng": "139.327172"
        }
    ],
    "route_url": "https://www.kanachu.co.jp/dia/route/index/cid:0000800188/"
}
