{
    "system": "町36",
    "busstops": [
        {
            "index": "1",
            "id": "00049296",
            "name": "鶴川駅",
            "lat": "35.583469",
            "lng": "139.480262"
        },
        {
            "index": "2",
            "id": "00129439",
            "name": "上能ヶ谷",
            "lat": "35.583536",
            "lng": "139.475986"
        },
        {
            "index": "3",
            "id": "00129438",
            "name": "金井入口",
            "lat": "35.58492",
            "lng": "139.472259"
        },
        {
            "index": "4",
            "id": "00129437",
            "name": "下大蔵",
            "lat": "35.586771",
            "lng": "139.470134"
        },
        {
            "index": "5",
            "id": "00129436",
            "name": "鶴川市民センター入口",
            "lat": "35.588125",
            "lng": "139.46581"
        },
        {
            "index": "6",
            "id": "00129435",
            "name": "大蔵(鶴川郵便局前/町田市)",
            "lat": "35.588407",
            "lng": "139.463364"
        },
        {
            "index": "7",
            "id": "00129473",
            "name": "井の花",
            "lat": "35.591274",
            "lng": "139.458696"
        },
        {
            "index": "8",
            "id": "00129474",
            "name": "岩子山",
            "lat": "35.593992",
            "lng": "139.455532"
        },
        {
            "index": "9",
            "id": "00129475",
            "name": "下堤(町田市)",
            "lat": "35.595196",
            "lng": "139.452691"
        },
        {
            "index": "10",
            "id": "00129476",
            "name": "五反田(町田市)",
            "lat": "35.594218",
            "lng": "139.448359"
        },
        {
            "index": "11",
            "id": "00129514",
            "name": "サンシティ町田",
            "lat": "35.595738",
            "lng": "139.444701"
        },
        {
            "index": "12",
            "id": "00129477",
            "name": "新屋敷(町田市)",
            "lat": "35.596599",
            "lng": "139.442874"
        },
        {
            "index": "13",
            "id": "00129478",
            "name": "小野神社前(町田市)",
            "lat": "35.597981",
            "lng": "139.44017"
        },
        {
            "index": "14",
            "id": "00129479",
            "name": "向坂(町田市)",
            "lat": "35.59584",
            "lng": "139.437433"
        },
        {
            "index": "15",
            "id": "00129432",
            "name": "野津田高校入口",
            "lat": "35.59324",
            "lng": "139.435548"
        },
        {
            "index": "16",
            "id": "00129480",
            "name": "ろうわ学校",
            "lat": "35.588105",
            "lng": "139.433504"
        },
        {
            "index": "17",
            "id": "00129371",
            "name": "並木(町田市)",
            "lat": "35.584377",
            "lng": "139.431034"
        },
        {
            "index": "18",
            "id": "00129370",
            "name": "図師",
            "lat": "35.582987",
            "lng": "139.425704"
        },
        {
            "index": "19",
            "id": "00129369",
            "name": "図師大橋",
            "lat": "35.582831",
            "lng": "139.42482"
        },
        {
            "index": "20",
            "id": "00129368",
            "name": "馬駈",
            "lat": "35.581483",
            "lng": "139.418118"
        },
        {
            "index": "21",
            "id": "00129367",
            "name": "根岸(根岸町/町田市)",
            "lat": "35.577908",
            "lng": "139.414596"
        },
        {
            "index": "22",
            "id": "00129366",
            "name": "下根岸(町田市)",
            "lat": "35.575986",
            "lng": "139.415872"
        },
        {
            "index": "23",
            "id": "00129365",
            "name": "上宿(町田市)",
            "lat": "35.574042",
            "lng": "139.4196"
        },
        {
            "index": "24",
            "id": "00129494",
            "name": "忠生公園入口",
            "lat": "35.571573",
            "lng": "139.42098"
        },
        {
            "index": "25",
            "id": "00129364",
            "name": "木曽(町田市)",
            "lat": "35.567921",
            "lng": "139.42294"
        },
        {
            "index": "26",
            "id": "00129363",
            "name": "三家(町田市)",
            "lat": "35.564466",
            "lng": "139.425704"
        },
        {
            "index": "27",
            "id": "00129362",
            "name": "木曽住宅",
            "lat": "35.563166",
            "lng": "139.426949"
        },
        {
            "index": "28",
            "id": "00129361",
            "name": "滝の沢(町田市)",
            "lat": "35.559343",
            "lng": "139.430489"
        },
        {
            "index": "29",
            "id": "00129360",
            "name": "浄水場前(町田市)",
            "lat": "35.55662",
            "lng": "139.434645"
        },
        {
            "index": "30",
            "id": "00129359",
            "name": "市民病院前(町田市)",
            "lat": "35.554809",
            "lng": "139.436868"
        },
        {
            "index": "31",
            "id": "00129358",
            "name": "森野三丁目",
            "lat": "35.552844",
            "lng": "139.439345"
        },
        {
            "index": "32",
            "id": "00129357",
            "name": "第四小学校前(町田市)",
            "lat": "35.55096",
            "lng": "139.438816"
        },
        {
            "index": "33",
            "id": "00129356",
            "name": "町田市役所市民ホール前",
            "lat": "35.547368",
            "lng": "139.438983"
        },
        {
            "index": "34",
            "id": "00025625",
            "name": "町田バスセンター",
            "lat": "35.543525",
            "lng": "139.444385"
        }
    ],
    "route_url": "https://www.kanachu.co.jp/dia/route/index/cid:0000803460/"
}
