{
    "system": "湘19",
    "busstops": [
        {
            "index": "1",
            "id": "00129893",
            "name": "湘南台駅西口",
            "lat": "35.396025",
            "lng": "139.46595"
        },
        {
            "index": "2",
            "id": "00129896",
            "name": "円行上庭",
            "lat": "35.39503",
            "lng": "139.460587"
        },
        {
            "index": "3",
            "id": "00129895",
            "name": "北警察署前(藤沢市)",
            "lat": "35.395787",
            "lng": "139.457893"
        },
        {
            "index": "4",
            "id": "00129909",
            "name": "工業団地入口(藤沢市)",
            "lat": "35.394185",
            "lng": "139.451615"
        },
        {
            "index": "5",
            "id": "00129918",
            "name": "南大山",
            "lat": "35.3929",
            "lng": "139.446391"
        },
        {
            "index": "6",
            "id": "00129919",
            "name": "遠藤(藤沢市)",
            "lat": "35.391879",
            "lng": "139.44197"
        },
        {
            "index": "7",
            "id": "00129988",
            "name": "藤沢ジャンボゴルフ前(藤沢市)",
            "lat": "35.39043",
            "lng": "139.437197"
        },
        {
            "index": "8",
            "id": "00129985",
            "name": "慶応大学",
            "lat": "35.389313",
            "lng": "139.431806"
        },
        {
            "index": "9",
            "id": "00130025",
            "name": "遠藤打越",
            "lat": "35.390599",
            "lng": "139.429539"
        },
        {
            "index": "10",
            "id": "00130026",
            "name": "遠藤西の谷",
            "lat": "35.392113",
            "lng": "139.425556"
        },
        {
            "index": "11",
            "id": "00130027",
            "name": "宇都母知神社入口",
            "lat": "35.393493",
            "lng": "139.420337"
        },
        {
            "index": "12",
            "id": "00130028",
            "name": "打戻大仲",
            "lat": "35.393071",
            "lng": "139.416329"
        },
        {
            "index": "13",
            "id": "00129977",
            "name": "榎戸(藤沢市)",
            "lat": "35.392647",
            "lng": "139.415201"
        },
        {
            "index": "14",
            "id": "00129976",
            "name": "荒井(藤沢市)",
            "lat": "35.389088",
            "lng": "139.414438"
        },
        {
            "index": "15",
            "id": "00129975",
            "name": "堂の前(藤沢市)",
            "lat": "35.386063",
            "lng": "139.413027"
        },
        {
            "index": "16",
            "id": "00130032",
            "name": "光友会入口",
            "lat": "35.386966",
            "lng": "139.409302"
        },
        {
            "index": "17",
            "id": "00130033",
            "name": "獺郷公民館前",
            "lat": "35.388129",
            "lng": "139.406576"
        },
        {
            "index": "18",
            "id": "00130034",
            "name": "獺郷",
            "lat": "35.389183",
            "lng": "139.403736"
        },
        {
            "index": "19",
            "id": "00130023",
            "name": "宮原南",
            "lat": "35.391749",
            "lng": "139.404993"
        },
        {
            "index": "20",
            "id": "00127178",
            "name": "宮原中央",
            "lat": "35.393945",
            "lng": "139.406141"
        },
        {
            "index": "21",
            "id": "00127179",
            "name": "宮原(藤沢市)",
            "lat": "35.396471",
            "lng": "139.407781"
        },
        {
            "index": "22",
            "id": "00127180",
            "name": "中原(藤沢市)",
            "lat": "35.400852",
            "lng": "139.410632"
        },
        {
            "index": "23",
            "id": "00129827",
            "name": "用田辻",
            "lat": "35.404761",
            "lng": "139.41319"
        },
        {
            "index": "24",
            "id": "00129840",
            "name": "用田神社入口",
            "lat": "35.408988",
            "lng": "139.414672"
        },
        {
            "index": "25",
            "id": "00129841",
            "name": "松葉(藤沢市)",
            "lat": "35.41451",
            "lng": "139.417823"
        },
        {
            "index": "26",
            "id": "00129842",
            "name": "女坂",
            "lat": "35.417412",
            "lng": "139.418886"
        },
        {
            "index": "27",
            "id": "00129843",
            "name": "山根(綾瀬市)",
            "lat": "35.42056",
            "lng": "139.423608"
        },
        {
            "index": "28",
            "id": "00129844",
            "name": "吉岡芝原",
            "lat": "35.424779",
            "lng": "139.428635"
        },
        {
            "index": "29",
            "id": "00129845",
            "name": "綾瀬車庫(綾瀬市)",
            "lat": "35.425558",
            "lng": "139.428205"
        }
    ],
    "route_url": "https://www.kanachu.co.jp/dia/route/index/cid:0000804241/"
}
