{
    "system": "伊01",
    "busstops": [
        {
            "index": "1",
            "id": "00128056",
            "name": "伊勢原駅南口",
            "lat": "35.395425",
            "lng": "139.313265"
        },
        {
            "index": "2",
            "id": "00128071",
            "name": "千津",
            "lat": "35.392673",
            "lng": "139.31114"
        },
        {
            "index": "3",
            "id": "00128072",
            "name": "ひかり幼稚園前",
            "lat": "35.388034",
            "lng": "139.308549"
        },
        {
            "index": "4",
            "id": "00128073",
            "name": "団地南口(伊勢原市)",
            "lat": "35.384967",
            "lng": "139.312812"
        },
        {
            "index": "5",
            "id": "00128074",
            "name": "団地下大竹",
            "lat": "35.38502",
            "lng": "139.315488"
        },
        {
            "index": "6",
            "id": "00128060",
            "name": "馬渡(伊勢原市)",
            "lat": "35.382898",
            "lng": "139.316432"
        },
        {
            "index": "7",
            "id": "00128075",
            "name": "岡崎福祉館前",
            "lat": "35.381878",
            "lng": "139.312326"
        },
        {
            "index": "8",
            "id": "00128076",
            "name": "御岳",
            "lat": "35.383059",
            "lng": "139.307045"
        },
        {
            "index": "9",
            "id": "00128077",
            "name": "竹園小学校前",
            "lat": "35.384686",
            "lng": "139.303571"
        },
        {
            "index": "10",
            "id": "00128078",
            "name": "竹園小学校入口",
            "lat": "35.385937",
            "lng": "139.301321"
        },
        {
            "index": "11",
            "id": "00128093",
            "name": "谷戸大竹",
            "lat": "35.39038",
            "lng": "139.303957"
        },
        {
            "index": "12",
            "id": "00128094",
            "name": "関台",
            "lat": "35.392609",
            "lng": "139.302084"
        },
        {
            "index": "13",
            "id": "00128138",
            "name": "団地南(伊勢原市)",
            "lat": "35.391249",
            "lng": "139.299368"
        },
        {
            "index": "14",
            "id": "00128139",
            "name": "団地西(伊勢原市)",
            "lat": "35.39015",
            "lng": "139.296115"
        },
        {
            "index": "15",
            "id": "00128140",
            "name": "鈴川会館前",
            "lat": "35.391557",
            "lng": "139.295063"
        },
        {
            "index": "16",
            "id": "00128141",
            "name": "伊勢原車庫",
            "lat": "35.393265",
            "lng": "139.293791"
        }
    ],
    "route_url": "https://www.kanachu.co.jp/dia/route/index/cid:0000803960/"
}
