{
    "system": "平74",
    "busstops": [
        {
            "index": "1",
            "id": "00127715",
            "name": "秦野駅",
            "lat": "35.370441",
            "lng": "139.226096"
        },
        {
            "index": "2",
            "id": "00127716",
            "name": "大川橋(秦野市)",
            "lat": "35.372976",
            "lng": "139.224976"
        },
        {
            "index": "3",
            "id": "00127717",
            "name": "上宿通り",
            "lat": "35.373762",
            "lng": "139.226425"
        },
        {
            "index": "4",
            "id": "00127718",
            "name": "片町通り",
            "lat": "35.373406",
            "lng": "139.228471"
        },
        {
            "index": "5",
            "id": "00127720",
            "name": "河原町(秦野市)",
            "lat": "35.369399",
            "lng": "139.23425"
        },
        {
            "index": "6",
            "id": "00130509",
            "name": "室川橋(下大槻団地線)",
            "lat": "35.367658",
            "lng": "139.241245"
        },
        {
            "index": "7",
            "id": "00127750",
            "name": "才ヶ分",
            "lat": "35.365718",
            "lng": "139.244796"
        },
        {
            "index": "8",
            "id": "00127751",
            "name": "才ヶ分踏切",
            "lat": "35.363078",
            "lng": "139.248465"
        },
        {
            "index": "9",
            "id": "00127752",
            "name": "瓜生野入口",
            "lat": "35.362471",
            "lng": "139.252148"
        },
        {
            "index": "10",
            "id": "00127753",
            "name": "秦野高校前",
            "lat": "35.363076",
            "lng": "139.258674"
        },
        {
            "index": "11",
            "id": "00127754",
            "name": "広畑ふれあいプラザ前",
            "lat": "35.360659",
            "lng": "139.262477"
        },
        {
            "index": "12",
            "id": "00127755",
            "name": "下大槻団地",
            "lat": "35.360139",
            "lng": "139.264781"
        },
        {
            "index": "13",
            "id": "00130510",
            "name": "欠ノ上(下大槻団地線)",
            "lat": "35.357431",
            "lng": "139.267314"
        },
        {
            "index": "14",
            "id": "00127727",
            "name": "土屋橋",
            "lat": "35.356467",
            "lng": "139.269389"
        },
        {
            "index": "15",
            "id": "00127728",
            "name": "東海大学正門前",
            "lat": "35.356859",
            "lng": "139.272484"
        },
        {
            "index": "16",
            "id": "00127729",
            "name": "青柳(平塚市)",
            "lat": "35.358205",
            "lng": "139.276513"
        },
        {
            "index": "17",
            "id": "00127730",
            "name": "北金目入口",
            "lat": "35.359929",
            "lng": "139.285619"
        },
        {
            "index": "18",
            "id": "00127731",
            "name": "金目駅",
            "lat": "35.359313",
            "lng": "139.288253"
        },
        {
            "index": "19",
            "id": "00127732",
            "name": "南金目",
            "lat": "35.359195",
            "lng": "139.292322"
        },
        {
            "index": "20",
            "id": "00127733",
            "name": "片岡(平塚市)",
            "lat": "35.359411",
            "lng": "139.298762"
        },
        {
            "index": "21",
            "id": "00127734",
            "name": "飯島(平塚市)",
            "lat": "35.356844",
            "lng": "139.305094"
        },
        {
            "index": "22",
            "id": "00127735",
            "name": "平塚支援学校前",
            "lat": "35.35598",
            "lng": "139.308777"
        },
        {
            "index": "23",
            "id": "00127736",
            "name": "水神橋(平塚市)",
            "lat": "35.353958",
            "lng": "139.31044"
        },
        {
            "index": "24",
            "id": "00127737",
            "name": "長持",
            "lat": "35.348509",
            "lng": "139.316025"
        },
        {
            "index": "25",
            "id": "00127738",
            "name": "長瀬(平塚市)",
            "lat": "35.343106",
            "lng": "139.321134"
        },
        {
            "index": "26",
            "id": "00127560",
            "name": "南原土手",
            "lat": "35.340368",
            "lng": "139.322255"
        },
        {
            "index": "27",
            "id": "00127559",
            "name": "南原(平塚市)",
            "lat": "35.33909",
            "lng": "139.328274"
        },
        {
            "index": "28",
            "id": "00127558",
            "name": "向原(平塚市)",
            "lat": "35.338081",
            "lng": "139.33083"
        },
        {
            "index": "29",
            "id": "00127557",
            "name": "江南高校前",
            "lat": "35.337154",
            "lng": "139.334505"
        },
        {
            "index": "30",
            "id": "00127556",
            "name": "追分(平塚市)",
            "lat": "35.33592",
            "lng": "139.338303"
        },
        {
            "index": "31",
            "id": "00127739",
            "name": "営林署前(平塚市)",
            "lat": "35.333075",
            "lng": "139.339312"
        },
        {
            "index": "32",
            "id": "00127740",
            "name": "旭通り(平塚市)",
            "lat": "35.331125",
            "lng": "139.339977"
        },
        {
            "index": "33",
            "id": "00127467",
            "name": "八間通り",
            "lat": "35.328369",
            "lng": "139.341444"
        },
        {
            "index": "34",
            "id": "00127466",
            "name": "平塚文化芸術ホール前",
            "lat": "35.32904",
            "lng": "139.344531"
        },
        {
            "index": "35",
            "id": "00127465",
            "name": "銀座通り(平塚市)",
            "lat": "35.329517",
            "lng": "139.346771"
        },
        {
            "index": "36",
            "id": "00127464",
            "name": "平塚駅北口",
            "lat": "35.329337",
            "lng": "139.350596"
        }
    ],
    "route_url": "https://www.kanachu.co.jp/dia/route/index/cid:0000802918/"
}
