{
    "system": "",
    "busstops": [
        {
            "index": "1",
            "id": "00042735",
            "name": "横浜駅西口",
            "lat": "35.466747",
            "lng": "139.621233"
        },
        {
            "index": "2",
            "id": "00019685",
            "name": "鶴屋町三丁目",
            "lat": "35.468893",
            "lng": "139.617875"
        },
        {
            "index": "3",
            "id": "00102459",
            "name": "楠町",
            "lat": "35.467852",
            "lng": "139.614155"
        },
        {
            "index": "4",
            "id": "00102673",
            "name": "浅間下(横浜市西区)",
            "lat": "35.463991",
            "lng": "139.611025"
        },
        {
            "index": "5",
            "id": "00102205",
            "name": "浅岡橋",
            "lat": "35.462936",
            "lng": "139.610142"
        },
        {
            "index": "6",
            "id": "00102672",
            "name": "浅間町車庫前",
            "lat": "35.459918",
            "lng": "139.608157"
        },
        {
            "index": "7",
            "id": "00102504",
            "name": "洪福寺",
            "lat": "35.457143",
            "lng": "139.604681"
        },
        {
            "index": "8",
            "id": "00103140",
            "name": "宮田町(横浜市保土ケ谷区)",
            "lat": "35.458229",
            "lng": "139.601663"
        },
        {
            "index": "9",
            "id": "00103135",
            "name": "峯小学校前",
            "lat": "35.460338",
            "lng": "139.597855"
        },
        {
            "index": "10",
            "id": "00103136",
            "name": "峰岡町",
            "lat": "35.46209",
            "lng": "139.594578"
        },
        {
            "index": "11",
            "id": "00102799",
            "name": "常盤園下",
            "lat": "35.463583",
            "lng": "139.591666"
        },
        {
            "index": "12",
            "id": "00103260",
            "name": "和田町(横浜市保土ケ谷区)",
            "lat": "35.464829",
            "lng": "139.589371"
        },
        {
            "index": "13",
            "id": "00103040",
            "name": "保土ヶ谷中学校前",
            "lat": "35.465869",
            "lng": "139.58312"
        },
        {
            "index": "14",
            "id": "00102369",
            "name": "上星川",
            "lat": "35.468141",
            "lng": "139.579957"
        },
        {
            "index": "15",
            "id": "00102655",
            "name": "杉山神社前(横浜市保土ケ谷区)",
            "lat": "35.471496",
            "lng": "139.576014"
        },
        {
            "index": "16",
            "id": "00102379",
            "name": "川島町(横浜市保土ケ谷区)",
            "lat": "35.472691",
            "lng": "139.575054"
        },
        {
            "index": "17",
            "id": "00102885",
            "name": "西谷妙福寺前",
            "lat": "35.476335",
            "lng": "139.571666"
        },
        {
            "index": "18",
            "id": "00102279",
            "name": "梅の木(横浜市保土ケ谷区)",
            "lat": "35.477893",
            "lng": "139.569141"
        },
        {
            "index": "19",
            "id": "00102883",
            "name": "西谷駅前",
            "lat": "35.478387",
            "lng": "139.566251"
        },
        {
            "index": "20",
            "id": "00102884",
            "name": "西谷(横浜市旭区)",
            "lat": "35.478886",
            "lng": "139.560219"
        },
        {
            "index": "21",
            "id": "00102591",
            "name": "下白根橋",
            "lat": "35.479461",
            "lng": "139.556439"
        },
        {
            "index": "22",
            "id": "00102605",
            "name": "白根不動入口",
            "lat": "35.478936",
            "lng": "139.552625"
        },
        {
            "index": "23",
            "id": "00102606",
            "name": "白根町",
            "lat": "35.478356",
            "lng": "139.548881"
        },
        {
            "index": "24",
            "id": "00102756",
            "name": "鶴ヶ峰駅",
            "lat": "35.476127",
            "lng": "139.547819"
        }
    ],
    "route_url": "https://www.kanachu.co.jp/dia/route/index/cid:0000803930/"
}
