{
    "system": "田01",
    "busstops": [
        {
            "index": "1",
            "id": "00129077",
            "name": "田名バスターミナル",
            "lat": "35.551216",
            "lng": "139.33512"
        },
        {
            "index": "2",
            "id": "00129182",
            "name": "田名坂上",
            "lat": "35.549399",
            "lng": "139.331639"
        },
        {
            "index": "3",
            "id": "00129188",
            "name": "高田橋入口",
            "lat": "35.543069",
            "lng": "139.332119"
        },
        {
            "index": "4",
            "id": "00128391",
            "name": "小沢(愛甲郡愛川町)",
            "lat": "35.538722",
            "lng": "139.328464"
        },
        {
            "index": "5",
            "id": "00129074",
            "name": "梅沢(愛甲郡愛川町)",
            "lat": "35.534544",
            "lng": "139.318252"
        },
        {
            "index": "6",
            "id": "00128327",
            "name": "箕輪辻",
            "lat": "35.530534",
            "lng": "139.31958"
        },
        {
            "index": "7",
            "id": "00129163",
            "name": "下之街道",
            "lat": "35.530363",
            "lng": "139.310528"
        },
        {
            "index": "8",
            "id": "00129169",
            "name": "角田",
            "lat": "35.528386",
            "lng": "139.308698"
        },
        {
            "index": "9",
            "id": "00129275",
            "name": "宮上(愛甲郡愛川町)",
            "lat": "35.528199",
            "lng": "139.306386"
        },
        {
            "index": "10",
            "id": "00129170",
            "name": "角田大橋",
            "lat": "35.527598",
            "lng": "139.301424"
        },
        {
            "index": "11",
            "id": "00129164",
            "name": "下戸倉",
            "lat": "35.527651",
            "lng": "139.298806"
        },
        {
            "index": "12",
            "id": "00129201",
            "name": "戸倉(愛甲郡愛川町)",
            "lat": "35.526721",
            "lng": "139.294587"
        },
        {
            "index": "13",
            "id": "00128285",
            "name": "田代(愛甲郡愛川町)",
            "lat": "35.526197",
            "lng": "139.291715"
        },
        {
            "index": "14",
            "id": "00128286",
            "name": "愛川田代局前",
            "lat": "35.52731",
            "lng": "139.288904"
        },
        {
            "index": "15",
            "id": "00128287",
            "name": "田代坂下",
            "lat": "35.528779",
            "lng": "139.286615"
        },
        {
            "index": "16",
            "id": "00128288",
            "name": "田代坂上",
            "lat": "35.531272",
            "lng": "139.285427"
        },
        {
            "index": "17",
            "id": "00128289",
            "name": "馬渡(愛甲郡愛川町)",
            "lat": "35.532481",
            "lng": "139.284977"
        },
        {
            "index": "18",
            "id": "00128290",
            "name": "深沢尻",
            "lat": "35.535062",
            "lng": "139.280624"
        },
        {
            "index": "19",
            "id": "00128291",
            "name": "愛川橋",
            "lat": "35.539014",
            "lng": "139.277789"
        },
        {
            "index": "20",
            "id": "00128292",
            "name": "原下(愛甲郡愛川町)",
            "lat": "35.541277",
            "lng": "139.276541"
        },
        {
            "index": "21",
            "id": "00128293",
            "name": "学校入口(愛甲郡愛川町)",
            "lat": "35.542019",
            "lng": "139.273044"
        },
        {
            "index": "22",
            "id": "00128294",
            "name": "撚糸組合前",
            "lat": "35.543231",
            "lng": "139.269804"
        },
        {
            "index": "23",
            "id": "00128295",
            "name": "半原",
            "lat": "35.545338",
            "lng": "139.266538"
        }
    ],
    "route_url": "https://www.kanachu.co.jp/dia/route/index/cid:0000803327/"
}
