{
    "system": "茅03",
    "busstops": [
        {
            "index": "1",
            "id": "00129948",
            "name": "湘南ライフタウン",
            "lat": "35.375345",
            "lng": "139.433688"
        },
        {
            "index": "2",
            "id": "00129947",
            "name": "滝の沢不動前",
            "lat": "35.372475",
            "lng": "139.4371"
        },
        {
            "index": "3",
            "id": "00129965",
            "name": "滝の沢小学校前",
            "lat": "35.370202",
            "lng": "139.437733"
        },
        {
            "index": "4",
            "id": "00129964",
            "name": "南大平",
            "lat": "35.367682",
            "lng": "139.433257"
        },
        {
            "index": "5",
            "id": "00129960",
            "name": "ライフタウン入口",
            "lat": "35.368166",
            "lng": "139.431873"
        },
        {
            "index": "6",
            "id": "00129959",
            "name": "丸山大辻",
            "lat": "35.370049",
            "lng": "139.429024"
        },
        {
            "index": "7",
            "id": "00127146",
            "name": "小出二本松",
            "lat": "35.369984",
            "lng": "139.423702"
        },
        {
            "index": "8",
            "id": "00127145",
            "name": "堤坂下",
            "lat": "35.365131",
            "lng": "139.421688"
        },
        {
            "index": "9",
            "id": "00127144",
            "name": "長谷戸",
            "lat": "35.360426",
            "lng": "139.421342"
        },
        {
            "index": "10",
            "id": "00127143",
            "name": "南長谷戸",
            "lat": "35.357083",
            "lng": "139.420196"
        },
        {
            "index": "11",
            "id": "00127142",
            "name": "殿山公園前",
            "lat": "35.3547",
            "lng": "139.420375"
        },
        {
            "index": "12",
            "id": "00127267",
            "name": "八幡神社前(茅ケ崎市)",
            "lat": "35.352284",
            "lng": "139.417809"
        },
        {
            "index": "13",
            "id": "00127141",
            "name": "甘沼",
            "lat": "35.351184",
            "lng": "139.415142"
        },
        {
            "index": "14",
            "id": "00127140",
            "name": "高田(茅ケ崎市)",
            "lat": "35.349103",
            "lng": "139.414183"
        },
        {
            "index": "15",
            "id": "00127139",
            "name": "鶴が台入口",
            "lat": "35.345351",
            "lng": "139.412818"
        },
        {
            "index": "16",
            "id": "00127138",
            "name": "ニュータウン入口(茅ケ崎市)",
            "lat": "35.342673",
            "lng": "139.411871"
        },
        {
            "index": "17",
            "id": "00127137",
            "name": "神奈中営業所前",
            "lat": "35.341014",
            "lng": "139.411205"
        },
        {
            "index": "18",
            "id": "00127136",
            "name": "前の田",
            "lat": "35.337346",
            "lng": "139.409871"
        },
        {
            "index": "19",
            "id": "00127135",
            "name": "中央公園前(茅ケ崎市)",
            "lat": "35.334645",
            "lng": "139.407949"
        },
        {
            "index": "20",
            "id": "00127126",
            "name": "茅ヶ崎駅",
            "lat": "35.331146",
            "lng": "139.406276"
        }
    ],
    "route_url": "https://www.kanachu.co.jp/dia/route/index/cid:0000801509/"
}
