{
    "system": "小03",
    "busstops": [
        {
            "index": "1",
            "id": "00129666",
            "name": "南林間駅",
            "lat": "35.495738",
            "lng": "139.44749"
        },
        {
            "index": "2",
            "id": "00129667",
            "name": "南林間駅前通り",
            "lat": "35.49453",
            "lng": "139.444929"
        },
        {
            "index": "3",
            "id": "00129684",
            "name": "九条",
            "lat": "35.491979",
            "lng": "139.439701"
        },
        {
            "index": "4",
            "id": "00129683",
            "name": "十一条",
            "lat": "35.491096",
            "lng": "139.437207"
        },
        {
            "index": "5",
            "id": "00129682",
            "name": "ひばりが丘一丁目(座間市)",
            "lat": "35.490258",
            "lng": "139.432409"
        },
        {
            "index": "6",
            "id": "00129681",
            "name": "小松原二丁目",
            "lat": "35.491127",
            "lng": "139.431288"
        },
        {
            "index": "7",
            "id": "00129680",
            "name": "小松原(座間市)",
            "lat": "35.496657",
            "lng": "139.428895"
        },
        {
            "index": "8",
            "id": "00130488",
            "name": "イオンモール座間入口",
            "lat": "35.501952",
            "lng": "139.42655"
        },
        {
            "index": "9",
            "id": "00128603",
            "name": "イオンモール座間",
            "lat": "35.502001",
            "lng": "139.425357"
        },
        {
            "index": "10",
            "id": "00130488",
            "name": "イオンモール座間入口",
            "lat": "35.502147",
            "lng": "139.426216"
        },
        {
            "index": "11",
            "id": "00129679",
            "name": "小松原入口",
            "lat": "35.50208",
            "lng": "139.428212"
        },
        {
            "index": "12",
            "id": "00129678",
            "name": "相模が丘",
            "lat": "35.504872",
            "lng": "139.426659"
        },
        {
            "index": "13",
            "id": "00129677",
            "name": "マルマン工場前",
            "lat": "35.506289",
            "lng": "139.425835"
        },
        {
            "index": "14",
            "id": "00129676",
            "name": "小田急住宅前(座間市)",
            "lat": "35.508098",
            "lng": "139.424794"
        },
        {
            "index": "15",
            "id": "00129675",
            "name": "相模台",
            "lat": "35.512122",
            "lng": "139.422533"
        },
        {
            "index": "16",
            "id": "00129690",
            "name": "小田急相模原駅",
            "lat": "35.515644",
            "lng": "139.422479"
        }
    ],
    "route_url": "https://www.kanachu.co.jp/dia/route/index/cid:0000803728/"
}
