{
    "system": "長54",
    "busstops": [
        {
            "index": "1",
            "id": "00126783",
            "name": "立場ターミナル",
            "lat": "35.413836",
            "lng": "139.500091"
        },
        {
            "index": "2",
            "id": "00126784",
            "name": "谷戸入口(横浜市泉区)",
            "lat": "35.415202",
            "lng": "139.495129"
        },
        {
            "index": "3",
            "id": "00126785",
            "name": "和泉(横浜市泉区)",
            "lat": "35.415965",
            "lng": "139.491707"
        },
        {
            "index": "4",
            "id": "00126786",
            "name": "泉区総合庁舎前",
            "lat": "35.416701",
            "lng": "139.488802"
        },
        {
            "index": "5",
            "id": "00126787",
            "name": "和泉坂上",
            "lat": "35.416787",
            "lng": "139.486059"
        },
        {
            "index": "6",
            "id": "00126788",
            "name": "飯田(横浜市泉区)",
            "lat": "35.416797",
            "lng": "139.481964"
        },
        {
            "index": "7",
            "id": "00126789",
            "name": "上高倉",
            "lat": "35.416974",
            "lng": "139.475957"
        },
        {
            "index": "8",
            "id": "00126790",
            "name": "藤沢湘南台病院前",
            "lat": "35.416041",
            "lng": "139.471142"
        },
        {
            "index": "9",
            "id": "00126791",
            "name": "住宅前(藤沢市高倉)",
            "lat": "35.413634",
            "lng": "139.470091"
        },
        {
            "index": "10",
            "id": "00126792",
            "name": "長後駅",
            "lat": "35.411928",
            "lng": "139.465736"
        }
    ],
    "route_url": "https://www.kanachu.co.jp/dia/route/index/cid:0000800261/"
}
