{
    "system": "藤09",
    "busstops": [
        {
            "index": "1",
            "id": "00126970",
            "name": "藤沢駅北口",
            "lat": "35.339588",
            "lng": "139.487917"
        },
        {
            "index": "2",
            "id": "00126971",
            "name": "三富士町",
            "lat": "35.339469",
            "lng": "139.484094"
        },
        {
            "index": "3",
            "id": "00126972",
            "name": "相生町(藤沢市)",
            "lat": "35.340726",
            "lng": "139.480959"
        },
        {
            "index": "4",
            "id": "00126973",
            "name": "南仲通り",
            "lat": "35.343151",
            "lng": "139.481916"
        },
        {
            "index": "5",
            "id": "00127110",
            "name": "南仲通り二丁目",
            "lat": "35.3442",
            "lng": "139.48089"
        },
        {
            "index": "6",
            "id": "00127109",
            "name": "本町小学校前(藤沢市)",
            "lat": "35.345432",
            "lng": "139.479645"
        },
        {
            "index": "7",
            "id": "00127012",
            "name": "白旗交差点",
            "lat": "35.347339",
            "lng": "139.478481"
        },
        {
            "index": "8",
            "id": "00127049",
            "name": "台町(藤沢市)",
            "lat": "35.347006",
            "lng": "139.47604"
        },
        {
            "index": "9",
            "id": "00127050",
            "name": "湘南高校前",
            "lat": "35.346536",
            "lng": "139.472037"
        },
        {
            "index": "10",
            "id": "00127051",
            "name": "一中入口(藤沢市)",
            "lat": "35.347052",
            "lng": "139.469838"
        },
        {
            "index": "11",
            "id": "00127052",
            "name": "引地橋",
            "lat": "35.347352",
            "lng": "139.467021"
        },
        {
            "index": "12",
            "id": "00127087",
            "name": "湘南台",
            "lat": "35.344952",
            "lng": "139.464364"
        },
        {
            "index": "13",
            "id": "00127088",
            "name": "梅ヶ枝通り",
            "lat": "35.342552",
            "lng": "139.461689"
        },
        {
            "index": "14",
            "id": "00130195",
            "name": "住宅前(藤沢市明治)",
            "lat": "35.341389",
            "lng": "139.458946"
        },
        {
            "index": "15",
            "id": "00127084",
            "name": "汲田",
            "lat": "35.341653",
            "lng": "139.457106"
        },
        {
            "index": "16",
            "id": "00127085",
            "name": "明治中学校前",
            "lat": "35.341719",
            "lng": "139.454539"
        },
        {
            "index": "17",
            "id": "00127086",
            "name": "羽鳥郵便局前",
            "lat": "35.341449",
            "lng": "139.451291"
        },
        {
            "index": "18",
            "id": "00130068",
            "name": "神台公園前",
            "lat": "35.340508",
            "lng": "139.447461"
        },
        {
            "index": "19",
            "id": "00129934",
            "name": "辻堂駅北口",
            "lat": "35.337688",
            "lng": "139.448197"
        }
    ],
    "route_url": "https://www.kanachu.co.jp/dia/route/index/cid:0000800334/"
}
