{
    "system": "湖28",
    "busstops": [
        {
            "index": "1",
            "id": "00128918",
            "name": "相模湖駅",
            "lat": "35.616975",
            "lng": "139.189542"
        },
        {
            "index": "2",
            "id": "00128919",
            "name": "桂北小学校前",
            "lat": "35.615631",
            "lng": "139.191651"
        },
        {
            "index": "3",
            "id": "00128921",
            "name": "平野(相模原市緑区)",
            "lat": "35.619364",
            "lng": "139.196567"
        },
        {
            "index": "4",
            "id": "00128922",
            "name": "小原(相模原市緑区)",
            "lat": "35.621478",
            "lng": "139.200049"
        },
        {
            "index": "5",
            "id": "00128923",
            "name": "底沢",
            "lat": "35.624801",
            "lng": "139.2025"
        },
        {
            "index": "6",
            "id": "00128924",
            "name": "千木良",
            "lat": "35.620818",
            "lng": "139.205563"
        },
        {
            "index": "7",
            "id": "00128925",
            "name": "千木良小学校前",
            "lat": "35.619593",
            "lng": "139.206945"
        },
        {
            "index": "8",
            "id": "00128926",
            "name": "千木良診療所前",
            "lat": "35.617551",
            "lng": "139.20919"
        },
        {
            "index": "9",
            "id": "00128927",
            "name": "宿村",
            "lat": "35.615899",
            "lng": "139.210941"
        },
        {
            "index": "10",
            "id": "00128928",
            "name": "津久井やまゆり園前",
            "lat": "35.614153",
            "lng": "139.213548"
        },
        {
            "index": "11",
            "id": "00128929",
            "name": "赤馬",
            "lat": "35.612832",
            "lng": "139.215735"
        },
        {
            "index": "12",
            "id": "00128993",
            "name": "桂橋(相模原市緑区)",
            "lat": "35.608188",
            "lng": "139.216634"
        },
        {
            "index": "13",
            "id": "00128995",
            "name": "若柳",
            "lat": "35.604667",
            "lng": "139.219732"
        },
        {
            "index": "14",
            "id": "00128994",
            "name": "下阿津",
            "lat": "35.602808",
            "lng": "139.218143"
        },
        {
            "index": "15",
            "id": "00128908",
            "name": "阿津",
            "lat": "35.600773",
            "lng": "139.217472"
        },
        {
            "index": "16",
            "id": "00128906",
            "name": "寸沢嵐",
            "lat": "35.601091",
            "lng": "139.221313"
        },
        {
            "index": "17",
            "id": "00128905",
            "name": "寸沢嵐遺跡前",
            "lat": "35.599761",
            "lng": "139.224773"
        },
        {
            "index": "18",
            "id": "00128904",
            "name": "沼本",
            "lat": "35.595956",
            "lng": "139.225579"
        },
        {
            "index": "19",
            "id": "00128903",
            "name": "道志橋",
            "lat": "35.592691",
            "lng": "139.226262"
        },
        {
            "index": "20",
            "id": "00128902",
            "name": "桜木(相模原市緑区)",
            "lat": "35.589246",
            "lng": "139.230689"
        },
        {
            "index": "21",
            "id": "00128750",
            "name": "三ヶ木",
            "lat": "35.588304",
            "lng": "139.233312"
        }
    ],
    "route_url": "https://www.kanachu.co.jp/dia/route/index/cid:0000803804/"
}
