{
    "system": "多03",
    "busstops": [
        {
            "index": "1",
            "id": "00021284",
            "name": "豊ヶ丘四丁目",
            "lat": "35.613971",
            "lng": "139.437397"
        },
        {
            "index": "2",
            "id": "00021290",
            "name": "豊ヶ丘六丁目",
            "lat": "35.611883",
            "lng": "139.437984"
        },
        {
            "index": "3",
            "id": "00020285",
            "name": "恵泉女学園大学入口",
            "lat": "35.610116",
            "lng": "139.434735"
        },
        {
            "index": "4",
            "id": "00021283",
            "name": "豊ヶ丘五丁目",
            "lat": "35.612397",
            "lng": "139.432174"
        },
        {
            "index": "5",
            "id": "00021379",
            "name": "落合四丁目",
            "lat": "35.614821",
            "lng": "139.43208"
        },
        {
            "index": "6",
            "id": "00021378",
            "name": "落合三丁目",
            "lat": "35.619062",
            "lng": "139.432874"
        },
        {
            "index": "7",
            "id": "00021308",
            "name": "豊ヶ丘小学校",
            "lat": "35.623204",
            "lng": "139.431613"
        },
        {
            "index": "8",
            "id": "00021381",
            "name": "落合東",
            "lat": "35.625803",
            "lng": "139.43018"
        },
        {
            "index": "9",
            "id": "00020748",
            "name": "多摩センター駅",
            "lat": "35.624009",
            "lng": "139.423942"
        }
    ],
    "route_url": "https://www.kanachu.co.jp/dia/route/index/cid:0000802975/"
}
