{
    "system": "愛19",
    "busstops": [
        {
            "index": "1",
            "id": "00128496",
            "name": "愛甲石田駅",
            "lat": "35.418109",
            "lng": "139.344228"
        },
        {
            "index": "2",
            "id": "00128495",
            "name": "宮前(厚木市)",
            "lat": "35.420482",
            "lng": "139.341804"
        },
        {
            "index": "3",
            "id": "00128529",
            "name": "堂山",
            "lat": "35.421563",
            "lng": "139.339575"
        },
        {
            "index": "4",
            "id": "00128528",
            "name": "愛甲橋",
            "lat": "35.42344",
            "lng": "139.335608"
        },
        {
            "index": "5",
            "id": "00128527",
            "name": "上愛甲",
            "lat": "35.42479",
            "lng": "139.332824"
        },
        {
            "index": "6",
            "id": "00128121",
            "name": "愛甲郵便局前",
            "lat": "35.426188",
            "lng": "139.329859"
        },
        {
            "index": "7",
            "id": "00128524",
            "name": "聖木",
            "lat": "35.428788",
            "lng": "139.32869"
        },
        {
            "index": "8",
            "id": "00128499",
            "name": "籠堰橋",
            "lat": "35.431791",
            "lng": "139.327247"
        },
        {
            "index": "9",
            "id": "00128498",
            "name": "広町橋",
            "lat": "35.433143",
            "lng": "139.323264"
        },
        {
            "index": "10",
            "id": "00128449",
            "name": "小野宮前",
            "lat": "35.434018",
            "lng": "139.319281"
        },
        {
            "index": "11",
            "id": "00128450",
            "name": "小野橋(厚木市)",
            "lat": "35.434765",
            "lng": "139.315365"
        },
        {
            "index": "12",
            "id": "00128517",
            "name": "榎田",
            "lat": "35.436942",
            "lng": "139.313278"
        },
        {
            "index": "13",
            "id": "00128497",
            "name": "若宮橋(厚木市)",
            "lat": "35.440685",
            "lng": "139.311926"
        },
        {
            "index": "14",
            "id": "00128518",
            "name": "通信研究所前(厚木市)",
            "lat": "35.441887",
            "lng": "139.316241"
        },
        {
            "index": "15",
            "id": "00128252",
            "name": "日産先進技術開発センター",
            "lat": "35.444246",
            "lng": "139.315408"
        }
    ],
    "route_url": "https://www.kanachu.co.jp/dia/route/index/cid:0000800789/"
}
