{
    "system": "",
    "busstops": [
        {
            "index": "1",
            "id": "00127153",
            "name": "市立病院(茅ケ崎市)",
            "lat": "35.340266",
            "lng": "139.415108"
        },
        {
            "index": "2",
            "id": "00130311",
            "name": "北茅ヶ崎駅入口",
            "lat": "35.339256",
            "lng": "139.410771"
        },
        {
            "index": "3",
            "id": "00127136",
            "name": "前の田",
            "lat": "35.337551",
            "lng": "139.409988"
        },
        {
            "index": "4",
            "id": "00127135",
            "name": "中央公園前(茅ケ崎市)",
            "lat": "35.334553",
            "lng": "139.408035"
        },
        {
            "index": "5",
            "id": "00127415",
            "name": "茅ヶ崎駅北",
            "lat": "35.331989",
            "lng": "139.406458"
        },
        {
            "index": "6",
            "id": "00127171",
            "name": "市民文化会館前(茅ケ崎市)",
            "lat": "35.334809",
            "lng": "139.404865"
        },
        {
            "index": "7",
            "id": "00127359",
            "name": "ジャスコ東",
            "lat": "35.336855",
            "lng": "139.403336"
        },
        {
            "index": "8",
            "id": "00127420",
            "name": "消防本部前(茅ケ崎市)",
            "lat": "35.339251",
            "lng": "139.401511"
        },
        {
            "index": "9",
            "id": "00127360",
            "name": "矢畑北",
            "lat": "35.340868",
            "lng": "139.400027"
        },
        {
            "index": "10",
            "id": "00127162",
            "name": "円蔵",
            "lat": "35.34453",
            "lng": "139.397899"
        },
        {
            "index": "11",
            "id": "00127361",
            "name": "円蔵下町",
            "lat": "35.344585",
            "lng": "139.396856"
        },
        {
            "index": "12",
            "id": "00127362",
            "name": "陽ざし野",
            "lat": "35.343517",
            "lng": "139.395442"
        },
        {
            "index": "13",
            "id": "00127363",
            "name": "西久保南",
            "lat": "35.343758",
            "lng": "139.393809"
        },
        {
            "index": "14",
            "id": "00127364",
            "name": "西久保保育園・つるみね老人ホーム前",
            "lat": "35.344616",
            "lng": "139.392049"
        },
        {
            "index": "15",
            "id": "00127365",
            "name": "浜之郷小学校",
            "lat": "35.345263",
            "lng": "139.39007"
        },
        {
            "index": "16",
            "id": "00127366",
            "name": "県立茅ヶ崎養護学校",
            "lat": "35.346921",
            "lng": "139.389303"
        },
        {
            "index": "17",
            "id": "00127367",
            "name": "徳洲会老人保健施設浜之郷前",
            "lat": "35.345804",
            "lng": "139.388367"
        },
        {
            "index": "18",
            "id": "00127368",
            "name": "萩園橋",
            "lat": "35.346732",
            "lng": "139.385679"
        },
        {
            "index": "19",
            "id": "00127416",
            "name": "十二天神社入口",
            "lat": "35.347523",
            "lng": "139.384367"
        },
        {
            "index": "20",
            "id": "00127368",
            "name": "萩園橋",
            "lat": "35.346732",
            "lng": "139.385679"
        },
        {
            "index": "21",
            "id": "00127367",
            "name": "徳洲会老人保健施設浜之郷前",
            "lat": "35.345804",
            "lng": "139.388367"
        },
        {
            "index": "22",
            "id": "00127365",
            "name": "浜之郷小学校",
            "lat": "35.345263",
            "lng": "139.39007"
        },
        {
            "index": "23",
            "id": "00127364",
            "name": "西久保保育園・つるみね老人ホーム前",
            "lat": "35.344616",
            "lng": "139.392049"
        },
        {
            "index": "24",
            "id": "00127363",
            "name": "西久保南",
            "lat": "35.343465",
            "lng": "139.394343"
        },
        {
            "index": "25",
            "id": "00127362",
            "name": "陽ざし野",
            "lat": "35.343776",
            "lng": "139.395635"
        },
        {
            "index": "26",
            "id": "00127361",
            "name": "円蔵下町",
            "lat": "35.345099",
            "lng": "139.397285"
        },
        {
            "index": "27",
            "id": "00127162",
            "name": "円蔵",
            "lat": "35.34453",
            "lng": "139.397899"
        },
        {
            "index": "28",
            "id": "00127360",
            "name": "矢畑北",
            "lat": "35.340983",
            "lng": "139.400134"
        },
        {
            "index": "29",
            "id": "00127420",
            "name": "消防本部前(茅ケ崎市)",
            "lat": "35.339895",
            "lng": "139.401099"
        },
        {
            "index": "30",
            "id": "00127417",
            "name": "市民活動サポートセンター前",
            "lat": "35.337302",
            "lng": "139.403244"
        },
        {
            "index": "31",
            "id": "00127171",
            "name": "市民文化会館前(茅ケ崎市)",
            "lat": "35.335053",
            "lng": "139.404988"
        },
        {
            "index": "32",
            "id": "00127415",
            "name": "茅ヶ崎駅北",
            "lat": "35.33212",
            "lng": "139.406308"
        },
        {
            "index": "33",
            "id": "00127135",
            "name": "中央公園前(茅ケ崎市)",
            "lat": "35.334772",
            "lng": "139.408153"
        },
        {
            "index": "34",
            "id": "00127136",
            "name": "前の田",
            "lat": "35.337625",
            "lng": "139.410149"
        },
        {
            "index": "35",
            "id": "00130311",
            "name": "北茅ヶ崎駅入口",
            "lat": "35.339299",
            "lng": "139.410688"
        },
        {
            "index": "36",
            "id": "00127153",
            "name": "市立病院(茅ケ崎市)",
            "lat": "35.340323",
            "lng": "139.414955"
        }
    ],
    "route_url": "https://www.kanachu.co.jp/dia/route/index/cid:0000801761/"
}
