{
    "system": "間01",
    "busstops": [
        {
            "index": "1",
            "id": "00129523",
            "name": "鶴間駅東口",
            "lat": "35.490221",
            "lng": "139.451997"
        },
        {
            "index": "2",
            "id": "00129524",
            "name": "鶴間二丁目",
            "lat": "35.490896",
            "lng": "139.454489"
        },
        {
            "index": "3",
            "id": "00130537",
            "name": "長堀公園前",
            "lat": "35.492468",
            "lng": "139.459839"
        },
        {
            "index": "4",
            "id": "00129526",
            "name": "山王原(大和市)",
            "lat": "35.495535",
            "lng": "139.460633"
        },
        {
            "index": "5",
            "id": "00129527",
            "name": "諏訪神社",
            "lat": "35.498602",
            "lng": "139.46169"
        },
        {
            "index": "6",
            "id": "00129528",
            "name": "下鶴間",
            "lat": "35.501233",
            "lng": "139.464517"
        },
        {
            "index": "7",
            "id": "00129529",
            "name": "観音寺前(大和市)",
            "lat": "35.501341",
            "lng": "139.466218"
        },
        {
            "index": "8",
            "id": "00129701",
            "name": "瀬谷入口",
            "lat": "35.49848",
            "lng": "139.472636"
        },
        {
            "index": "9",
            "id": "00129702",
            "name": "笹原(横浜市瀬谷区)",
            "lat": "35.498215",
            "lng": "139.48061"
        },
        {
            "index": "10",
            "id": "00129703",
            "name": "卸センター前",
            "lat": "35.498072",
            "lng": "139.484545"
        },
        {
            "index": "11",
            "id": "00129704",
            "name": "桜山(横浜市旭区)",
            "lat": "35.497742",
            "lng": "139.491774"
        },
        {
            "index": "12",
            "id": "00129705",
            "name": "亀甲山",
            "lat": "35.497469",
            "lng": "139.496631"
        },
        {
            "index": "13",
            "id": "00129706",
            "name": "大貫橋",
            "lat": "35.497869",
            "lng": "139.500513"
        },
        {
            "index": "14",
            "id": "00129707",
            "name": "上川井町",
            "lat": "35.496986",
            "lng": "139.502229"
        },
        {
            "index": "15",
            "id": "00129708",
            "name": "長源寺前(横浜市旭区)",
            "lat": "35.495847",
            "lng": "139.504858"
        },
        {
            "index": "16",
            "id": "00129709",
            "name": "宮の下(横浜市旭区)",
            "lat": "35.493852",
            "lng": "139.508916"
        },
        {
            "index": "17",
            "id": "00129710",
            "name": "福泉寺前(横浜市旭区)",
            "lat": "35.491956",
            "lng": "139.512743"
        },
        {
            "index": "18",
            "id": "00129711",
            "name": "川井宿",
            "lat": "35.489745",
            "lng": "139.517213"
        },
        {
            "index": "19",
            "id": "00129712",
            "name": "下宿(横浜市旭区)",
            "lat": "35.48784",
            "lng": "139.519878"
        },
        {
            "index": "20",
            "id": "00129713",
            "name": "都岡町",
            "lat": "35.486231",
            "lng": "139.522131"
        },
        {
            "index": "21",
            "id": "00129714",
            "name": "農協前(横浜市旭区)",
            "lat": "35.485169",
            "lng": "139.523587"
        },
        {
            "index": "22",
            "id": "00129715",
            "name": "筑池",
            "lat": "35.483955",
            "lng": "139.525596"
        },
        {
            "index": "23",
            "id": "00129716",
            "name": "今宿(横浜市旭区)",
            "lat": "35.482653",
            "lng": "139.530687"
        },
        {
            "index": "24",
            "id": "00129717",
            "name": "今宿小学校入口",
            "lat": "35.481217",
            "lng": "139.533712"
        },
        {
            "index": "25",
            "id": "00129718",
            "name": "鶴ヶ峰中学校前",
            "lat": "35.479661",
            "lng": "139.536741"
        },
        {
            "index": "26",
            "id": "00129719",
            "name": "薬王寺入口",
            "lat": "35.478306",
            "lng": "139.541599"
        },
        {
            "index": "27",
            "id": "00129720",
            "name": "鶴ヶ峰本町",
            "lat": "35.476708",
            "lng": "139.544383"
        },
        {
            "index": "28",
            "id": "00102756",
            "name": "鶴ヶ峰駅",
            "lat": "35.476127",
            "lng": "139.547819"
        }
    ],
    "route_url": "https://www.kanachu.co.jp/dia/route/index/cid:0000803910/"
}
