{
    "system": "町89",
    "busstops": [
        {
            "index": "1",
            "id": "00025625",
            "name": "町田バスセンター",
            "lat": "35.542593",
            "lng": "139.445914"
        },
        {
            "index": "2",
            "id": "00129465",
            "name": "原町田四丁目",
            "lat": "35.54358",
            "lng": "139.451946"
        },
        {
            "index": "3",
            "id": "00129546",
            "name": "原町田三丁目",
            "lat": "35.540625",
            "lng": "139.453244"
        },
        {
            "index": "4",
            "id": "00129543",
            "name": "三塚",
            "lat": "35.539165",
            "lng": "139.453609"
        },
        {
            "index": "5",
            "id": "00129542",
            "name": "南橋(町田市)",
            "lat": "35.536731",
            "lng": "139.455898"
        },
        {
            "index": "6",
            "id": "00129792",
            "name": "金森二丁目西",
            "lat": "35.533001",
            "lng": "139.457429"
        },
        {
            "index": "7",
            "id": "00129793",
            "name": "防災いこいの広場入口",
            "lat": "35.531709",
            "lng": "139.456995"
        },
        {
            "index": "8",
            "id": "00129794",
            "name": "都営金森アパート前",
            "lat": "35.529648",
            "lng": "139.458151"
        },
        {
            "index": "9",
            "id": "00129795",
            "name": "かわせみ会館前",
            "lat": "35.526572",
            "lng": "139.459009"
        },
        {
            "index": "10",
            "id": "00129796",
            "name": "西田(町田市)",
            "lat": "35.524765",
            "lng": "139.460281"
        },
        {
            "index": "11",
            "id": "00129797",
            "name": "西田峯山公園前",
            "lat": "35.522602",
            "lng": "139.461995"
        },
        {
            "index": "12",
            "id": "00129798",
            "name": "定方寺公園入口",
            "lat": "35.521044",
            "lng": "139.462931"
        },
        {
            "index": "13",
            "id": "00129608",
            "name": "町谷(町田市)",
            "lat": "35.519463",
            "lng": "139.46393"
        },
        {
            "index": "14",
            "id": "00130411",
            "name": "南町田四丁目",
            "lat": "35.517138",
            "lng": "139.464936"
        },
        {
            "index": "15",
            "id": "00129799",
            "name": "南町田北",
            "lat": "35.514961",
            "lng": "139.465287"
        },
        {
            "index": "16",
            "id": "00129730",
            "name": "南町田グランベリーパーク駅",
            "lat": "35.512274",
            "lng": "139.470687"
        }
    ],
    "route_url": "https://www.kanachu.co.jp/dia/route/index/cid:0000804186/"
}
