{
    "system": "下05",
    "busstops": [
        {
            "index": "1",
            "id": "00126905",
            "name": "上飯田車庫",
            "lat": "35.442594",
            "lng": "139.477757"
        },
        {
            "index": "2",
            "id": "00126702",
            "name": "ひなた山",
            "lat": "35.442986",
            "lng": "139.483178"
        },
        {
            "index": "3",
            "id": "00126800",
            "name": "ひなた山第一",
            "lat": "35.441459",
            "lng": "139.484549"
        },
        {
            "index": "4",
            "id": "00126907",
            "name": "飯田北小学校入口",
            "lat": "35.433643",
            "lng": "139.484733"
        },
        {
            "index": "5",
            "id": "00126897",
            "name": "上飯田中学校入口",
            "lat": "35.431266",
            "lng": "139.484666"
        },
        {
            "index": "6",
            "id": "00126898",
            "name": "向原(横浜市泉区)",
            "lat": "35.428435",
            "lng": "139.484532"
        },
        {
            "index": "7",
            "id": "00126906",
            "name": "池ノ上(横浜市泉区)",
            "lat": "35.422968",
            "lng": "139.484752"
        },
        {
            "index": "8",
            "id": "00126787",
            "name": "和泉坂上",
            "lat": "35.417578",
            "lng": "139.485367"
        },
        {
            "index": "9",
            "id": "00126955",
            "name": "三柱神社入口",
            "lat": "35.414395",
            "lng": "139.485001"
        },
        {
            "index": "10",
            "id": "00126956",
            "name": "左馬神社入口",
            "lat": "35.4101",
            "lng": "139.484245"
        },
        {
            "index": "11",
            "id": "00130531",
            "name": "ゆめが丘駅",
            "lat": "35.405808",
            "lng": "139.482333"
        },
        {
            "index": "12",
            "id": "00130532",
            "name": "下飯田駅",
            "lat": "35.4034",
            "lng": "139.482621"
        },
        {
            "index": "13",
            "id": "00126959",
            "name": "赤坂橋(横浜市泉区)",
            "lat": "35.399104",
            "lng": "139.485304"
        },
        {
            "index": "14",
            "id": "00126960",
            "name": "密蔵院前",
            "lat": "35.395656",
            "lng": "139.487071"
        },
        {
            "index": "15",
            "id": "00126961",
            "name": "いずみ台",
            "lat": "35.393227",
            "lng": "139.490639"
        },
        {
            "index": "16",
            "id": "00126962",
            "name": "アカシア公園入口",
            "lat": "35.392148",
            "lng": "139.492567"
        },
        {
            "index": "17",
            "id": "00126963",
            "name": "深谷消防出張所西側",
            "lat": "35.390172",
            "lng": "139.496011"
        },
        {
            "index": "18",
            "id": "00126964",
            "name": "深谷台小学校入口",
            "lat": "35.388896",
            "lng": "139.497955"
        },
        {
            "index": "19",
            "id": "00126965",
            "name": "富士見ヶ丘入口",
            "lat": "35.387518",
            "lng": "139.499206"
        },
        {
            "index": "20",
            "id": "00126966",
            "name": "戸塚西公園入口",
            "lat": "35.384921",
            "lng": "139.500132"
        },
        {
            "index": "21",
            "id": "00126821",
            "name": "横浜薬大南門",
            "lat": "35.38315",
            "lng": "139.49746"
        },
        {
            "index": "22",
            "id": "00126822",
            "name": "俣野公園・横浜薬大前",
            "lat": "35.385496",
            "lng": "139.494422"
        },
        {
            "index": "23",
            "id": "00126823",
            "name": "集会所前(横浜市戸塚区)",
            "lat": "35.388198",
            "lng": "139.493327"
        },
        {
            "index": "24",
            "id": "00126824",
            "name": "ドリームハイツ",
            "lat": "35.389023",
            "lng": "139.490282"
        }
    ],
    "route_url": "https://www.kanachu.co.jp/dia/route/index/cid:0000803529/"
}
