{
    "system": "成03",
    "busstops": [
        {
            "index": "1",
            "id": "00129754",
            "name": "こどもの国駅",
            "lat": "35.557945",
            "lng": "139.485905"
        },
        {
            "index": "2",
            "id": "00129745",
            "name": "センター前(横浜市青葉区)",
            "lat": "35.556276",
            "lng": "139.483837"
        },
        {
            "index": "3",
            "id": "00129746",
            "name": "市ノ久保",
            "lat": "35.553624",
            "lng": "139.484739"
        },
        {
            "index": "4",
            "id": "00129747",
            "name": "松岳院前",
            "lat": "35.552948",
            "lng": "139.487724"
        },
        {
            "index": "5",
            "id": "00129748",
            "name": "奈良二丁目",
            "lat": "35.549527",
            "lng": "139.487429"
        },
        {
            "index": "6",
            "id": "00129749",
            "name": "熊ヶ谷",
            "lat": "35.548988",
            "lng": "139.484441"
        },
        {
            "index": "7",
            "id": "00129750",
            "name": "しあわせ野",
            "lat": "35.549087",
            "lng": "139.481673"
        },
        {
            "index": "8",
            "id": "00129600",
            "name": "ポプラヶ丘前",
            "lat": "35.54929",
            "lng": "139.477258"
        },
        {
            "index": "9",
            "id": "00129599",
            "name": "成瀬台入口",
            "lat": "35.549463",
            "lng": "139.472693"
        },
        {
            "index": "10",
            "id": "00129559",
            "name": "観性寺前",
            "lat": "35.547348",
            "lng": "139.472808"
        },
        {
            "index": "11",
            "id": "00129560",
            "name": "中村(町田市成瀬)",
            "lat": "35.544976",
            "lng": "139.473645"
        },
        {
            "index": "12",
            "id": "00129561",
            "name": "成瀬高校入口",
            "lat": "35.542647",
            "lng": "139.473964"
        },
        {
            "index": "13",
            "id": "00129562",
            "name": "南成瀬",
            "lat": "35.538464",
            "lng": "139.473896"
        },
        {
            "index": "14",
            "id": "00129552",
            "name": "成瀬駅",
            "lat": "35.535616",
            "lng": "139.473071"
        }
    ],
    "route_url": "https://www.kanachu.co.jp/dia/route/index/cid:0000801139/"
}
