{
    "system": "戸55",
    "busstops": [
        {
            "index": "1",
            "id": "00126822",
            "name": "俣野公園・横浜薬大前",
            "lat": "35.385422",
            "lng": "139.494848"
        },
        {
            "index": "2",
            "id": "00126821",
            "name": "横浜薬大南門",
            "lat": "35.383182",
            "lng": "139.497663"
        },
        {
            "index": "3",
            "id": "00126820",
            "name": "三叉路(横浜市戸塚区)",
            "lat": "35.381403",
            "lng": "139.502805"
        },
        {
            "index": "4",
            "id": "00126968",
            "name": "横浜医療センター",
            "lat": "35.37957",
            "lng": "139.504976"
        },
        {
            "index": "5",
            "id": "00126819",
            "name": "横浜医療センター前",
            "lat": "35.37888",
            "lng": "139.504758"
        },
        {
            "index": "6",
            "id": "00126818",
            "name": "原宿(横浜市戸塚区)",
            "lat": "35.37768",
            "lng": "139.505837"
        },
        {
            "index": "7",
            "id": "00126817",
            "name": "大運寺",
            "lat": "35.379025",
            "lng": "139.508774"
        },
        {
            "index": "8",
            "id": "00126816",
            "name": "吹上(横浜市戸塚区)",
            "lat": "35.382463",
            "lng": "139.513956"
        },
        {
            "index": "9",
            "id": "00126815",
            "name": "西横浜国際総合病院前",
            "lat": "35.385148",
            "lng": "139.516231"
        },
        {
            "index": "10",
            "id": "00126814",
            "name": "新道大坂上",
            "lat": "35.387599",
            "lng": "139.518132"
        },
        {
            "index": "11",
            "id": "00126813",
            "name": "大坂上(横浜市戸塚区)",
            "lat": "35.389963",
            "lng": "139.522098"
        },
        {
            "index": "12",
            "id": "00126812",
            "name": "大坂台",
            "lat": "35.391799",
            "lng": "139.523848"
        },
        {
            "index": "13",
            "id": "00126811",
            "name": "大坂下",
            "lat": "35.392987",
            "lng": "139.527131"
        },
        {
            "index": "14",
            "id": "00126810",
            "name": "八坂神社前",
            "lat": "35.395315",
            "lng": "139.529981"
        },
        {
            "index": "15",
            "id": "00126809",
            "name": "消防署前(横浜市戸塚区)",
            "lat": "35.396715",
            "lng": "139.530481"
        },
        {
            "index": "16",
            "id": "00126969",
            "name": "戸塚駅西口",
            "lat": "35.401068",
            "lng": "139.533508"
        },
        {
            "index": "17",
            "id": "00126775",
            "name": "戸塚バスセンター",
            "lat": "35.400571",
            "lng": "139.532128"
        }
    ],
    "route_url": "https://www.kanachu.co.jp/dia/route/index/cid:0000803586/"
}
