{
    "system": "愛15",
    "busstops": [
        {
            "index": "1",
            "id": "00128649",
            "name": "森の里",
            "lat": "35.455678",
            "lng": "139.304065"
        },
        {
            "index": "2",
            "id": "00128666",
            "name": "森の里五丁目",
            "lat": "35.453905",
            "lng": "139.304629"
        },
        {
            "index": "3",
            "id": "00128667",
            "name": "北センター(厚木市)",
            "lat": "35.453173",
            "lng": "139.304953"
        },
        {
            "index": "4",
            "id": "00128668",
            "name": "森の里中学校前",
            "lat": "35.448653",
            "lng": "139.304214"
        },
        {
            "index": "5",
            "id": "00128648",
            "name": "森の里三丁目",
            "lat": "35.446387",
            "lng": "139.305012"
        },
        {
            "index": "6",
            "id": "00128647",
            "name": "森の里小学校前",
            "lat": "35.444822",
            "lng": "139.305649"
        },
        {
            "index": "7",
            "id": "00128646",
            "name": "森の里二丁目",
            "lat": "35.442067",
            "lng": "139.306016"
        },
        {
            "index": "8",
            "id": "00128645",
            "name": "森の里一丁目",
            "lat": "35.440974",
            "lng": "139.307537"
        },
        {
            "index": "9",
            "id": "00128497",
            "name": "若宮橋(厚木市)",
            "lat": "35.441364",
            "lng": "139.312158"
        },
        {
            "index": "10",
            "id": "00128517",
            "name": "榎田",
            "lat": "35.436381",
            "lng": "139.313777"
        },
        {
            "index": "11",
            "id": "00128450",
            "name": "小野橋(厚木市)",
            "lat": "35.434836",
            "lng": "139.315628"
        },
        {
            "index": "12",
            "id": "00128449",
            "name": "小野宮前",
            "lat": "35.434186",
            "lng": "139.318785"
        },
        {
            "index": "13",
            "id": "00128448",
            "name": "愛名入口",
            "lat": "35.434489",
            "lng": "139.323474"
        },
        {
            "index": "14",
            "id": "00128447",
            "name": "上長谷(厚木市)",
            "lat": "35.433053",
            "lng": "139.328035"
        },
        {
            "index": "15",
            "id": "00128659",
            "name": "毛利台南入口",
            "lat": "35.432857",
            "lng": "139.330758"
        },
        {
            "index": "16",
            "id": "00128524",
            "name": "聖木",
            "lat": "35.428569",
            "lng": "139.32876"
        },
        {
            "index": "17",
            "id": "00128525",
            "name": "大上(厚木市)",
            "lat": "35.426334",
            "lng": "139.329383"
        },
        {
            "index": "18",
            "id": "00128526",
            "name": "愛甲原住宅",
            "lat": "35.424034",
            "lng": "139.33106"
        },
        {
            "index": "19",
            "id": "00128527",
            "name": "上愛甲",
            "lat": "35.424659",
            "lng": "139.333399"
        },
        {
            "index": "20",
            "id": "00128528",
            "name": "愛甲橋",
            "lat": "35.423541",
            "lng": "139.335691"
        },
        {
            "index": "21",
            "id": "00128529",
            "name": "堂山",
            "lat": "35.422112",
            "lng": "139.338746"
        },
        {
            "index": "22",
            "id": "00128495",
            "name": "宮前(厚木市)",
            "lat": "35.420329",
            "lng": "139.342817"
        },
        {
            "index": "23",
            "id": "00128496",
            "name": "愛甲石田駅",
            "lat": "35.418388",
            "lng": "139.344343"
        }
    ],
    "route_url": "https://www.kanachu.co.jp/dia/route/index/cid:0000800508/"
}
