{
    "system": "町77",
    "busstops": [
        {
            "index": "1",
            "id": "00025625",
            "name": "町田バスセンター",
            "lat": "35.542997",
            "lng": "139.446447"
        },
        {
            "index": "2",
            "id": "00129465",
            "name": "原町田四丁目",
            "lat": "35.54358",
            "lng": "139.451946"
        },
        {
            "index": "3",
            "id": "00129546",
            "name": "原町田三丁目",
            "lat": "35.540625",
            "lng": "139.453244"
        },
        {
            "index": "4",
            "id": "00129543",
            "name": "三塚",
            "lat": "35.539165",
            "lng": "139.453609"
        },
        {
            "index": "5",
            "id": "00129581",
            "name": "熊野神社前(成瀬街道側/町田市)",
            "lat": "35.540945",
            "lng": "139.458555"
        },
        {
            "index": "6",
            "id": "00129582",
            "name": "高瀬橋(町田市)",
            "lat": "35.542641",
            "lng": "139.462937"
        },
        {
            "index": "7",
            "id": "00129583",
            "name": "鞍掛",
            "lat": "35.543083",
            "lng": "139.466422"
        },
        {
            "index": "8",
            "id": "00129584",
            "name": "成瀬消防出張所前",
            "lat": "35.543204",
            "lng": "139.470627"
        },
        {
            "index": "9",
            "id": "00129585",
            "name": "成瀬コミュニティセンター前",
            "lat": "35.543264",
            "lng": "139.47213"
        },
        {
            "index": "10",
            "id": "00129586",
            "name": "奈良谷戸入口",
            "lat": "35.542047",
            "lng": "139.477113"
        },
        {
            "index": "11",
            "id": "00129587",
            "name": "山村(町田市)",
            "lat": "35.539761",
            "lng": "139.479041"
        },
        {
            "index": "12",
            "id": "00129588",
            "name": "吹上(町田市)",
            "lat": "35.53745",
            "lng": "139.483188"
        },
        {
            "index": "13",
            "id": "00129589",
            "name": "上和田(横浜市青葉区)",
            "lat": "35.537831",
            "lng": "139.488062"
        },
        {
            "index": "14",
            "id": "00019243",
            "name": "堀の内(横浜市青葉区)",
            "lat": "35.538771",
            "lng": "139.490282"
        },
        {
            "index": "15",
            "id": "00130357",
            "name": "長津田三丁目",
            "lat": "35.534754",
            "lng": "139.494636"
        },
        {
            "index": "16",
            "id": "00130356",
            "name": "長津田駅北口",
            "lat": "35.532257",
            "lng": "139.496578"
        }
    ],
    "route_url": "https://www.kanachu.co.jp/dia/route/index/cid:0000801961/"
}
