{
    "system": "秦20",
    "busstops": [
        {
            "index": "1",
            "id": "00127715",
            "name": "秦野駅",
            "lat": "35.370118",
            "lng": "139.226579"
        },
        {
            "index": "2",
            "id": "00127716",
            "name": "大川橋(秦野市)",
            "lat": "35.372976",
            "lng": "139.224976"
        },
        {
            "index": "3",
            "id": "00127717",
            "name": "上宿通り",
            "lat": "35.373762",
            "lng": "139.226425"
        },
        {
            "index": "4",
            "id": "00127835",
            "name": "仲宿(秦野市)",
            "lat": "35.375273",
            "lng": "139.228564"
        },
        {
            "index": "5",
            "id": "00127836",
            "name": "下宿(秦野市)",
            "lat": "35.377367",
            "lng": "139.23076"
        },
        {
            "index": "6",
            "id": "00127837",
            "name": "末広小学校前",
            "lat": "35.37818",
            "lng": "139.233324"
        },
        {
            "index": "7",
            "id": "00127838",
            "name": "落合入口",
            "lat": "35.380547",
            "lng": "139.236183"
        },
        {
            "index": "8",
            "id": "00127839",
            "name": "名古木",
            "lat": "35.382535",
            "lng": "139.237362"
        },
        {
            "index": "9",
            "id": "00127840",
            "name": "上原台",
            "lat": "35.385972",
            "lng": "139.236902"
        },
        {
            "index": "10",
            "id": "00127841",
            "name": "上原入口",
            "lat": "35.387076",
            "lng": "139.23602"
        },
        {
            "index": "11",
            "id": "00127842",
            "name": "藤棚(秦野市)",
            "lat": "35.393005",
            "lng": "139.235344"
        },
        {
            "index": "12",
            "id": "00127843",
            "name": "東中学校前(秦野市)",
            "lat": "35.395547",
            "lng": "139.235717"
        },
        {
            "index": "13",
            "id": "00127844",
            "name": "中丸橋(秦野市)",
            "lat": "35.397862",
            "lng": "139.235529"
        },
        {
            "index": "14",
            "id": "00127845",
            "name": "久保(秦野市)",
            "lat": "35.399633",
            "lng": "139.233364"
        },
        {
            "index": "15",
            "id": "00127846",
            "name": "才戸入口",
            "lat": "35.402473",
            "lng": "139.232962"
        },
        {
            "index": "16",
            "id": "00127847",
            "name": "小蓑毛",
            "lat": "35.404822",
            "lng": "139.231702"
        },
        {
            "index": "17",
            "id": "00127848",
            "name": "鳥居前(秦野市)",
            "lat": "35.408217",
            "lng": "139.231114"
        },
        {
            "index": "18",
            "id": "00127849",
            "name": "青年橋",
            "lat": "35.410905",
            "lng": "139.230795"
        },
        {
            "index": "19",
            "id": "00127850",
            "name": "蓑毛中",
            "lat": "35.41249",
            "lng": "139.229912"
        },
        {
            "index": "20",
            "id": "00127851",
            "name": "蓑毛",
            "lat": "35.415579",
            "lng": "139.228579"
        }
    ],
    "route_url": "https://www.kanachu.co.jp/dia/route/index/cid:0000800459/"
}
