{
    "system": "船21",
    "busstops": [
        {
            "index": "1",
            "id": "00126855",
            "name": "大船駅西口",
            "lat": "35.352316",
            "lng": "139.52911"
        },
        {
            "index": "2",
            "id": "00126854",
            "name": "坂本(鎌倉市)",
            "lat": "35.355961",
            "lng": "139.530029"
        },
        {
            "index": "3",
            "id": "00126853",
            "name": "長尾台(横浜市栄区)",
            "lat": "35.359935",
            "lng": "139.528635"
        },
        {
            "index": "4",
            "id": "00126852",
            "name": "宮ノ前(横浜市栄区)",
            "lat": "35.362366",
            "lng": "139.528592"
        },
        {
            "index": "5",
            "id": "00126851",
            "name": "小蓋山",
            "lat": "35.363893",
            "lng": "139.525028"
        },
        {
            "index": "6",
            "id": "00126850",
            "name": "田谷(横浜市栄区)",
            "lat": "35.364457",
            "lng": "139.521133"
        },
        {
            "index": "7",
            "id": "00126921",
            "name": "常勝寺(横浜市栄区)",
            "lat": "35.367051",
            "lng": "139.518799"
        },
        {
            "index": "8",
            "id": "00126922",
            "name": "青少年センター前(横浜市栄区)",
            "lat": "35.369316",
            "lng": "139.518853"
        },
        {
            "index": "9",
            "id": "00126923",
            "name": "千秀小学校前",
            "lat": "35.371406",
            "lng": "139.519308"
        },
        {
            "index": "10",
            "id": "00126924",
            "name": "神社前(横浜市栄区)",
            "lat": "35.373273",
            "lng": "139.516338"
        },
        {
            "index": "11",
            "id": "00126925",
            "name": "小雀",
            "lat": "35.374625",
            "lng": "139.514174"
        },
        {
            "index": "12",
            "id": "00126926",
            "name": "庚申塚(横浜市戸塚区)",
            "lat": "35.374181",
            "lng": "139.511027"
        },
        {
            "index": "13",
            "id": "00126927",
            "name": "原宿四ツ角",
            "lat": "35.376033",
            "lng": "139.5061"
        },
        {
            "index": "14",
            "id": "00126819",
            "name": "横浜医療センター前",
            "lat": "35.378616",
            "lng": "139.504634"
        },
        {
            "index": "15",
            "id": "00126820",
            "name": "三叉路(横浜市戸塚区)",
            "lat": "35.381194",
            "lng": "139.502631"
        },
        {
            "index": "16",
            "id": "00130214",
            "name": "深谷(横浜市戸塚区)",
            "lat": "35.383036",
            "lng": "139.502449"
        },
        {
            "index": "17",
            "id": "00126836",
            "name": "クラブ前(横浜市戸塚区)",
            "lat": "35.384519",
            "lng": "139.505179"
        },
        {
            "index": "18",
            "id": "00126837",
            "name": "汲沢入口",
            "lat": "35.388376",
            "lng": "139.50691"
        },
        {
            "index": "19",
            "id": "00130215",
            "name": "深谷小入口",
            "lat": "35.391666",
            "lng": "139.505976"
        },
        {
            "index": "20",
            "id": "00126831",
            "name": "住宅前(横浜市泉区)",
            "lat": "35.395994",
            "lng": "139.504976"
        },
        {
            "index": "21",
            "id": "00126832",
            "name": "通信隊前",
            "lat": "35.398155",
            "lng": "139.503678"
        },
        {
            "index": "22",
            "id": "00126833",
            "name": "高砂苑前",
            "lat": "35.402093",
            "lng": "139.501645"
        },
        {
            "index": "23",
            "id": "00126834",
            "name": "萩丸",
            "lat": "35.406904",
            "lng": "139.500808"
        },
        {
            "index": "24",
            "id": "00126835",
            "name": "西原(横浜市泉区)",
            "lat": "35.410129",
            "lng": "139.500355"
        },
        {
            "index": "25",
            "id": "00126783",
            "name": "立場ターミナル",
            "lat": "35.414106",
            "lng": "139.500009"
        }
    ],
    "route_url": "https://www.kanachu.co.jp/dia/route/index/cid:0000800281/"
}
