{
    "system": "淵65",
    "busstops": [
        {
            "index": "1",
            "id": "00129246",
            "name": "淵野辺駅北口",
            "lat": "35.569324",
            "lng": "139.394147"
        },
        {
            "index": "2",
            "id": "00129148",
            "name": "幸町(相模原市中央区)",
            "lat": "35.570378",
            "lng": "139.396274"
        },
        {
            "index": "3",
            "id": "00129309",
            "name": "淵野辺郵便局前",
            "lat": "35.571689",
            "lng": "139.397635"
        },
        {
            "index": "4",
            "id": "00129159",
            "name": "小学校入口(相模原市中央区)",
            "lat": "35.572784",
            "lng": "139.398729"
        },
        {
            "index": "5",
            "id": "00130111",
            "name": "山王(相模原市中央区)",
            "lat": "35.574258",
            "lng": "139.400485"
        },
        {
            "index": "6",
            "id": "00130112",
            "name": "山王下(相模原市中央区)",
            "lat": "35.575489",
            "lng": "139.401587"
        },
        {
            "index": "7",
            "id": "00130113",
            "name": "矢部八幡前",
            "lat": "35.5776",
            "lng": "139.40467"
        },
        {
            "index": "8",
            "id": "00130114",
            "name": "桜美林学園前",
            "lat": "35.579041",
            "lng": "139.407067"
        },
        {
            "index": "9",
            "id": "00130100",
            "name": "矢部",
            "lat": "35.581046",
            "lng": "139.404626"
        },
        {
            "index": "10",
            "id": "00130099",
            "name": "下常盤",
            "lat": "35.58391",
            "lng": "139.402084"
        },
        {
            "index": "11",
            "id": "00130098",
            "name": "中常盤",
            "lat": "35.58494",
            "lng": "139.398751"
        },
        {
            "index": "12",
            "id": "00129202",
            "name": "常盤(町田市)",
            "lat": "35.58571",
            "lng": "139.39541"
        },
        {
            "index": "13",
            "id": "00130097",
            "name": "下馬場",
            "lat": "35.586928",
            "lng": "139.390826"
        },
        {
            "index": "14",
            "id": "00130096",
            "name": "馬場十字路",
            "lat": "35.590028",
            "lng": "139.387628"
        },
        {
            "index": "15",
            "id": "00130126",
            "name": "上馬場(町田市)",
            "lat": "35.591959",
            "lng": "139.386791"
        },
        {
            "index": "16",
            "id": "00130127",
            "name": "見晴らしの丘",
            "lat": "35.594982",
            "lng": "139.388713"
        },
        {
            "index": "17",
            "id": "00130128",
            "name": "小山ヶ丘一丁目",
            "lat": "35.596345",
            "lng": "139.38639"
        },
        {
            "index": "18",
            "id": "00130129",
            "name": "上中村(町田市)",
            "lat": "35.598177",
            "lng": "139.383147"
        },
        {
            "index": "19",
            "id": "00130132",
            "name": "多摩境通り北",
            "lat": "35.599786",
            "lng": "139.381948"
        },
        {
            "index": "20",
            "id": "00130122",
            "name": "神奈中多摩車庫",
            "lat": "35.602234",
            "lng": "139.383671"
        }
    ],
    "route_url": "https://www.kanachu.co.jp/dia/route/index/cid:0000800717/"
}
