{
    "system": "い20",
    "busstops": [
        {
            "index": "1",
            "id": "00126932",
            "name": "いずみ野駅",
            "lat": "35.430253",
            "lng": "139.494351"
        },
        {
            "index": "2",
            "id": "00126940",
            "name": "グリーンハイム前",
            "lat": "35.432482",
            "lng": "139.494099"
        },
        {
            "index": "3",
            "id": "00126939",
            "name": "松陽高校前",
            "lat": "35.43746",
            "lng": "139.495709"
        },
        {
            "index": "4",
            "id": "00130216",
            "name": "阿久和団地入口",
            "lat": "35.439053",
            "lng": "139.497355"
        },
        {
            "index": "5",
            "id": "00130217",
            "name": "阿久和団地東",
            "lat": "35.439711",
            "lng": "139.49966"
        },
        {
            "index": "6",
            "id": "00130218",
            "name": "阿久和団地北",
            "lat": "35.440542",
            "lng": "139.498217"
        },
        {
            "index": "7",
            "id": "00126952",
            "name": "蟹沢公園前",
            "lat": "35.442426",
            "lng": "139.497415"
        },
        {
            "index": "8",
            "id": "00126953",
            "name": "阿久和団地西",
            "lat": "35.441182",
            "lng": "139.495269"
        },
        {
            "index": "9",
            "id": "00126951",
            "name": "集会所前(横浜市瀬谷区)",
            "lat": "35.439423",
            "lng": "139.496508"
        },
        {
            "index": "10",
            "id": "00126939",
            "name": "松陽高校前",
            "lat": "35.43746",
            "lng": "139.495709"
        },
        {
            "index": "11",
            "id": "00126940",
            "name": "グリーンハイム前",
            "lat": "35.432495",
            "lng": "139.494255"
        },
        {
            "index": "12",
            "id": "00126932",
            "name": "いずみ野駅",
            "lat": "35.429901",
            "lng": "139.494869"
        }
    ],
    "route_url": "https://www.kanachu.co.jp/dia/route/index/cid:0000800407/"
}
