{
    "system": "港61",
    "busstops": [
        {
            "index": "1",
            "id": "00025535",
            "name": "横浜駅東口",
            "lat": "35.46563",
            "lng": "139.625329"
        },
        {
            "index": "2",
            "id": "00102695",
            "name": "高島町",
            "lat": "35.458601",
            "lng": "139.624409"
        },
        {
            "index": "3",
            "id": "00102923",
            "name": "花咲橋",
            "lat": "35.455785",
            "lng": "139.626667"
        },
        {
            "index": "4",
            "id": "00103214",
            "name": "雪見橋",
            "lat": "35.454557",
            "lng": "139.627644"
        },
        {
            "index": "5",
            "id": "00103182",
            "name": "紅葉坂",
            "lat": "35.452136",
            "lng": "139.629602"
        },
        {
            "index": "6",
            "id": "00102541",
            "name": "桜木町駅前",
            "lat": "35.451881",
            "lng": "139.632091"
        },
        {
            "index": "7",
            "id": "00102945",
            "name": "横浜市役所前",
            "lat": "35.44992",
            "lng": "139.634986"
        },
        {
            "index": "8",
            "id": "00103058",
            "name": "本町四丁目(横浜市中区)",
            "lat": "35.448666",
            "lng": "139.638182"
        },
        {
            "index": "9",
            "id": "00102323",
            "name": "尾上町(横浜市中区)",
            "lat": "35.446079",
            "lng": "139.636242"
        },
        {
            "index": "10",
            "id": "00102910",
            "name": "羽衣町(横浜市中区)",
            "lat": "35.443786",
            "lng": "139.633671"
        },
        {
            "index": "11",
            "id": "00102725",
            "name": "長者町五丁目",
            "lat": "35.442777",
            "lng": "139.632389"
        },
        {
            "index": "12",
            "id": "00102204",
            "name": "曙町(横浜市中区)",
            "lat": "35.440544",
            "lng": "139.6291"
        },
        {
            "index": "13",
            "id": "00103225",
            "name": "横浜橋",
            "lat": "35.439738",
            "lng": "139.627845"
        },
        {
            "index": "14",
            "id": "00102928",
            "name": "阪東橋",
            "lat": "35.438501",
            "lng": "139.625595"
        },
        {
            "index": "15",
            "id": "00103232",
            "name": "吉野町一丁目",
            "lat": "35.435843",
            "lng": "139.620525"
        },
        {
            "index": "16",
            "id": "00103231",
            "name": "吉野町駅前",
            "lat": "35.435108",
            "lng": "139.617884"
        },
        {
            "index": "17",
            "id": "00102302",
            "name": "お三の宮",
            "lat": "35.433826",
            "lng": "139.6152"
        },
        {
            "index": "18",
            "id": "00103139",
            "name": "宮元町一丁目",
            "lat": "35.432296",
            "lng": "139.613458"
        },
        {
            "index": "19",
            "id": "00103093",
            "name": "蒔田駅前",
            "lat": "35.429855",
            "lng": "139.610059"
        },
        {
            "index": "20",
            "id": "00102795",
            "name": "通町一丁目",
            "lat": "35.427106",
            "lng": "139.605561"
        },
        {
            "index": "21",
            "id": "00102796",
            "name": "通町三丁目",
            "lat": "35.426032",
            "lng": "139.603948"
        },
        {
            "index": "22",
            "id": "00102458",
            "name": "弘明寺",
            "lat": "35.423422",
            "lng": "139.602265"
        },
        {
            "index": "23",
            "id": "00103127",
            "name": "南小学校前(横浜市南区)",
            "lat": "35.41814",
            "lng": "139.599471"
        },
        {
            "index": "24",
            "id": "00103166",
            "name": "向田橋",
            "lat": "35.41657",
            "lng": "139.598596"
        },
        {
            "index": "25",
            "id": "00102507",
            "name": "越戸橋(横浜市港南区)",
            "lat": "35.414935",
            "lng": "139.597877"
        },
        {
            "index": "26",
            "id": "00102535",
            "name": "最戸橋",
            "lat": "35.413348",
            "lng": "139.597266"
        },
        {
            "index": "27",
            "id": "00102366",
            "name": "上大岡駅",
            "lat": "35.407599",
            "lng": "139.596525"
        },
        {
            "index": "28",
            "id": "00102671",
            "name": "関の下",
            "lat": "35.405298",
            "lng": "139.595117"
        },
        {
            "index": "29",
            "id": "00126558",
            "name": "笹下港南中央通り",
            "lat": "35.402548",
            "lng": "139.593365"
        },
        {
            "index": "30",
            "id": "00102499",
            "name": "港南区総合庁舎前",
            "lat": "35.400969",
            "lng": "139.590916"
        },
        {
            "index": "31",
            "id": "00103230",
            "name": "吉原(横浜市港南区)",
            "lat": "35.398472",
            "lng": "139.587939"
        },
        {
            "index": "32",
            "id": "00102633",
            "name": "新吉原橋",
            "lat": "35.394749",
            "lng": "139.585726"
        },
        {
            "index": "33",
            "id": "00102958",
            "name": "日野公園墓地入口",
            "lat": "35.393143",
            "lng": "139.58406"
        },
        {
            "index": "34",
            "id": "00102994",
            "name": "日野中央公園入口",
            "lat": "35.390789",
            "lng": "139.582776"
        },
        {
            "index": "35",
            "id": "00102955",
            "name": "日野小学校前(横浜市港南区)",
            "lat": "35.388144",
            "lng": "139.582025"
        },
        {
            "index": "36",
            "id": "00102954",
            "name": "日野(横浜市港南区)",
            "lat": "35.384724",
            "lng": "139.579954"
        },
        {
            "index": "37",
            "id": "00102574",
            "name": "清水橋(横浜市港南区)",
            "lat": "35.382001",
            "lng": "139.577894"
        },
        {
            "index": "38",
            "id": "00102495",
            "name": "港南台入口",
            "lat": "35.379654",
            "lng": "139.578316"
        },
        {
            "index": "39",
            "id": "00025554",
            "name": "港南台駅",
            "lat": "35.375136",
            "lng": "139.576877"
        }
    ],
    "route_url": "https://www.kanachu.co.jp/dia/route/index/cid:0000803429/"
}
