{
    "system": "",
    "busstops": [
        {
            "index": "1",
            "id": "00019296",
            "name": "若葉台中央(横浜市旭区)",
            "lat": "35.506664",
            "lng": "139.49819"
        },
        {
            "index": "2",
            "id": "00019297",
            "name": "若葉台車庫前",
            "lat": "35.509036",
            "lng": "139.500376"
        },
        {
            "index": "3",
            "id": "00019298",
            "name": "霧が丘高校前",
            "lat": "35.510308",
            "lng": "139.50291"
        },
        {
            "index": "4",
            "id": "00019299",
            "name": "霧が丘センター前",
            "lat": "35.512621",
            "lng": "139.503279"
        },
        {
            "index": "5",
            "id": "00019300",
            "name": "郵便局前(横浜市緑区)",
            "lat": "35.514075",
            "lng": "139.506666"
        },
        {
            "index": "6",
            "id": "00019301",
            "name": "萱場公園入口",
            "lat": "35.516614",
            "lng": "139.507932"
        },
        {
            "index": "7",
            "id": "00019302",
            "name": "遊水池前(横浜市緑区)",
            "lat": "35.519087",
            "lng": "139.507578"
        },
        {
            "index": "8",
            "id": "00019303",
            "name": "中山谷(横浜市緑区)",
            "lat": "35.52098",
            "lng": "139.507835"
        },
        {
            "index": "9",
            "id": "00019304",
            "name": "十日市場",
            "lat": "35.524444",
            "lng": "139.510729"
        },
        {
            "index": "10",
            "id": "00019305",
            "name": "十日市場駅",
            "lat": "35.526159",
            "lng": "139.516452"
        }
    ],
    "route_url": "https://www.kanachu.co.jp/dia/route/index/cid:0000802189/"
}
