{
    "system": "茅33",
    "busstops": [
        {
            "index": "1",
            "id": "00127260",
            "name": "浜見平団地",
            "lat": "35.321859",
            "lng": "139.383529"
        },
        {
            "index": "2",
            "id": "00127259",
            "name": "柳島(茅ケ崎市)",
            "lat": "35.325426",
            "lng": "139.383336"
        },
        {
            "index": "3",
            "id": "00127258",
            "name": "松尾(茅ケ崎市)",
            "lat": "35.326391",
            "lng": "139.385535"
        },
        {
            "index": "4",
            "id": "00127315",
            "name": "松尾入口",
            "lat": "35.327",
            "lng": "139.387629"
        },
        {
            "index": "5",
            "id": "00127257",
            "name": "団地北口(茅ケ崎市)",
            "lat": "35.325736",
            "lng": "139.388615"
        },
        {
            "index": "6",
            "id": "00127256",
            "name": "団地中央(茅ケ崎市)",
            "lat": "35.32257",
            "lng": "139.389045"
        },
        {
            "index": "7",
            "id": "00127253",
            "name": "仲町(茅ケ崎市)",
            "lat": "35.322947",
            "lng": "139.392602"
        },
        {
            "index": "8",
            "id": "00127310",
            "name": "中海岸四丁目",
            "lat": "35.323858",
            "lng": "139.397811"
        },
        {
            "index": "9",
            "id": "00127309",
            "name": "中海岸",
            "lat": "35.324317",
            "lng": "139.402065"
        },
        {
            "index": "10",
            "id": "00127221",
            "name": "会館前(茅ケ崎市)",
            "lat": "35.324757",
            "lng": "139.407359"
        },
        {
            "index": "11",
            "id": "00127220",
            "name": "幸町(茅ケ崎市)",
            "lat": "35.32859",
            "lng": "139.40744"
        },
        {
            "index": "12",
            "id": "00127219",
            "name": "茅ヶ崎駅南口",
            "lat": "35.329954",
            "lng": "139.406796"
        }
    ],
    "route_url": "https://www.kanachu.co.jp/dia/route/index/cid:0000800891/"
}
