{
    "system": "善02",
    "busstops": [
        {
            "index": "1",
            "id": "00127073",
            "name": "善行駅",
            "lat": "35.363136",
            "lng": "139.47303"
        },
        {
            "index": "2",
            "id": "00127072",
            "name": "善行二丁目",
            "lat": "35.364167",
            "lng": "139.470654"
        },
        {
            "index": "3",
            "id": "00127101",
            "name": "茅山(藤沢市)",
            "lat": "35.361081",
            "lng": "139.468012"
        },
        {
            "index": "4",
            "id": "00127102",
            "name": "石原谷",
            "lat": "35.357716",
            "lng": "139.467753"
        },
        {
            "index": "5",
            "id": "00127066",
            "name": "関東航空前",
            "lat": "35.356101",
            "lng": "139.467604"
        },
        {
            "index": "6",
            "id": "00127103",
            "name": "中郷(藤沢市)",
            "lat": "35.354368",
            "lng": "139.465721"
        },
        {
            "index": "7",
            "id": "00127104",
            "name": "卸売市場前(藤沢市)",
            "lat": "35.354581",
            "lng": "139.463217"
        },
        {
            "index": "8",
            "id": "00127100",
            "name": "老人センター(藤沢市)",
            "lat": "35.354051",
            "lng": "139.461738"
        }
    ],
    "route_url": "https://www.kanachu.co.jp/dia/route/index/cid:0000801321/"
}
