{
    "system": "津03",
    "busstops": [
        {
            "index": "1",
            "id": "00019224",
            "name": "青葉台駅",
            "lat": "35.543994",
            "lng": "139.516665"
        },
        {
            "index": "2",
            "id": "00019250",
            "name": "榎が丘",
            "lat": "35.543065",
            "lng": "139.512493"
        },
        {
            "index": "3",
            "id": "00019249",
            "name": "榎が丘小学校前",
            "lat": "35.543184",
            "lng": "139.508641"
        },
        {
            "index": "4",
            "id": "00019248",
            "name": "椎木地蔵尊入口",
            "lat": "35.543655",
            "lng": "139.505954"
        },
        {
            "index": "5",
            "id": "00019247",
            "name": "松風台(横浜市青葉区)",
            "lat": "35.54676",
            "lng": "139.50279"
        },
        {
            "index": "6",
            "id": "00019246",
            "name": "桂台遊水池前",
            "lat": "35.546348",
            "lng": "139.501277"
        },
        {
            "index": "7",
            "id": "00019245",
            "name": "苗万坂",
            "lat": "35.544427",
            "lng": "139.498552"
        },
        {
            "index": "8",
            "id": "00019206",
            "name": "中恩田橋",
            "lat": "35.542736",
            "lng": "139.497119"
        },
        {
            "index": "9",
            "id": "00019244",
            "name": "杉山神社前(横浜市青葉区)",
            "lat": "35.54131",
            "lng": "139.493118"
        },
        {
            "index": "10",
            "id": "00019243",
            "name": "堀の内(横浜市青葉区)",
            "lat": "35.538893",
            "lng": "139.490744"
        },
        {
            "index": "11",
            "id": "00130357",
            "name": "長津田三丁目",
            "lat": "35.534754",
            "lng": "139.494636"
        },
        {
            "index": "12",
            "id": "00130356",
            "name": "長津田駅北口",
            "lat": "35.532257",
            "lng": "139.496578"
        }
    ],
    "route_url": "https://www.kanachu.co.jp/dia/route/index/cid:0000803149/"
}
