{
    "system": "ー",
    "busstops": [
        {
            "index": "1",
            "id": "00114295",
            "name": "田村車庫",
            "lat": "35.376016",
            "lng": "139.358556"
        },
        {
            "index": "2",
            "id": "00127616",
            "name": "横内四ツ角",
            "lat": "35.375729",
            "lng": "139.35277"
        },
        {
            "index": "3",
            "id": "00127615",
            "name": "横内公民館入口",
            "lat": "35.373137",
            "lng": "139.350886"
        },
        {
            "index": "4",
            "id": "00127614",
            "name": "横内下",
            "lat": "35.370646",
            "lng": "139.350394"
        },
        {
            "index": "5",
            "id": "00127613",
            "name": "横内団地前",
            "lat": "35.365887",
            "lng": "139.349995"
        },
        {
            "index": "6",
            "id": "00127612",
            "name": "今里(平塚市)",
            "lat": "35.362052",
            "lng": "139.35114"
        },
        {
            "index": "7",
            "id": "00127611",
            "name": "坂口(平塚市)",
            "lat": "35.360413",
            "lng": "139.351043"
        },
        {
            "index": "8",
            "id": "00130538",
            "name": "保健センター",
            "lat": "35.359178",
            "lng": "139.341927"
        },
        {
            "index": "9",
            "id": "00127630",
            "name": "北新町",
            "lat": "35.347149",
            "lng": "139.344198"
        },
        {
            "index": "10",
            "id": "00127601",
            "name": "平塚球場",
            "lat": "35.345337",
            "lng": "139.344604"
        },
        {
            "index": "11",
            "id": "00127600",
            "name": "総合公園(平塚市)",
            "lat": "35.341195",
            "lng": "139.345521"
        },
        {
            "index": "12",
            "id": "00127598",
            "name": "江陽中学校前(平塚市)",
            "lat": "35.335617",
            "lng": "139.346665"
        },
        {
            "index": "13",
            "id": "00130540",
            "name": "平塚市役所",
            "lat": "35.334716",
            "lng": "139.349182"
        },
        {
            "index": "14",
            "id": "00127644",
            "name": "コンフォール平塚前",
            "lat": "35.337186",
            "lng": "139.350899"
        },
        {
            "index": "15",
            "id": "00130539",
            "name": "文化公園入口",
            "lat": "35.337921",
            "lng": "139.350185"
        },
        {
            "index": "16",
            "id": "00128222",
            "name": "共済病院前総合公園西",
            "lat": "35.338752",
            "lng": "139.337086"
        },
        {
            "index": "17",
            "id": "00127557",
            "name": "江南高校前",
            "lat": "35.337222",
            "lng": "139.33376"
        },
        {
            "index": "18",
            "id": "00127560",
            "name": "南原土手",
            "lat": "35.339983",
            "lng": "139.323446"
        },
        {
            "index": "19",
            "id": "00127741",
            "name": "纒入口",
            "lat": "35.341589",
            "lng": "139.320418"
        },
        {
            "index": "20",
            "id": "00127743",
            "name": "纒公民館前",
            "lat": "35.344082",
            "lng": "139.311007"
        },
        {
            "index": "21",
            "id": "00130542",
            "name": "西部福祉会館",
            "lat": "35.345051",
            "lng": "139.305736"
        },
        {
            "index": "22",
            "id": "00127686",
            "name": "北河内(平塚市)",
            "lat": "35.339732",
            "lng": "139.309039"
        },
        {
            "index": "23",
            "id": "00127577",
            "name": "勝原小学校前(平塚市)",
            "lat": "35.334324",
            "lng": "139.307331"
        },
        {
            "index": "24",
            "id": "00127578",
            "name": "高村団地",
            "lat": "35.332755",
            "lng": "139.308063"
        },
        {
            "index": "25",
            "id": "00127534",
            "name": "下万田",
            "lat": "35.328678",
            "lng": "139.310969"
        },
        {
            "index": "26",
            "id": "00127533",
            "name": "上山下(平塚市)",
            "lat": "35.328372",
            "lng": "139.313984"
        },
        {
            "index": "27",
            "id": "00127532",
            "name": "山下(平塚市)",
            "lat": "35.326827",
            "lng": "139.31919"
        }
    ],
    "route_url": "https://www.kanachu.co.jp/dia/route/index/cid:0000803939/"
}
