{
    "system": "さ02",
    "busstops": [
        {
            "index": "1",
            "id": "00129897",
            "name": "吉岡工業団地",
            "lat": "35.424674",
            "lng": "139.421491"
        },
        {
            "index": "2",
            "id": "00129898",
            "name": "団地中央(綾瀬市)",
            "lat": "35.423436",
            "lng": "139.425899"
        },
        {
            "index": "3",
            "id": "00129844",
            "name": "吉岡芝原",
            "lat": "35.424779",
            "lng": "139.428635"
        },
        {
            "index": "4",
            "id": "00129862",
            "name": "春日原(綾瀬市)",
            "lat": "35.428409",
            "lng": "139.432004"
        },
        {
            "index": "5",
            "id": "00129861",
            "name": "市民文化センター前(綾瀬市)",
            "lat": "35.433909",
            "lng": "139.429061"
        },
        {
            "index": "6",
            "id": "00130000",
            "name": "綾瀬市役所",
            "lat": "35.437713",
            "lng": "139.426688"
        },
        {
            "index": "7",
            "id": "00129860",
            "name": "綾瀬タウンヒルズ前",
            "lat": "35.437193",
            "lng": "139.428562"
        },
        {
            "index": "8",
            "id": "00129859",
            "name": "中郷(綾瀬市)",
            "lat": "35.439112",
            "lng": "139.431946"
        },
        {
            "index": "9",
            "id": "00129992",
            "name": "与蔵山下",
            "lat": "35.441032",
            "lng": "139.437729"
        },
        {
            "index": "10",
            "id": "00129991",
            "name": "綾瀬工業団地入口",
            "lat": "35.442475",
            "lng": "139.437867"
        },
        {
            "index": "11",
            "id": "00129999",
            "name": "本郷(綾瀬市)",
            "lat": "35.443105",
            "lng": "139.434988"
        },
        {
            "index": "12",
            "id": "00129863",
            "name": "上深谷",
            "lat": "35.444061",
            "lng": "139.432149"
        },
        {
            "index": "13",
            "id": "00129864",
            "name": "観音入口",
            "lat": "35.44969",
            "lng": "139.429837"
        },
        {
            "index": "14",
            "id": "00129865",
            "name": "寺尾(綾瀬市)",
            "lat": "35.454106",
            "lng": "139.428637"
        },
        {
            "index": "15",
            "id": "00129866",
            "name": "綾北小学校前",
            "lat": "35.457976",
            "lng": "139.426196"
        },
        {
            "index": "16",
            "id": "00129867",
            "name": "子ノ神(綾瀬市)",
            "lat": "35.460022",
            "lng": "139.425048"
        },
        {
            "index": "17",
            "id": "00129868",
            "name": "寺尾峰",
            "lat": "35.462804",
            "lng": "139.423713"
        },
        {
            "index": "18",
            "id": "00129869",
            "name": "共ヶ丘",
            "lat": "35.465174",
            "lng": "139.421688"
        },
        {
            "index": "19",
            "id": "00129870",
            "name": "大塚本町",
            "lat": "35.468498",
            "lng": "139.421717"
        },
        {
            "index": "20",
            "id": "00129871",
            "name": "大塚上町",
            "lat": "35.471182",
            "lng": "139.425709"
        },
        {
            "index": "21",
            "id": "00129872",
            "name": "さがみ野駅",
            "lat": "35.471161",
            "lng": "139.428661"
        }
    ],
    "route_url": "https://www.kanachu.co.jp/dia/route/index/cid:0000800539/"
}
