{
    "system": "東16",
    "busstops": [
        {
            "index": "1",
            "id": "00126664",
            "name": "東戸塚駅西口",
            "lat": "35.430417",
            "lng": "139.55582"
        },
        {
            "index": "2",
            "id": "00130478",
            "name": "川上インター前",
            "lat": "35.429914",
            "lng": "139.551257"
        },
        {
            "index": "3",
            "id": "00130479",
            "name": "資源循環局前",
            "lat": "35.428247",
            "lng": "139.547049"
        },
        {
            "index": "4",
            "id": "00126650",
            "name": "川上小学校前(横浜市戸塚区)",
            "lat": "35.427317",
            "lng": "139.545182"
        },
        {
            "index": "5",
            "id": "00126651",
            "name": "公園前(横浜市戸塚区)",
            "lat": "35.427884",
            "lng": "139.542076"
        },
        {
            "index": "6",
            "id": "00126652",
            "name": "妙法寺(横浜市戸塚区)",
            "lat": "35.429178",
            "lng": "139.540147"
        },
        {
            "index": "7",
            "id": "00126719",
            "name": "名瀬小学校入口",
            "lat": "35.431641",
            "lng": "139.539705"
        },
        {
            "index": "8",
            "id": "00126720",
            "name": "市営第二住宅入口",
            "lat": "35.43302",
            "lng": "139.541041"
        },
        {
            "index": "9",
            "id": "00126721",
            "name": "名瀬スポーツ公園入口",
            "lat": "35.434634",
            "lng": "139.542405"
        },
        {
            "index": "10",
            "id": "00126722",
            "name": "新戸塚病院前",
            "lat": "35.434356",
            "lng": "139.544035"
        },
        {
            "index": "11",
            "id": "00126723",
            "name": "名瀬ホーム前",
            "lat": "35.432948",
            "lng": "139.544522"
        },
        {
            "index": "12",
            "id": "00126724",
            "name": "ネオポリス公園",
            "lat": "35.431498",
            "lng": "139.543228"
        },
        {
            "index": "13",
            "id": "00126725",
            "name": "公園前商店街入口",
            "lat": "35.429651",
            "lng": "139.54403"
        },
        {
            "index": "14",
            "id": "00126651",
            "name": "公園前(横浜市戸塚区)",
            "lat": "35.427907",
            "lng": "139.542717"
        },
        {
            "index": "15",
            "id": "00130479",
            "name": "資源循環局前",
            "lat": "35.428249",
            "lng": "139.54677"
        },
        {
            "index": "16",
            "id": "00130478",
            "name": "川上インター前",
            "lat": "35.42927",
            "lng": "139.549275"
        },
        {
            "index": "17",
            "id": "00126664",
            "name": "東戸塚駅西口",
            "lat": "35.430423",
            "lng": "139.555879"
        }
    ],
    "route_url": "https://www.kanachu.co.jp/dia/route/index/cid:0000802522/"
}
