{
    "system": "下15",
    "busstops": [
        {
            "index": "1",
            "id": "00126822",
            "name": "俣野公園・横浜薬大前",
            "lat": "35.385149",
            "lng": "139.494901"
        },
        {
            "index": "2",
            "id": "00126964",
            "name": "深谷台小学校入口",
            "lat": "35.389212",
            "lng": "139.497259"
        },
        {
            "index": "3",
            "id": "00126963",
            "name": "深谷消防出張所西側",
            "lat": "35.389985",
            "lng": "139.496079"
        },
        {
            "index": "4",
            "id": "00126962",
            "name": "アカシア公園入口",
            "lat": "35.391964",
            "lng": "139.492534"
        },
        {
            "index": "5",
            "id": "00126961",
            "name": "いずみ台",
            "lat": "35.392781",
            "lng": "139.491051"
        },
        {
            "index": "6",
            "id": "00126960",
            "name": "密蔵院前",
            "lat": "35.396171",
            "lng": "139.486329"
        },
        {
            "index": "7",
            "id": "00126959",
            "name": "赤坂橋(横浜市泉区)",
            "lat": "35.398897",
            "lng": "139.485134"
        },
        {
            "index": "8",
            "id": "00130532",
            "name": "下飯田駅",
            "lat": "35.403539",
            "lng": "139.4828"
        }
    ],
    "route_url": "https://www.kanachu.co.jp/dia/route/index/cid:0000803566/"
}
