{
    "system": "藤40",
    "busstops": [
        {
            "index": "1",
            "id": "00129948",
            "name": "湘南ライフタウン",
            "lat": "35.375056",
            "lng": "139.43284"
        },
        {
            "index": "2",
            "id": "00129957",
            "name": "小出一本松",
            "lat": "35.372898",
            "lng": "139.42994"
        },
        {
            "index": "3",
            "id": "00129958",
            "name": "大辻(藤沢市)",
            "lat": "35.371017",
            "lng": "139.42868"
        },
        {
            "index": "4",
            "id": "00129959",
            "name": "丸山大辻",
            "lat": "35.370288",
            "lng": "139.428865"
        },
        {
            "index": "5",
            "id": "00129960",
            "name": "ライフタウン入口",
            "lat": "35.368816",
            "lng": "139.431643"
        },
        {
            "index": "6",
            "id": "00129963",
            "name": "堤羽根沢",
            "lat": "35.366866",
            "lng": "139.434262"
        },
        {
            "index": "7",
            "id": "00129962",
            "name": "湘南カントリークラブ前",
            "lat": "35.364866",
            "lng": "139.436563"
        },
        {
            "index": "8",
            "id": "00129961",
            "name": "羽根沢",
            "lat": "35.364356",
            "lng": "139.440155"
        },
        {
            "index": "9",
            "id": "00129942",
            "name": "大庭小学校",
            "lat": "35.363322",
            "lng": "139.44549"
        },
        {
            "index": "10",
            "id": "00129941",
            "name": "小糸",
            "lat": "35.360309",
            "lng": "139.445859"
        },
        {
            "index": "11",
            "id": "00129970",
            "name": "城下(藤沢市)",
            "lat": "35.3599",
            "lng": "139.449089"
        },
        {
            "index": "12",
            "id": "00127057",
            "name": "舟地蔵",
            "lat": "35.358433",
            "lng": "139.451219"
        },
        {
            "index": "13",
            "id": "00127056",
            "name": "大六天(藤沢市)",
            "lat": "35.354066",
            "lng": "139.454343"
        },
        {
            "index": "14",
            "id": "00127055",
            "name": "明治小学校前",
            "lat": "35.349103",
            "lng": "139.459201"
        },
        {
            "index": "15",
            "id": "00127054",
            "name": "羽鳥(藤沢市)",
            "lat": "35.347252",
            "lng": "139.461438"
        },
        {
            "index": "16",
            "id": "00127053",
            "name": "メルシャン前",
            "lat": "35.346547",
            "lng": "139.463538"
        },
        {
            "index": "17",
            "id": "00127052",
            "name": "引地橋",
            "lat": "35.347519",
            "lng": "139.467788"
        },
        {
            "index": "18",
            "id": "00127051",
            "name": "一中入口(藤沢市)",
            "lat": "35.347202",
            "lng": "139.469854"
        },
        {
            "index": "19",
            "id": "00127050",
            "name": "湘南高校前",
            "lat": "35.346677",
            "lng": "139.4731"
        },
        {
            "index": "20",
            "id": "00127049",
            "name": "台町(藤沢市)",
            "lat": "35.347419",
            "lng": "139.476887"
        },
        {
            "index": "21",
            "id": "00127012",
            "name": "白旗交差点",
            "lat": "35.347414",
            "lng": "139.478581"
        },
        {
            "index": "22",
            "id": "00127109",
            "name": "本町小学校前(藤沢市)",
            "lat": "35.345294",
            "lng": "139.479986"
        },
        {
            "index": "23",
            "id": "00127110",
            "name": "南仲通り二丁目",
            "lat": "35.343964",
            "lng": "139.481279"
        },
        {
            "index": "24",
            "id": "00126973",
            "name": "南仲通り",
            "lat": "35.341886",
            "lng": "139.48157"
        },
        {
            "index": "25",
            "id": "00126972",
            "name": "相生町(藤沢市)",
            "lat": "35.340664",
            "lng": "139.481523"
        },
        {
            "index": "26",
            "id": "00126971",
            "name": "三富士町",
            "lat": "35.339451",
            "lng": "139.484576"
        },
        {
            "index": "27",
            "id": "00126970",
            "name": "藤沢駅北口",
            "lat": "35.339374",
            "lng": "139.488059"
        }
    ],
    "route_url": "https://www.kanachu.co.jp/dia/route/index/cid:0000803432/"
}
