{
    "system": "橋30",
    "busstops": [
        {
            "index": "1",
            "id": "00130172",
            "name": "相模川自然の村",
            "lat": "35.578536",
            "lng": "139.307306"
        },
        {
            "index": "2",
            "id": "00130171",
            "name": "渓松園前",
            "lat": "35.575787",
            "lng": "139.313393"
        },
        {
            "index": "3",
            "id": "00130170",
            "name": "中の郷(相模原市緑区)",
            "lat": "35.574673",
            "lng": "139.316825"
        },
        {
            "index": "4",
            "id": "00130169",
            "name": "上大島南",
            "lat": "35.577278",
            "lng": "139.315612"
        },
        {
            "index": "5",
            "id": "00130176",
            "name": "上大島東",
            "lat": "35.579407",
            "lng": "139.315526"
        },
        {
            "index": "6",
            "id": "00128979",
            "name": "合野原",
            "lat": "35.583388",
            "lng": "139.317455"
        },
        {
            "index": "7",
            "id": "00128978",
            "name": "内出(相模原市緑区)",
            "lat": "35.584975",
            "lng": "139.319184"
        },
        {
            "index": "8",
            "id": "00129128",
            "name": "九沢自治会館前",
            "lat": "35.584336",
            "lng": "139.325878"
        },
        {
            "index": "9",
            "id": "00129104",
            "name": "北公園入口(相模原市緑区)",
            "lat": "35.583426",
            "lng": "139.327836"
        },
        {
            "index": "10",
            "id": "00130168",
            "name": "北公園・ほねごりアリーナ前",
            "lat": "35.584141",
            "lng": "139.328313"
        },
        {
            "index": "11",
            "id": "00130167",
            "name": "北の丘センター",
            "lat": "35.585605",
            "lng": "139.332023"
        },
        {
            "index": "12",
            "id": "00130166",
            "name": "峡の原工業団地",
            "lat": "35.587444",
            "lng": "139.333719"
        },
        {
            "index": "13",
            "id": "00130175",
            "name": "金属団地内郵便局前",
            "lat": "35.587622",
            "lng": "139.336276"
        },
        {
            "index": "14",
            "id": "00130173",
            "name": "ライフタウン東",
            "lat": "35.588483",
            "lng": "139.339567"
        },
        {
            "index": "15",
            "id": "00130174",
            "name": "ライフタウン西口",
            "lat": "35.589347",
            "lng": "139.337812"
        },
        {
            "index": "16",
            "id": "00130165",
            "name": "みのり公園入口",
            "lat": "35.59231",
            "lng": "139.336533"
        },
        {
            "index": "17",
            "id": "00129000",
            "name": "緑区合同庁舎前(相模原市緑区)",
            "lat": "35.595252",
            "lng": "139.33664"
        },
        {
            "index": "18",
            "id": "00128971",
            "name": "橋本二丁目",
            "lat": "35.595382",
            "lng": "139.340567"
        },
        {
            "index": "19",
            "id": "00128970",
            "name": "橋本駅南口",
            "lat": "35.594627",
            "lng": "139.344271"
        }
    ],
    "route_url": "https://www.kanachu.co.jp/dia/route/index/cid:0000803633/"
}
