{
    "system": "下15",
    "busstops": [
        {
            "index": "1",
            "id": "00130532",
            "name": "下飯田駅",
            "lat": "35.4034",
            "lng": "139.482621"
        },
        {
            "index": "2",
            "id": "00126959",
            "name": "赤坂橋(横浜市泉区)",
            "lat": "35.399104",
            "lng": "139.485304"
        },
        {
            "index": "3",
            "id": "00126960",
            "name": "密蔵院前",
            "lat": "35.395656",
            "lng": "139.487071"
        },
        {
            "index": "4",
            "id": "00126961",
            "name": "いずみ台",
            "lat": "35.393227",
            "lng": "139.490639"
        },
        {
            "index": "5",
            "id": "00126962",
            "name": "アカシア公園入口",
            "lat": "35.392148",
            "lng": "139.492567"
        },
        {
            "index": "6",
            "id": "00126963",
            "name": "深谷消防出張所西側",
            "lat": "35.390172",
            "lng": "139.496011"
        },
        {
            "index": "7",
            "id": "00126822",
            "name": "俣野公園・横浜薬大前",
            "lat": "35.385548",
            "lng": "139.494824"
        }
    ],
    "route_url": "https://www.kanachu.co.jp/dia/route/index/cid:0000803568/"
}
