{
    "system": "相12",
    "busstops": [
        {
            "index": "1",
            "id": "00129335",
            "name": "相模原駅南口",
            "lat": "35.580572",
            "lng": "139.371388"
        },
        {
            "index": "2",
            "id": "00128541",
            "name": "相模原三丁目",
            "lat": "35.578863",
            "lng": "139.373152"
        },
        {
            "index": "3",
            "id": "00128540",
            "name": "相模原五丁目",
            "lat": "35.577639",
            "lng": "139.375472"
        },
        {
            "index": "4",
            "id": "00128539",
            "name": "西門前(相模原市中央区)",
            "lat": "35.5768",
            "lng": "139.377076"
        },
        {
            "index": "5",
            "id": "00128538",
            "name": "グリーンプラザ(相模原市中央区)",
            "lat": "35.573995",
            "lng": "139.376352"
        },
        {
            "index": "6",
            "id": "00128537",
            "name": "市役所前(相模原市中央区)",
            "lat": "35.570763",
            "lng": "139.37401"
        },
        {
            "index": "7",
            "id": "00129153",
            "name": "市民会館前(相模原市中央区)",
            "lat": "35.569683",
            "lng": "139.373211"
        },
        {
            "index": "8",
            "id": "00129103",
            "name": "JA相模原市前",
            "lat": "35.566988",
            "lng": "139.371243"
        },
        {
            "index": "9",
            "id": "00129140",
            "name": "高校入口(相模原市中央区)",
            "lat": "35.564417",
            "lng": "139.369338"
        },
        {
            "index": "10",
            "id": "00129254",
            "name": "星が丘住宅前",
            "lat": "35.562587",
            "lng": "139.367987"
        },
        {
            "index": "11",
            "id": "00129294",
            "name": "横山六丁目",
            "lat": "35.559809",
            "lng": "139.365921"
        },
        {
            "index": "12",
            "id": "00129347",
            "name": "上溝",
            "lat": "35.557848",
            "lng": "139.36304"
        }
    ],
    "route_url": "https://www.kanachu.co.jp/dia/route/index/cid:0000802424/"
}
