{
    "system": "鴨02",
    "busstops": [
        {
            "index": "1",
            "id": "00130365",
            "name": "中山車庫",
            "lat": "35.498843",
            "lng": "139.548267"
        },
        {
            "index": "2",
            "id": "00102931",
            "name": "白山高校",
            "lat": "35.498721",
            "lng": "139.549611"
        },
        {
            "index": "3",
            "id": "00102932",
            "name": "白山坂上",
            "lat": "35.500535",
            "lng": "139.551507"
        },
        {
            "index": "4",
            "id": "00102934",
            "name": "白山みどり",
            "lat": "35.502285",
            "lng": "139.553827"
        },
        {
            "index": "5",
            "id": "00102933",
            "name": "白山中央",
            "lat": "35.504431",
            "lng": "139.557582"
        },
        {
            "index": "6",
            "id": "00103268",
            "name": "白山二丁目(横浜市緑区)",
            "lat": "35.505901",
            "lng": "139.55965"
        },
        {
            "index": "7",
            "id": "00102938",
            "name": "白山一丁目(横浜市緑区)",
            "lat": "35.508753",
            "lng": "139.560256"
        },
        {
            "index": "8",
            "id": "00102375",
            "name": "鴨居橋",
            "lat": "35.509494",
            "lng": "139.563137"
        },
        {
            "index": "9",
            "id": "00102376",
            "name": "鴨居駅",
            "lat": "35.51052",
            "lng": "139.56704"
        }
    ],
    "route_url": "https://www.kanachu.co.jp/dia/route/index/cid:0000802226/"
}
