{
    "system": "多61",
    "busstops": [
        {
            "index": "1",
            "id": "00020748",
            "name": "多摩センター駅",
            "lat": "35.624563",
            "lng": "139.424888"
        },
        {
            "index": "2",
            "id": "00020777",
            "name": "多摩郵便局",
            "lat": "35.622098",
            "lng": "139.422567"
        },
        {
            "index": "3",
            "id": "00021530",
            "name": "鶴牧西公園入口",
            "lat": "35.61911",
            "lng": "139.422585"
        },
        {
            "index": "4",
            "id": "00020944",
            "name": "鶴牧三丁目",
            "lat": "35.616221",
            "lng": "139.422198"
        },
        {
            "index": "5",
            "id": "00021031",
            "name": "奈良原公園",
            "lat": "35.614849",
            "lng": "139.419852"
        },
        {
            "index": "6",
            "id": "00021067",
            "name": "南鶴牧小学校",
            "lat": "35.614169",
            "lng": "139.416883"
        },
        {
            "index": "7",
            "id": "00020943",
            "name": "鶴牧五丁目",
            "lat": "35.612131",
            "lng": "139.417759"
        },
        {
            "index": "8",
            "id": "00021076",
            "name": "南野三丁目",
            "lat": "35.608822",
            "lng": "139.423386"
        },
        {
            "index": "9",
            "id": "00021382",
            "name": "落合六丁目",
            "lat": "35.609816",
            "lng": "139.425493"
        },
        {
            "index": "10",
            "id": "00020941",
            "name": "鶴牧センター",
            "lat": "35.611738",
            "lng": "139.424081"
        },
        {
            "index": "11",
            "id": "00021197",
            "name": "富士見通下",
            "lat": "35.613604",
            "lng": "139.42236"
        },
        {
            "index": "12",
            "id": "00020944",
            "name": "鶴牧三丁目",
            "lat": "35.616399",
            "lng": "139.421783"
        },
        {
            "index": "13",
            "id": "00021530",
            "name": "鶴牧西公園入口",
            "lat": "35.618981",
            "lng": "139.422232"
        },
        {
            "index": "14",
            "id": "00020777",
            "name": "多摩郵便局",
            "lat": "35.62207",
            "lng": "139.422187"
        },
        {
            "index": "15",
            "id": "00020748",
            "name": "多摩センター駅",
            "lat": "35.624009",
            "lng": "139.423942"
        }
    ],
    "route_url": "https://www.kanachu.co.jp/dia/route/index/cid:0000803301/"
}
