{
    "system": "黒01",
    "busstops": [
        {
            "index": "1",
            "id": "00127506",
            "name": "湘南大磯病院",
            "lat": "35.309474",
            "lng": "139.277029"
        },
        {
            "index": "2",
            "id": "00127511",
            "name": "湘南大磯住宅入口",
            "lat": "35.31092",
            "lng": "139.27234"
        },
        {
            "index": "3",
            "id": "00127514",
            "name": "国府中学西口",
            "lat": "35.314084",
            "lng": "139.272623"
        },
        {
            "index": "4",
            "id": "00127515",
            "name": "素心学院前",
            "lat": "35.316011",
            "lng": "139.272946"
        },
        {
            "index": "5",
            "id": "00127516",
            "name": "下田(中郡大磯町)",
            "lat": "35.318058",
            "lng": "139.272999"
        },
        {
            "index": "6",
            "id": "00127517",
            "name": "ぼったり",
            "lat": "35.320813",
            "lng": "139.269861"
        },
        {
            "index": "7",
            "id": "00127518",
            "name": "虫窪",
            "lat": "35.323028",
            "lng": "139.267812"
        },
        {
            "index": "8",
            "id": "00127519",
            "name": "天神下(中郡大磯町)",
            "lat": "35.322104",
            "lng": "139.267034"
        },
        {
            "index": "9",
            "id": "00127520",
            "name": "公民館前(中郡大磯町)",
            "lat": "35.321166",
            "lng": "139.265723"
        },
        {
            "index": "10",
            "id": "00127521",
            "name": "舟窪",
            "lat": "35.321054",
            "lng": "139.26285"
        },
        {
            "index": "11",
            "id": "00127522",
            "name": "上舟窪",
            "lat": "35.322003",
            "lng": "139.262442"
        },
        {
            "index": "12",
            "id": "00127523",
            "name": "黒岩入口",
            "lat": "35.323015",
            "lng": "139.259905"
        },
        {
            "index": "13",
            "id": "00127525",
            "name": "西久保(中郡大磯町)",
            "lat": "35.321881",
            "lng": "139.258204"
        },
        {
            "index": "14",
            "id": "00130206",
            "name": "西久保福祉館前",
            "lat": "35.324227",
            "lng": "139.257904"
        },
        {
            "index": "15",
            "id": "00130207",
            "name": "黒岩公民館前",
            "lat": "35.32664",
            "lng": "139.260212"
        },
        {
            "index": "16",
            "id": "00130208",
            "name": "黒岩台",
            "lat": "35.326296",
            "lng": "139.264016"
        }
    ],
    "route_url": "https://www.kanachu.co.jp/dia/route/index/cid:0000804101/"
}
