{
    "system": "中53",
    "busstops": [
        {
            "index": "1",
            "id": "00102756",
            "name": "鶴ヶ峰駅",
            "lat": "35.476228",
            "lng": "139.547972"
        },
        {
            "index": "2",
            "id": "00129720",
            "name": "鶴ヶ峰本町",
            "lat": "35.476406",
            "lng": "139.543471"
        },
        {
            "index": "3",
            "id": "00129719",
            "name": "薬王寺入口",
            "lat": "35.477422",
            "lng": "139.540644"
        },
        {
            "index": "4",
            "id": "00129718",
            "name": "鶴ヶ峰中学校前",
            "lat": "35.479164",
            "lng": "139.537248"
        },
        {
            "index": "5",
            "id": "00129717",
            "name": "今宿小学校入口",
            "lat": "35.481522",
            "lng": "139.532777"
        },
        {
            "index": "6",
            "id": "00129716",
            "name": "今宿(横浜市旭区)",
            "lat": "35.482589",
            "lng": "139.530439"
        },
        {
            "index": "7",
            "id": "00129715",
            "name": "筑池",
            "lat": "35.484144",
            "lng": "139.524902"
        },
        {
            "index": "8",
            "id": "00129714",
            "name": "農協前(横浜市旭区)",
            "lat": "35.485212",
            "lng": "139.523381"
        },
        {
            "index": "9",
            "id": "00129713",
            "name": "都岡町",
            "lat": "35.48654",
            "lng": "139.521512"
        },
        {
            "index": "10",
            "id": "00129712",
            "name": "下宿(横浜市旭区)",
            "lat": "35.488214",
            "lng": "139.519301"
        },
        {
            "index": "11",
            "id": "00129711",
            "name": "川井宿",
            "lat": "35.489686",
            "lng": "139.516608"
        },
        {
            "index": "12",
            "id": "00126584",
            "name": "横丁",
            "lat": "35.49288",
            "lng": "139.516613"
        },
        {
            "index": "13",
            "id": "00126585",
            "name": "笹峰",
            "lat": "35.496915",
            "lng": "139.515462"
        },
        {
            "index": "14",
            "id": "00126586",
            "name": "三保市民の森",
            "lat": "35.502775",
            "lng": "139.514367"
        },
        {
            "index": "15",
            "id": "00126587",
            "name": "梅田谷戸",
            "lat": "35.504503",
            "lng": "139.515761"
        },
        {
            "index": "16",
            "id": "00126588",
            "name": "梅田(横浜市緑区)",
            "lat": "35.506847",
            "lng": "139.517768"
        },
        {
            "index": "17",
            "id": "00126589",
            "name": "坂下(横浜市緑区)",
            "lat": "35.510226",
            "lng": "139.521153"
        },
        {
            "index": "18",
            "id": "00126590",
            "name": "三保橋",
            "lat": "35.511182",
            "lng": "139.524551"
        },
        {
            "index": "19",
            "id": "00126591",
            "name": "薬師谷戸",
            "lat": "35.512448",
            "lng": "139.527058"
        },
        {
            "index": "20",
            "id": "00126592",
            "name": "住宅前(横浜市緑区)",
            "lat": "35.515011",
            "lng": "139.529437"
        },
        {
            "index": "21",
            "id": "00126593",
            "name": "宮根(横浜市緑区)",
            "lat": "35.516166",
            "lng": "139.532805"
        },
        {
            "index": "22",
            "id": "00103123",
            "name": "三保交差点",
            "lat": "35.516231",
            "lng": "139.534904"
        },
        {
            "index": "23",
            "id": "00102701",
            "name": "台村町",
            "lat": "35.514275",
            "lng": "139.537481"
        },
        {
            "index": "24",
            "id": "00102821",
            "name": "中山駅",
            "lat": "35.514143",
            "lng": "139.539771"
        }
    ],
    "route_url": "https://www.kanachu.co.jp/dia/route/index/cid:0000802183/"
}
