{
    "system": "相17",
    "busstops": [
        {
            "index": "1",
            "id": "00129168",
            "name": "水郷田名",
            "lat": "35.546213",
            "lng": "139.330991"
        },
        {
            "index": "2",
            "id": "00130345",
            "name": "ふれあい科学館前",
            "lat": "35.547316",
            "lng": "139.329872"
        },
        {
            "index": "3",
            "id": "00129182",
            "name": "田名坂上",
            "lat": "35.549196",
            "lng": "139.331429"
        },
        {
            "index": "4",
            "id": "00129077",
            "name": "田名バスターミナル",
            "lat": "35.550895",
            "lng": "139.335337"
        },
        {
            "index": "5",
            "id": "00129289",
            "name": "四ツ谷(相模原市中央区)",
            "lat": "35.552581",
            "lng": "139.339405"
        },
        {
            "index": "6",
            "id": "00129184",
            "name": "田名工業団地入口",
            "lat": "35.554689",
            "lng": "139.344142"
        },
        {
            "index": "7",
            "id": "00129072",
            "name": "石橋(相模原市中央区)",
            "lat": "35.556142",
            "lng": "139.350523"
        },
        {
            "index": "8",
            "id": "00129219",
            "name": "鳩川住宅前",
            "lat": "35.556897",
            "lng": "139.354104"
        },
        {
            "index": "9",
            "id": "00129229",
            "name": "日金沢下",
            "lat": "35.559563",
            "lng": "139.357894"
        },
        {
            "index": "10",
            "id": "00129152",
            "name": "グリーンプール入口",
            "lat": "35.564575",
            "lng": "139.360708"
        },
        {
            "index": "11",
            "id": "00129295",
            "name": "横山小学校前(相模原市中央区)",
            "lat": "35.567165",
            "lng": "139.360797"
        },
        {
            "index": "12",
            "id": "00129228",
            "name": "日金沢上",
            "lat": "35.570056",
            "lng": "139.362459"
        },
        {
            "index": "13",
            "id": "00129176",
            "name": "清新中学校入口",
            "lat": "35.572222",
            "lng": "139.364168"
        },
        {
            "index": "14",
            "id": "00129230",
            "name": "グッディプレイス前",
            "lat": "35.574814",
            "lng": "139.366182"
        },
        {
            "index": "15",
            "id": "00129080",
            "name": "さがみ夢大通り",
            "lat": "35.577995",
            "lng": "139.368831"
        },
        {
            "index": "16",
            "id": "00129335",
            "name": "相模原駅南口",
            "lat": "35.580691",
            "lng": "139.371167"
        }
    ],
    "route_url": "https://www.kanachu.co.jp/dia/route/index/cid:0000802416/"
}
