{
    "system": "伊36",
    "busstops": [
        {
            "index": "1",
            "id": "00128127",
            "name": "伊勢原駅北口",
            "lat": "35.395709",
            "lng": "139.312682"
        },
        {
            "index": "2",
            "id": "00128205",
            "name": "電話局前(伊勢原市)",
            "lat": "35.398436",
            "lng": "139.313898"
        },
        {
            "index": "3",
            "id": "00128126",
            "name": "行政センター前(伊勢原市)",
            "lat": "35.402263",
            "lng": "139.313085"
        },
        {
            "index": "4",
            "id": "00130354",
            "name": "市米橋",
            "lat": "35.405927",
            "lng": "139.308984"
        },
        {
            "index": "5",
            "id": "00130355",
            "name": "三本松(伊勢原市)",
            "lat": "35.409233",
            "lng": "139.305336"
        },
        {
            "index": "6",
            "id": "00128174",
            "name": "川上(伊勢原市)",
            "lat": "35.412013",
            "lng": "139.303434"
        },
        {
            "index": "7",
            "id": "00128175",
            "name": "専修大学入口(伊勢原市)",
            "lat": "35.415233",
            "lng": "139.302851"
        },
        {
            "index": "8",
            "id": "00128215",
            "name": "総合運動公園(伊勢原市)",
            "lat": "35.421677",
            "lng": "139.304304"
        },
        {
            "index": "9",
            "id": "00128214",
            "name": "総合運動公園入口",
            "lat": "35.419801",
            "lng": "139.302189"
        },
        {
            "index": "10",
            "id": "00128188",
            "name": "分れ道",
            "lat": "35.424641",
            "lng": "139.301332"
        },
        {
            "index": "11",
            "id": "00128189",
            "name": "日向新田",
            "lat": "35.429507",
            "lng": "139.299007"
        },
        {
            "index": "12",
            "id": "00128190",
            "name": "薬師入口",
            "lat": "35.433019",
            "lng": "139.297949"
        },
        {
            "index": "13",
            "id": "00128191",
            "name": "はつみ坂",
            "lat": "35.435925",
            "lng": "139.299231"
        },
        {
            "index": "14",
            "id": "00128454",
            "name": "日向川",
            "lat": "35.438894",
            "lng": "139.301477"
        },
        {
            "index": "15",
            "id": "00128455",
            "name": "馬場リハビリ入口",
            "lat": "35.442077",
            "lng": "139.298797"
        },
        {
            "index": "16",
            "id": "00128456",
            "name": "神奈川リハビリ",
            "lat": "35.440206",
            "lng": "139.296289"
        },
        {
            "index": "17",
            "id": "00128455",
            "name": "馬場リハビリ入口",
            "lat": "35.442811",
            "lng": "139.298867"
        },
        {
            "index": "18",
            "id": "00128457",
            "name": "七沢温泉入口",
            "lat": "35.444697",
            "lng": "139.29701"
        },
        {
            "index": "19",
            "id": "00128458",
            "name": "七沢病院入口",
            "lat": "35.448058",
            "lng": "139.295696"
        },
        {
            "index": "20",
            "id": "00128459",
            "name": "広沢寺温泉入口",
            "lat": "35.451147",
            "lng": "139.294658"
        },
        {
            "index": "21",
            "id": "00128460",
            "name": "七沢",
            "lat": "35.454632",
            "lng": "139.292956"
        }
    ],
    "route_url": "https://www.kanachu.co.jp/dia/route/index/cid:0000801952/"
}
