{
    "system": "平16",
    "busstops": [
        {
            "index": "1",
            "id": "00127422",
            "name": "平塚駅南口",
            "lat": "35.327079",
            "lng": "139.351748"
        },
        {
            "index": "2",
            "id": "00127423",
            "name": "商工会議所前",
            "lat": "35.323496",
            "lng": "139.352484"
        },
        {
            "index": "3",
            "id": "00127424",
            "name": "教会前(平塚市)",
            "lat": "35.321526",
            "lng": "139.352962"
        },
        {
            "index": "4",
            "id": "00127425",
            "name": "なぎさプロムナード",
            "lat": "35.319697",
            "lng": "139.353369"
        },
        {
            "index": "5",
            "id": "00127426",
            "name": "湘南海岸公園前",
            "lat": "35.317574",
            "lng": "139.353852"
        },
        {
            "index": "6",
            "id": "00127463",
            "name": "袖ヶ浜",
            "lat": "35.315613",
            "lng": "139.348563"
        },
        {
            "index": "7",
            "id": "00127462",
            "name": "八間通り入口",
            "lat": "35.315928",
            "lng": "139.344577"
        },
        {
            "index": "8",
            "id": "00127461",
            "name": "すみれ平",
            "lat": "35.31799",
            "lng": "139.343895"
        },
        {
            "index": "9",
            "id": "00127460",
            "name": "花水小学校前",
            "lat": "35.319675",
            "lng": "139.346068"
        },
        {
            "index": "10",
            "id": "00127453",
            "name": "松風町(平塚市)",
            "lat": "35.319978",
            "lng": "139.348611"
        },
        {
            "index": "11",
            "id": "00127692",
            "name": "松風公園入口",
            "lat": "35.320388",
            "lng": "139.35183"
        },
        {
            "index": "12",
            "id": "00127424",
            "name": "教会前(平塚市)",
            "lat": "35.321548",
            "lng": "139.352977"
        },
        {
            "index": "13",
            "id": "00127423",
            "name": "商工会議所前",
            "lat": "35.323937",
            "lng": "139.352227"
        },
        {
            "index": "14",
            "id": "00127422",
            "name": "平塚駅南口",
            "lat": "35.327218",
            "lng": "139.351132"
        }
    ],
    "route_url": "https://www.kanachu.co.jp/dia/route/index/cid:0000803791/"
}
