{
    "system": "厚44",
    "busstops": [
        {
            "index": "1",
            "id": "00128256",
            "name": "厚木バスセンター",
            "lat": "35.441647",
            "lng": "139.366635"
        },
        {
            "index": "2",
            "id": "00128679",
            "name": "栄町二丁目(厚木市)",
            "lat": "35.439631",
            "lng": "139.355822"
        },
        {
            "index": "3",
            "id": "00128622",
            "name": "恩名公民館前",
            "lat": "35.438708",
            "lng": "139.353063"
        },
        {
            "index": "4",
            "id": "00128503",
            "name": "赤羽根入口",
            "lat": "35.433625",
            "lng": "139.351848"
        },
        {
            "index": "5",
            "id": "00128681",
            "name": "赤羽根中央",
            "lat": "35.435419",
            "lng": "139.349571"
        },
        {
            "index": "6",
            "id": "00128680",
            "name": "温水児童館前",
            "lat": "35.439565",
            "lng": "139.346489"
        },
        {
            "index": "7",
            "id": "00128443",
            "name": "温水",
            "lat": "35.439356",
            "lng": "139.343166"
        },
        {
            "index": "8",
            "id": "00128444",
            "name": "高坪入口",
            "lat": "35.437789",
            "lng": "139.341398"
        },
        {
            "index": "9",
            "id": "00128445",
            "name": "南毛利小学校前",
            "lat": "35.436228",
            "lng": "139.338604"
        },
        {
            "index": "10",
            "id": "00128673",
            "name": "清水(厚木市)",
            "lat": "35.433764",
            "lng": "139.336782"
        },
        {
            "index": "11",
            "id": "00128446",
            "name": "観音坂",
            "lat": "35.433668",
            "lng": "139.333325"
        },
        {
            "index": "12",
            "id": "00128447",
            "name": "上長谷(厚木市)",
            "lat": "35.432797",
            "lng": "139.32641"
        },
        {
            "index": "13",
            "id": "00128448",
            "name": "愛名入口",
            "lat": "35.436038",
            "lng": "139.324547"
        },
        {
            "index": "14",
            "id": "00128515",
            "name": "やまゆり園前(厚木市)",
            "lat": "35.439567",
            "lng": "139.323841"
        },
        {
            "index": "15",
            "id": "00128514",
            "name": "宮地(厚木市)",
            "lat": "35.443256",
            "lng": "139.325941"
        },
        {
            "index": "16",
            "id": "00128516",
            "name": "高松山入口",
            "lat": "35.444309",
            "lng": "139.325571"
        },
        {
            "index": "17",
            "id": "00128644",
            "name": "森の里青山",
            "lat": "35.445898",
            "lng": "139.316336"
        },
        {
            "index": "18",
            "id": "00128519",
            "name": "日産先進技術開発センター前",
            "lat": "35.443501",
            "lng": "139.316929"
        },
        {
            "index": "19",
            "id": "00128518",
            "name": "通信研究所前(厚木市)",
            "lat": "35.441574",
            "lng": "139.31585"
        },
        {
            "index": "20",
            "id": "00128662",
            "name": "森の里センター",
            "lat": "35.445451",
            "lng": "139.310814"
        },
        {
            "index": "21",
            "id": "00128663",
            "name": "厚木西高校",
            "lat": "35.448188",
            "lng": "139.310631"
        },
        {
            "index": "22",
            "id": "00128661",
            "name": "森の里四丁目",
            "lat": "35.450779",
            "lng": "139.308059"
        },
        {
            "index": "23",
            "id": "00128666",
            "name": "森の里五丁目",
            "lat": "35.453605",
            "lng": "139.304564"
        },
        {
            "index": "24",
            "id": "00128649",
            "name": "森の里",
            "lat": "35.455678",
            "lng": "139.304065"
        }
    ],
    "route_url": "https://www.kanachu.co.jp/dia/route/index/cid:0000800845/"
}
