{
    "system": "藤02",
    "busstops": [
        {
            "index": "1",
            "id": "00127048",
            "name": "高山車庫",
            "lat": "35.340064",
            "lng": "139.462791"
        },
        {
            "index": "2",
            "id": "00127042",
            "name": "高山(藤沢市)",
            "lat": "35.341236",
            "lng": "139.462922"
        },
        {
            "index": "3",
            "id": "00127083",
            "name": "NOK前",
            "lat": "35.341636",
            "lng": "139.465188"
        },
        {
            "index": "4",
            "id": "00127082",
            "name": "上村橋",
            "lat": "35.342238",
            "lng": "139.468364"
        },
        {
            "index": "5",
            "id": "00127081",
            "name": "上村(藤沢市)",
            "lat": "35.342625",
            "lng": "139.471188"
        },
        {
            "index": "6",
            "id": "00127080",
            "name": "烏森公園前",
            "lat": "35.342019",
            "lng": "139.473138"
        },
        {
            "index": "7",
            "id": "00127079",
            "name": "湘南高校通り",
            "lat": "35.343136",
            "lng": "139.475054"
        },
        {
            "index": "8",
            "id": "00127078",
            "name": "日本精工北門",
            "lat": "35.342861",
            "lng": "139.476612"
        },
        {
            "index": "9",
            "id": "00127077",
            "name": "養老院前",
            "lat": "35.3413",
            "lng": "139.479846"
        },
        {
            "index": "10",
            "id": "00126972",
            "name": "相生町(藤沢市)",
            "lat": "35.340664",
            "lng": "139.481523"
        },
        {
            "index": "11",
            "id": "00126971",
            "name": "三富士町",
            "lat": "35.339451",
            "lng": "139.484576"
        },
        {
            "index": "12",
            "id": "00126970",
            "name": "藤沢駅北口",
            "lat": "35.339374",
            "lng": "139.488059"
        }
    ],
    "route_url": "https://www.kanachu.co.jp/dia/route/index/cid:0000800241/"
}
