{
    "system": "厚26",
    "busstops": [
        {
            "index": "1",
            "id": "00128651",
            "name": "東京工芸大学",
            "lat": "35.462873",
            "lng": "139.330541"
        },
        {
            "index": "2",
            "id": "00128638",
            "name": "東京工芸大学前",
            "lat": "35.461841",
            "lng": "139.330187"
        },
        {
            "index": "3",
            "id": "00128478",
            "name": "古松台入口",
            "lat": "35.46002",
            "lng": "139.331756"
        },
        {
            "index": "4",
            "id": "00128477",
            "name": "六堂辻",
            "lat": "35.455896",
            "lng": "139.330659"
        },
        {
            "index": "5",
            "id": "00128476",
            "name": "白山(厚木市)",
            "lat": "35.453639",
            "lng": "139.330018"
        },
        {
            "index": "6",
            "id": "00128650",
            "name": "小金",
            "lat": "35.451544",
            "lng": "139.332341"
        },
        {
            "index": "7",
            "id": "00128475",
            "name": "黄金原",
            "lat": "35.449757",
            "lng": "139.337456"
        },
        {
            "index": "8",
            "id": "00128469",
            "name": "緑ヶ丘入口(厚木市)",
            "lat": "35.448374",
            "lng": "139.340807"
        },
        {
            "index": "9",
            "id": "00128468",
            "name": "アンリツ前",
            "lat": "35.447341",
            "lng": "139.343292"
        },
        {
            "index": "10",
            "id": "00128441",
            "name": "日立アステモ前",
            "lat": "35.445621",
            "lng": "139.34728"
        },
        {
            "index": "11",
            "id": "00128440",
            "name": "厚木高校前",
            "lat": "35.444806",
            "lng": "139.352161"
        },
        {
            "index": "12",
            "id": "00128439",
            "name": "合同庁舎前(厚木市)",
            "lat": "35.443887",
            "lng": "139.356824"
        },
        {
            "index": "13",
            "id": "00128396",
            "name": "市役所入口(厚木市)",
            "lat": "35.442124",
            "lng": "139.361848"
        },
        {
            "index": "14",
            "id": "00025684",
            "name": "本厚木駅",
            "lat": "35.440542",
            "lng": "139.363859"
        },
        {
            "index": "15",
            "id": "00128256",
            "name": "厚木バスセンター",
            "lat": "35.441107",
            "lng": "139.36685"
        }
    ],
    "route_url": "https://www.kanachu.co.jp/dia/route/index/cid:0000801701/"
}
