{
    "system": "磯07",
    "busstops": [
        {
            "index": "1",
            "id": "00127714",
            "name": "大磯プリンスホテル",
            "lat": "35.301208",
            "lng": "139.279188"
        },
        {
            "index": "2",
            "id": "00127482",
            "name": "大磯プリンスホテル入口",
            "lat": "35.304582",
            "lng": "139.280563"
        },
        {
            "index": "3",
            "id": "00127481",
            "name": "中丸(中郡大磯町)",
            "lat": "35.304336",
            "lng": "139.285059"
        },
        {
            "index": "4",
            "id": "00127687",
            "name": "城山公園前(中郡大磯町)",
            "lat": "35.304078",
            "lng": "139.291887"
        },
        {
            "index": "5",
            "id": "00127480",
            "name": "八坂神社(中郡大磯町)",
            "lat": "35.305873",
            "lng": "139.297965"
        },
        {
            "index": "6",
            "id": "00127479",
            "name": "白岩大門",
            "lat": "35.306888",
            "lng": "139.302123"
        },
        {
            "index": "7",
            "id": "00127478",
            "name": "統監道",
            "lat": "35.308057",
            "lng": "139.307965"
        },
        {
            "index": "8",
            "id": "00127456",
            "name": "大磯小学校前",
            "lat": "35.308319",
            "lng": "139.312186"
        },
        {
            "index": "9",
            "id": "00127455",
            "name": "大磯駅",
            "lat": "35.310961",
            "lng": "139.313159"
        }
    ],
    "route_url": "https://www.kanachu.co.jp/dia/route/index/cid:0000802879/"
}
