{
    "system": "町27",
    "busstops": [
        {
            "index": "1",
            "id": "00025625",
            "name": "町田バスセンター",
            "lat": "35.543739",
            "lng": "139.444028"
        },
        {
            "index": "2",
            "id": "00129356",
            "name": "町田市役所市民ホール前",
            "lat": "35.547266",
            "lng": "139.438906"
        },
        {
            "index": "3",
            "id": "00129357",
            "name": "第四小学校前(町田市)",
            "lat": "35.550343",
            "lng": "139.438207"
        },
        {
            "index": "4",
            "id": "00129358",
            "name": "森野三丁目",
            "lat": "35.552678",
            "lng": "139.439366"
        },
        {
            "index": "5",
            "id": "00129359",
            "name": "市民病院前(町田市)",
            "lat": "35.555545",
            "lng": "139.435749"
        },
        {
            "index": "6",
            "id": "00129360",
            "name": "浄水場前(町田市)",
            "lat": "35.557661",
            "lng": "139.433249"
        },
        {
            "index": "7",
            "id": "00129361",
            "name": "滝の沢(町田市)",
            "lat": "35.559716",
            "lng": "139.429759"
        },
        {
            "index": "8",
            "id": "00129362",
            "name": "木曽住宅",
            "lat": "35.563788",
            "lng": "139.426096"
        },
        {
            "index": "9",
            "id": "00129363",
            "name": "三家(町田市)",
            "lat": "35.564575",
            "lng": "139.425469"
        },
        {
            "index": "10",
            "id": "00129364",
            "name": "木曽(町田市)",
            "lat": "35.568528",
            "lng": "139.4225"
        },
        {
            "index": "11",
            "id": "00129494",
            "name": "忠生公園入口",
            "lat": "35.571423",
            "lng": "139.420864"
        },
        {
            "index": "12",
            "id": "00129365",
            "name": "上宿(町田市)",
            "lat": "35.574575",
            "lng": "139.418673"
        },
        {
            "index": "13",
            "id": "00129366",
            "name": "下根岸(町田市)",
            "lat": "35.576358",
            "lng": "139.414946"
        },
        {
            "index": "14",
            "id": "00129367",
            "name": "根岸(根岸町/町田市)",
            "lat": "35.577931",
            "lng": "139.414465"
        },
        {
            "index": "15",
            "id": "00129368",
            "name": "馬駈",
            "lat": "35.581523",
            "lng": "139.417805"
        },
        {
            "index": "16",
            "id": "00129369",
            "name": "図師大橋",
            "lat": "35.583191",
            "lng": "139.423435"
        },
        {
            "index": "17",
            "id": "00129407",
            "name": "日影橋",
            "lat": "35.587322",
            "lng": "139.419864"
        },
        {
            "index": "18",
            "id": "00129408",
            "name": "日大三高入口",
            "lat": "35.589307",
            "lng": "139.418652"
        },
        {
            "index": "19",
            "id": "00129409",
            "name": "桜橋(町田市)",
            "lat": "35.59393",
            "lng": "139.413547"
        },
        {
            "index": "20",
            "id": "00129410",
            "name": "大泉寺",
            "lat": "35.596406",
            "lng": "139.410633"
        },
        {
            "index": "21",
            "id": "00129411",
            "name": "山の端",
            "lat": "35.596906",
            "lng": "139.408966"
        },
        {
            "index": "22",
            "id": "00129412",
            "name": "小山田小学校前",
            "lat": "35.596789",
            "lng": "139.404732"
        },
        {
            "index": "23",
            "id": "00130123",
            "name": "押越",
            "lat": "35.597965",
            "lng": "139.402948"
        },
        {
            "index": "24",
            "id": "00129086",
            "name": "小山田(町田市)",
            "lat": "35.599655",
            "lng": "139.400005"
        }
    ],
    "route_url": "https://www.kanachu.co.jp/dia/route/index/cid:0000802475/"
}
