{
    "system": "金25",
    "busstops": [
        {
            "index": "1",
            "id": "00113597",
            "name": "金沢八景駅",
            "lat": "35.331401",
            "lng": "139.620479"
        },
        {
            "index": "2",
            "id": "00130503",
            "name": "金沢八景",
            "lat": "35.330936",
            "lng": "139.621252"
        },
        {
            "index": "3",
            "id": "00113541",
            "name": "六浦橋",
            "lat": "35.327675",
            "lng": "139.619493"
        },
        {
            "index": "4",
            "id": "00113598",
            "name": "上行寺",
            "lat": "35.327988",
            "lng": "139.617606"
        },
        {
            "index": "5",
            "id": "00113599",
            "name": "六浦",
            "lat": "35.327973",
            "lng": "139.615667"
        },
        {
            "index": "6",
            "id": "00113600",
            "name": "大道小学校前",
            "lat": "35.327263",
            "lng": "139.610515"
        },
        {
            "index": "7",
            "id": "00113601",
            "name": "大道(横浜市金沢区)",
            "lat": "35.328306",
            "lng": "139.607841"
        },
        {
            "index": "8",
            "id": "00113602",
            "name": "西大道",
            "lat": "35.328768",
            "lng": "139.604971"
        },
        {
            "index": "9",
            "id": "00113603",
            "name": "住宅前(横浜市金沢区)",
            "lat": "35.328781",
            "lng": "139.604072"
        },
        {
            "index": "10",
            "id": "00113604",
            "name": "大道中学校前",
            "lat": "35.328827",
            "lng": "139.60227"
        },
        {
            "index": "11",
            "id": "00113829",
            "name": "朝比奈",
            "lat": "35.329572",
            "lng": "139.595559"
        },
        {
            "index": "12",
            "id": "00113828",
            "name": "相武隧道",
            "lat": "35.331714",
            "lng": "139.59206"
        },
        {
            "index": "13",
            "id": "00126522",
            "name": "隧道東口",
            "lat": "35.333344",
            "lng": "139.591093"
        },
        {
            "index": "14",
            "id": "00126521",
            "name": "横浜霊園前",
            "lat": "35.339091",
            "lng": "139.584422"
        },
        {
            "index": "15",
            "id": "00126520",
            "name": "森の家前",
            "lat": "35.341199",
            "lng": "139.582194"
        },
        {
            "index": "16",
            "id": "00126519",
            "name": "上郷(横浜市栄区)",
            "lat": "35.344132",
            "lng": "139.582202"
        },
        {
            "index": "17",
            "id": "00126518",
            "name": "長倉町",
            "lat": "35.346501",
            "lng": "139.581904"
        },
        {
            "index": "18",
            "id": "00126517",
            "name": "八軒谷戸",
            "lat": "35.350179",
            "lng": "139.580716"
        },
        {
            "index": "19",
            "id": "00126523",
            "name": "西ヶ谷入口",
            "lat": "35.352068",
            "lng": "139.578487"
        },
        {
            "index": "20",
            "id": "00126524",
            "name": "西ヶ谷",
            "lat": "35.349805",
            "lng": "139.578012"
        },
        {
            "index": "21",
            "id": "00126525",
            "name": "上郷ネオポリス",
            "lat": "35.346703",
            "lng": "139.577859"
        }
    ],
    "route_url": "https://www.kanachu.co.jp/dia/route/index/cid:0000802821/"
}
