{
    "system": "茅16",
    "busstops": [
        {
            "index": "1",
            "id": "00127126",
            "name": "茅ヶ崎駅",
            "lat": "35.330961",
            "lng": "139.406415"
        },
        {
            "index": "2",
            "id": "00127127",
            "name": "本村(茅ケ崎市)",
            "lat": "35.336057",
            "lng": "139.413263"
        },
        {
            "index": "3",
            "id": "00127316",
            "name": "本村五丁目",
            "lat": "35.339618",
            "lng": "139.413233"
        },
        {
            "index": "4",
            "id": "00127138",
            "name": "ニュータウン入口(茅ケ崎市)",
            "lat": "35.34285",
            "lng": "139.412775"
        },
        {
            "index": "5",
            "id": "00127266",
            "name": "ニュータウン中央(茅ケ崎市)",
            "lat": "35.342751",
            "lng": "139.414314"
        },
        {
            "index": "6",
            "id": "00127261",
            "name": "高田三丁目",
            "lat": "35.343174",
            "lng": "139.418129"
        },
        {
            "index": "7",
            "id": "00127262",
            "name": "室田",
            "lat": "35.345149",
            "lng": "139.419227"
        },
        {
            "index": "8",
            "id": "00127263",
            "name": "室田小学校入口",
            "lat": "35.345198",
            "lng": "139.42095"
        },
        {
            "index": "9",
            "id": "00127264",
            "name": "室田一丁目",
            "lat": "35.343054",
            "lng": "139.421964"
        },
        {
            "index": "10",
            "id": "00127265",
            "name": "室田二丁目",
            "lat": "35.343377",
            "lng": "139.420219"
        }
    ],
    "route_url": "https://www.kanachu.co.jp/dia/route/index/cid:0000800187/"
}
